[1499588295656]$GPRMC,,V,,,,,,,,,,N*53

[1499588295656]$GPVTG,,,,,,,,,N*30

[1499588295656]$GPGGA,,,,,,0,00,99.99,,,,,,*48

[1499588295656]$GPGSA,A,1,,,,,,,,,,,,,99.99,99.99,99.99*30

[1499588295656]$GPGLL,,,,,,V,N*64

[1499588296656]$GPRMC,,V,,,,,,,,,,N*53

[1499588296656]$GPVTG,,,,,,,,,N*30

[1499588296656]$GPGGA,,,,,,0,00,99.99,,,,,,*48

[1499588296656]$GPGSA,A,1,,,,,,,,,,,,,99.99,99.99,99.99*30

[1499588296656]$GPGLL,,,,,,V,N*64

[1499588297656]$GPRMC,,V,,,,,,,,,,N*53

[1499588297656]$GPVTG,,,,,,,,,N*30

[1499588297656]$GPGGA,,,,,,0,00,99.99,,,,,,*48

[1499588297656]$GPGSA,A,1,,,,,,,,,,,,,99.99,99.99,99.99*30

[1499588297656]$GPGLL,,,,,,V,N*64

[1499588298657]$GPRMC,,V,,,,,,,,,,N*53

[1499588298657]$GPVTG,,,,,,,,,N*30

[1499588298657]$GPGGA,,,,,,0,00,99.99,,,,,,*48

[1499588298657]$GPGSA,A,1,,,,,,,,,,,,,99.99,99.99,99.99*30

[1499588298657]$GPGLL,,,,,,V,N*64

[1499588299659]$GPRMC,,V,,,,,,,,,,N*53

[1499588299659]$GPVTG,,,,,,,,,N*30

[1499588299659]$GPGGA,,,,,,0,00,99.99,,,,,,*48

[1499588299659]$GPGSA,A,1,,,,,,,,,,,,,99.99,99.99,99.99*30

[1499588299659]$GPGLL,,,,,,V,N*64

[1499588300656]$GPRMC,,V,,,,,,,,,,N*53

[1499588300656]$GPVTG,,,,,,,,,N*30

[1499588300656]$GPGGA,,,,,,0,00,99.99,,,,,,*48

[1499588300656]$GPGSA,A,1,,,,,,,,,,,,,99.99,99.99,99.99*30

[1499588300656]$GPGLL,,,,,,V,N*64

[1499588301657]$GPRMC,,V,,,,,,,,,,N*53

[1499588301657]$GPVTG,,,,,,,,,N*30

[1499588301657]$GPGGA,,,,,,0,00,99.99,,,,,,*48

[1499588301657]$GPGSA,A,1,,,,,,,,,,,,,99.99,99.99,99.99*30

[1499588301657]$GPGLL,,,,,,V,N*64

[1499588302656]$GPRMC,,V,,,,,,,,,,N*53

[1499588302656]$GPVTG,,,,,,,,,N*30

[1499588302656]$GPGGA,,,,,,0,00,99.99,,,,,,*48

[1499588302656]$GPGSA,A,1,,,,,,,,,,,,,99.99,99.99,99.99*30

[1499588302656]$GPGLL,,,,,,V,N*64

[1499588303660]$GPRMC,,V,,,,,,,,,,N*53

[1499588303660]$GPVTG,,,,,,,,,N*30

[1499588303660]$GPGGA,,,,,,0,00,99.99,,,,,,*48

[1499588303660]$GPGSA,A,1,,,,,,,,,,,,,99.99,99.99,99.99*30

[1499588303660]$GPGLL,,,,,,V,N*64

[1499588304656]$GPRMC,,V,,,,,,,,,,N*53

[1499588304656]$GPVTG,,,,,,,,,N*30

[1499588304656]$GPGGA,,,,,,0,00,99.99,,,,,,*48

[1499588304656]$GPGSA,A,1,,,,,,,,,,,,,99.99,99.99,99.99*30

[1499588304656]$GPGLL,,,,,,V,N*64

[1499588305656]$GPRMC,,V,,,,,,,,,,N*53

[1499588305656]$GPVTG,,,,,,,,,N*30

[1499588305656]$GPGGA,,,,,,0,00,99.99,,,,,,*48

[1499588305656]$GPGSA,A,1,,,,,,,,,,,,,99.99,99.99,99.99*30

[1499588305656]$GPGLL,,,,,,V,N*64

[1499588306656]$GPRMC,,V,,,,,,,,,,N*53

[1499588306656]$GPVTG,,,,,,,,,N*30

[1499588306656]$GPGGA,,,,,,0,00,99.99,,,,,,*48

[1499588306656]$GPGSA,A,1,,,,,,,,,,,,,99.99,99.99,99.99*30

[1499588306656]$GPGSV,1,1,01,28,,,28*78

[1499588306656]$GPGLL,,,,,,V,N*64

[1499588307659]$GPRMC,,V,,,,,,,,,,N*53

[1499588307659]$GPVTG,,,,,,,,,N*30

[1499588307659]$GPGGA,,,,,,0,00,99.99,,,,,,*48

[1499588307659]$GPGSA,A,1,,,,,,,,,,,,,99.99,99.99,99.99*30

[1499588307659]$GPGLL,,,,,,V,N*64

[1499588308657]$GPRMC,,V,,,,,,,,,,N*53

[1499588308657]$GPVTG,,,,,,,,,N*30

[1499588308657]$GPGGA,,,,,,0,00,99.99,,,,,,*48

[1499588308657]$GPGSA,A,1,,,,,,,,,,,,,99.99,99.99,99.99*30

[1499588308657]$GPGLL,,,,,,V,N*64

[1499588309656]$GPRMC,,V,,,,,,,,,,N*53

[1499588309656]$GPVTG,,,,,,,,,N*30

[1499588309656]$GPGGA,,,,,,0,00,99.99,,,,,,*48

[1499588309656]$GPGSA,A,1,,,,,,,,,,,,,99.99,99.99,99.99*30

[1499588309656]$GPGLL,,,,,,V,N*64

[1499588310656]$GPRMC,,V,,,,,,,,,,N*53

[1499588310656]$GPVTG,,,,,,,,,N*30

[1499588310656]$GPGGA,,,,,,0,00,99.99,,,,,,*48

[1499588310656]$GPGSA,A,1,,,,,,,,,,,,,99.99,99.99,99.99*30

[1499588310656]$GPGLL,,,,,,V,N*64

[1499588311663]$GPRMC,,V,,,,,,,,,,N*53

[1499588311663]$GPVTG,,,,,,,,,N*30

[1499588311663]$GPGGA,,,,,,0,00,99.99,,,,,,*48

[1499588311663]$GPGSA,A,1,,,,,,,,,,,,,99.99,99.99,99.99*30

[1499588311663]$GPGLL,,,,,,V,N*64

[1499588312656]$GPRMC,,V,,,,,,,,,,N*53

[1499588312656]$GPVTG,,,,,,,,,N*30

[1499588312656]$GPGGA,,,,,,0,00,99.99,,,,,,*48

[1499588312656]$GPGSA,A,1,,,,,,,,,,,,,99.99,99.99,99.99*30

[1499588312656]$GPGLL,,,,,,V,N*64

[1499588313656]$GPRMC,,V,,,,,,,,,,N*53

[1499588313656]$GPVTG,,,,,,,,,N*30

[1499588313656]$GPGGA,,,,,,0,00,99.99,,,,,,*48

[1499588313656]$GPGSA,A,1,,,,,,,,,,,,,99.99,99.99,99.99*30

[1499588313656]$GPGLL,,,,,,V,N*64

[1499588314658]$GPRMC,,V,,,,,,,,,,N*53

[1499588314658]$GPVTG,,,,,,,,,N*30

[1499588314658]$GPGGA,,,,,,0,00,99.99,,,,,,*48

[1499588314658]$GPGSA,A,1,,,,,,,,,,,,,99.99,99.99,99.99*30

[1499588314658]$GPGLL,,,,,,V,N*64

[1499588315656]$GPRMC,,V,,,,,,,,,,N*53

[1499588315656]$GPVTG,,,,,,,,,N*30

[1499588315656]$GPGGA,,,,,,0,00,99.99,,,,,,*48

[1499588315656]$GPGSA,A,1,,,,,,,,,,,,,99.99,99.99,99.99*30

[1499588315656]$GPGLL,,,,,,V,N*64

[1499588316656]$GPRMC,,V,,,,,,,,,,N*53

[1499588316656]$GPVTG,,,,,,,,,N*30

[1499588316656]$GPGGA,,,,,,0,00,99.99,,,,,,*48

[1499588316656]$GPGSA,A,1,,,,,,,,,,,,,99.99,99.99,99.99*30

[1499588316656]$GPGLL,,,,,,V,N*64

[1499588317656]$GPRMC,,V,,,,,,,,,,N*53

[1499588317656]$GPVTG,,,,,,,,,N*30

[1499588317656]$GPGGA,,,,,,0,00,99.99,,,,,,*48

[1499588317656]$GPGSA,A,1,,,,,,,,,,,,,99.99,99.99,99.99*30

[1499588317656]$GPGLL,,,,,,V,N*64

[1499588318656]$GPRMC,,V,,,,,,,,,,N*53

[1499588318656]$GPVTG,,,,,,,,,N*30

[1499588318656]$GPGGA,,,,,,0,00,99.99,,,,,,*48

[1499588318656]$GPGSA,A,1,,,,,,,,,,,,,99.99,99.99,99.99*30

[1499588318656]$GPGLL,,,,,,V,N*64

[1499588319656]$GPRMC,,V,,,,,,,,,,N*53

[1499588319656]$GPVTG,,,,,,,,,N*30

[1499588319656]$GPGGA,,,,,,0,00,99.99,,,,,,*48

[1499588319656]$GPGSA,A,1,,,,,,,,,,,,,99.99,99.99,99.99*30

[1499588319656]$GPGLL,,,,,,V,N*64

[1499588320656]$GPRMC,,V,,,,,,,,,,N*53

[1499588320656]$GPVTG,,,,,,,,,N*30

[1499588320656]$GPGGA,,,,,,0,00,99.99,,,,,,*48

[1499588320656]$GPGSA,A,1,,,,,,,,,,,,,99.99,99.99,99.99*30

[1499588320656]$GPGSV,1,1,01,13,,,37*7E

[1499588320656]$GPGLL,,,,,,V,N*64

[1499588321656]$GPRMC,,V,,,,,,,,,,N*53

[1499588321656]$GPVTG,,,,,,,,,N*30

[1499588321656]$GPGGA,,,,,,0,00,99.99,,,,,,*48

[1499588321656]$GPGSA,A,1,,,,,,,,,,,,,99.99,99.99,99.99*30

[1499588321656]$GPGSV,1,1,01,13,,,36*7F

[1499588321656]$GPGLL,,,,,,V,N*64

[1499588322657]$GPRMC,,V,,,,,,,,,,N*53

[1499588322657]$GPVTG,,,,,,,,,N*30

[1499588322657]$GPGGA,,,,,,0,00,99.99,,,,,,*48

[1499588322657]$GPGSA,A,1,,,,,,,,,,,,,99.99,99.99,99.99*30

[1499588322657]$GPGSV,1,1,01,13,,,36*7F

[1499588322657]$GPGLL,,,,,,V,N*64

[1499588323656]$GPRMC,,V,,,,,,,,,,N*53

[1499588323656]$GPVTG,,,,,,,,,N*30

[1499588323656]$GPGGA,,,,,,0,00,99.99,,,,,,*48

[1499588323656]$GPGSA,A,1,,,,,,,,,,,,,99.99,99.99,99.99*30

[1499588323656]$GPGSV,1,1,01,13,,,36*7F

[1499588323656]$GPGLL,,,,,,V,N*64

[1499588324672]$GPRMC,,V,,,,,,,,,,N*53

[1499588324672]$GPVTG,,,,,,,,,N*30

[1499588324672]$GPGGA,,,,,,0,00,99.99,,,,,,*48

[1499588324672]$GPGSA,A,1,,,,,,,,,,,,,99.99,99.99,99.99*30

[1499588324672]$GPGSV,1,1,01,13,,,36*7F

[1499588324672]$GPGLL,,,,,,V,N*64

[1499588325656]$GPRMC,,V,,,,,,,,,,N*53

[1499588325656]$GPVTG,,,,,,,,,N*30

[1499588325656]$GPGGA,,,,,,0,00,99.99,,,,,,*48

[1499588325656]$GPGSA,A,1,,,,,,,,,,,,,99.99,99.99,99.99*30

[1499588325656]$GPGSV,1,1,01,13,,,36*7F

[1499588325656]$GPGLL,,,,,,V,N*64

[1499588326656]$GPRMC,,V,,,,,,,,,,N*53

[1499588326656]$GPVTG,,,,,,,,,N*30

[1499588326656]$GPGGA,,,,,,0,00,99.99,,,,,,*48

[1499588326656]$GPGSA,A,1,,,,,,,,,,,,,99.99,99.99,99.99*30

[1499588326656]$GPGSV,1,1,01,13,,,36*7F

[1499588326656]$GPGLL,,,,,,V,N*64

[1499588327776]$GPRMC,051849.04,V,,,,,,,,,,N*78

[1499588327776]$GPVTG,,,,,,,,,N*30

[1499588327776]$GPGGA,051849.04,,,,,0,00,99.99,,,,,,*63

[1499588327776]$GPGSA,A,1,,,,,,,,,,,,,99.99,99.99,99.99*30

[1499588327776]$GPGSV,1,1,04,12,,,27,13,,,36,18,,,27,24,,,34*71

[1499588327776]$GPGLL,,,,,051849.04,V,N*4F

[1499588328617]$GPRMC,051850.00,V,,,,,,,,,,N*74

[1499588328617]$GPVTG,,,,,,,,,N*30

[1499588328617]$GPGGA,051850.00,,,,,0,00,99.99,,,,,,*6F

[1499588328617]$GPGSA,A,1,,,,,,,,,,,,,99.99,99.99,99.99*30

[1499588328617]$GPGSV,1,1,04,12,,,27,13,,,34,18,,,27,24,,,36*71

[1499588328617]$GPGLL,,,,,051850.00,V,N*43

[1499588329616]$GPRMC,051851.00,V,,,,,,,,,,N*75

[1499588329616]$GPVTG,,,,,,,,,N*30

[1499588329616]$GPGGA,051851.00,,,,,0,00,99.99,,,,,,*6E

[1499588329616]$GPGSA,A,1,,,,,,,,,,,,,99.99,99.99,99.99*30

[1499588329616]$GPGSV,1,1,04,12,,,25,13,,,34,18,,,27,24,,,36*73

[1499588329616]$GPGLL,,,,,051851.00,V,N*42

[1499588330626]$GPRMC,051852.00,V,,,,,,,090717,,,N*7E

[1499588330626]$GPVTG,,,,,,,,,N*30

[1499588330626]$GPGGA,051852.00,,,,,0,00,99.99,,,,,,*6D

[1499588330626]$GPGSA,A,1,,,,,,,,,,,,,99.99,99.99,99.99*30

[1499588330626]$GPGSV,1,1,04,12,,,30,13,,,33,18,,,27,24,,,36*70

[1499588330626]$GPGLL,,,,,051852.00,V,N*41

[1499588331626]$GPRMC,051853.00,V,,,,,,,090717,,,N*7F

[1499588331626]$GPVTG,,,,,,,,,N*30

[1499588331626]$GPGGA,051853.00,,,,,0,00,99.99,,,,,,*6C

[1499588331626]$GPGSA,A,1,,,,,,,,,,,,,99.99,99.99,99.99*30

[1499588331626]$GPGSV,1,1,04,12,,,29,13,,,33,18,,,29,24,,,38*78

[1499588331626]$GPGLL,,,,,051853.00,V,N*40

[1499588332626]$GPRMC,051854.00,V,,,,,,,090717,,,N*78

[1499588332626]$GPVTG,,,,,,,,,N*30

[1499588332626]$GPGGA,051854.00,,,,,0,00,99.99,,,,,,*6B

[1499588332626]$GPGSA,A,1,,,,,,,,,,,,,99.99,99.99,99.99*30

[1499588332626]$GPGSV,2,1,07,12,,,29,13,,,33,15,,,41,18,,,32*7E

[1499588332626]$GPGSV,2,2,07,24,,,35,28,,,36,30,,,34*75

[1499588332626]$GPGLL,,,,,051854.00,V,N*47

[1499588333786]$GPRMC,051855.00,V,,,,,,,090717,,,N*79

[1499588333786]$GPVTG,,,,,,,,,N*30

[1499588333786]$GPGGA,051855.00,,,,,0,00,99.99,,,,,,*6A

[1499588333786]$GPGSA,A,1,,,,,,,,,,,,,99.99,99.99,99.99*30

[1499588333786]$GPGSV,2,1,07,12,,,29,13,,,32,15,,,42,18,,,32*7C

[1499588333786]$GPGSV,2,2,07,24,,,37,28,,,36,30,,,36*75

[1499588333786]$GPGLL,,,,,051855.00,V,N*46

[1499588334626]$GPRMC,051856.00,V,,,,,,,090717,,,N*7A

[1499588334626]$GPVTG,,,,,,,,,N*30

[1499588334626]$GPGGA,051856.00,,,,,0,00,99.99,,,,,,*69

[1499588334626]$GPGSA,A,1,,,,,,,,,,,,,99.99,99.99,99.99*30

[1499588334626]$GPGSV,2,1,07,12,,,30,13,,,33,15,,,40,18,,,31*74

[1499588334626]$GPGSV,2,2,07,24,,,37,28,,,35,30,,,34*74

[1499588334626]$GPGLL,,,,,051856.00,V,N*45

[1499588335629]$GPRMC,051857.00,V,,,,,,,090717,,,N*7B

[1499588335629]$GPVTG,,,,,,,,,N*30

[1499588335629]$GPGGA,051857.00,,,,,0,00,99.99,,,,,,*68

[1499588335629]$GPGSA,A,1,,,,,,,,,,,,,99.99,99.99,99.99*30

[1499588335629]$GPGSV,2,1,07,12,,,30,13,,,33,15,,,40,18,,,30*75

[1499588335629]$GPGSV,2,2,07,24,,,36,28,,,35,30,,,30*71

[1499588335629]$GPGLL,,,,,051857.00,V,N*44

[1499588336627]$GPRMC,051858.00,V,,,,,,,090717,,,N*74

[1499588336627]$GPVTG,,,,,,,,,N*30

[1499588336627]$GPGGA,051858.00,,,,,0,00,99.99,,,,,,*67

[1499588336627]$GPGSA,A,1,,,,,,,,,,,,,99.99,99.99,99.99*30

[1499588336627]$GPGSV,2,1,07,12,,,29,13,,,33,15,,,41,18,,,30*7C

[1499588336627]$GPGSV,2,2,07,24,,,36,28,,,35,30,,,36*77

[1499588336627]$GPGLL,,,,,051858.00,V,N*4B

[1499588337626]$GPRMC,051859.00,V,,,,,,,090717,,,N*75

[1499588337626]$GPVTG,,,,,,,,,N*30

[1499588337626]$GPGGA,051859.00,,,,,0,00,99.99,,,,,,*66

[1499588337626]$GPGSA,A,1,,,,,,,,,,,,,99.99,99.99,99.99*30

[1499588337626]$GPGSV,2,1,07,12,,,27,13,,,34,15,,,42,18,,,29*7E

[1499588337626]$GPGSV,2,2,07,24,,,34,28,,,35,30,,,36*75

[1499588337626]$GPGLL,,,,,051859.00,V,N*4A

[1499588338626]$GPRMC,051900.00,V,,,,,,,090717,,,N*78

[1499588338626]$GPVTG,,,,,,,,,N*30

[1499588338626]$GPGGA,051900.00,,,,,0,00,99.99,,,,,,*6B

[1499588338626]$GPGSA,A,1,,,,,,,,,,,,,99.99,99.99,99.99*30

[1499588338626]$GPGSV,2,1,07,12,,,26,13,,,35,15,,,41,18,,,29*7D

[1499588338626]$GPGSV,2,2,07,24,,,34,28,,,38,30,,,38*76

[1499588338626]$GPGLL,,,,,051900.00,V,N*47

[1499588339717]$GPRMC,051901.00,V,,,,,,,090717,,,N*79

[1499588339717]$GPVTG,,,,,,,,,N*30

[1499588339717]$GPGGA,051901.00,,,,,0,00,99.99,,,,,,*6A

[1499588339717]$GPGSA,A,1,,,,,,,,,,,,,99.99,99.99,99.99*30

[1499588339717]$GPGSV,2,1,07,12,,,25,13,,,37,15,,,35,18,,,29*7F

[1499588339717]$GPGSV,2,2,07,24,,,26,28,,,33,30,,,35*73

[1499588339717]$GPGLL,,,,,051901.00,V,N*46

[1499588340626]$GPRMC,051902.00,V,,,,,,,090717,,,N*7A

[1499588340626]$GPVTG,,,,,,,,,N*30

[1499588340626]$GPGGA,051902.00,,,,,0,00,99.99,,,,,,*69

[1499588340626]$GPGSA,A,1,,,,,,,,,,,,,99.99,99.99,99.99*30

[1499588340626]$GPGSV,2,1,07,12,,,26,13,,,37,15,,,29,18,,,30*79

[1499588340626]$GPGSV,2,2,07,24,,,25,28,,,35,30,,,28*7A

[1499588340626]$GPGLL,,,,,051902.00,V,N*45

[1499588341626]$GPRMC,051903.00,V,,,,,,,090717,,,N*7B

[1499588341626]$GPVTG,,,,,,,,,N*30

[1499588341626]$GPGGA,051903.00,,,,,0,00,99.99,,,,,,*68

[1499588341626]$GPGSA,A,1,,,,,,,,,,,,,99.99,99.99,99.99*30

[1499588341626]$GPGSV,2,1,07,12,,,26,13,,,25,15,,,42,18,,,22*74

[1499588341626]$GPGSV,2,2,07,24,,,35,28,,,37,30,,,31*71

[1499588341626]$GPGLL,,,,,051903.00,V,N*44

[1499588342626]$GPRMC,051904.00,V,,,,,,,090717,,,N*7C

[1499588342626]$GPVTG,,,,,,,,,N*30

[1499588342626]$GPGGA,051904.00,,,,,0,00,99.99,,,,,,*6F

[1499588342626]$GPGSA,A,1,,,,,,,,,,,,,99.99,99.99,99.99*30

[1499588342626]$GPGSV,2,1,07,12,,,31,13,,,22,15,,,41,18,,,23*77

[1499588342626]$GPGSV,2,2,07,24,,,34,28,,,22,30,,,25*71

[1499588342626]$GPGLL,,,,,051904.00,V,N*43

[1499588343629]$GPRMC,051905.00,V,,,,,,,090717,,,N*7D

[1499588343629]$GPVTG,,,,,,,,,N*30

[1499588343629]$GPGGA,051905.00,,,,,0,00,99.99,,,,,,*6E

[1499588343629]$GPGSA,A,1,,,,,,,,,,,,,99.99,99.99,99.99*30

[1499588343629]$GPGSV,2,1,08,12,,,31,13,,,31,15,,,27,17,,,32*75

[1499588343629]$GPGSV,2,2,08,18,,,30,24,,,37,28,,,37,30,,,25*73

[1499588343629]$GPGLL,,,,,051905.00,V,N*42

[1499588344626]$GPRMC,051906.00,V,,,,,,,090717,,,N*7E

[1499588344626]$GPVTG,,,,,,,,,N*30

[1499588344626]$GPGGA,051906.00,,,,,0,00,99.99,,,,,,*6D

[1499588344626]$GPGSA,A,1,,,,,,,,,,,,,99.99,99.99,99.99*30

[1499588344626]$GPGSV,2,1,08,12,,,27,13,,,27,15,,,35,17,,,28*7D

[1499588344626]$GPGSV,2,2,08,18,,,31,24,,,35,28,,,39,30,,,25*7E

[1499588344626]$GPGLL,,,,,051906.00,V,N*41

[1499588345786]$GPRMC,051907.00,V,,,,,,,090717,,,N*7F

[1499588345786]$GPVTG,,,,,,,,,N*30

[1499588345786]$GPGGA,051907.00,,,,,0,00,99.99,,,,,,*6C

[1499588345786]$GPGSA,A,1,,,,,,,,,,,,,99.99,99.99,99.99*30

[1499588345786]$GPGSV,2,1,08,12,,,32,13,,,25,15,,,35,17,,,27*74

[1499588345786]$GPGSV,2,2,08,18,,,25,24,,,26,28,,,28,30,,,26*7A

[1499588345786]$GPGLL,,,,,051907.00,V,N*40

[1499588346626]$GPRMC,051908.00,V,,,,,,,090717,,,N*70

[1499588346626]$GPVTG,,,,,,,,,N*30

[1499588346626]$GPGGA,051908.00,,,,,0,00,99.99,,,,,,*63

[1499588346626]$GPGSA,A,1,,,,,,,,,,,,,99.99,99.99,99.99*30

[1499588346626]$GPGSV,3,1,09,12,,,29,13,,,31,15,,,33,17,,,26*7C

[1499588346626]$GPGSV,3,2,09,18,,,26,19,,,30,24,,,27,28,,,30*7D

[1499588346626]$GPGSV,3,3,09,30,,,24*75

[1499588346626]$GPGLL,,,,,051908.00,V,N*4F

[1499588347626]$GPRMC,051909.00,V,,,,,,,090717,,,N*71

[1499588347626]$GPVTG,,,,,,,,,N*30

[1499588347626]$GPGGA,051909.00,,,,,0,00,99.99,,,,,,*62

[1499588347626]$GPGSA,A,1,,,,,,,,,,,,,99.99,99.99,99.99*30

[1499588347626]$GPGSV,3,1,09,12,,,31,13,,,31,15,,,27,17,,,26*70

[1499588347626]$GPGSV,3,2,09,18,,,27,19,,,35,24,,,35,28,,,32*78

[1499588347626]$GPGSV,3,3,09,30,,,24*75

[1499588347626]$GPGLL,,,,,051909.00,V,N*4E

[1499588348626]$GPRMC,051910.00,V,,,,,,,090717,,,N*79

[1499588348626]$GPVTG,,,,,,,,,N*30

[1499588348626]$GPGGA,051910.00,,,,,0,00,99.99,,,,,,*6A

[1499588348626]$GPGSA,A,1,,,,,,,,,,,,,99.99,99.99,99.99*30

[1499588348626]$GPGSV,3,1,10,12,,,37,13,,,32,15,,,32,17,,,25*7A

[1499588348626]$GPGSV,3,2,10,18,,,29,19,,,35,20,,,28,24,,,38*70

[1499588348626]$GPGSV,3,3,10,28,,,36,30,,,24*72

[1499588348626]$GPGLL,,,,,051910.00,V,N*46

[1499588349627]$GPRMC,051911.00,V,,,,,,,090717,,,N*78

[1499588349627]$GPVTG,,,,,,,,,N*30

[1499588349627]$GPGGA,051911.00,,,,,0,00,99.99,,,,,,*6B

[1499588349627]$GPGSA,A,1,,,,,,,,,,,,,99.99,99.99,99.99*30

[1499588349627]$GPGSV,3,1,09,12,,,34,13,,,32,15,,,26,17,,,31*71

[1499588349627]$GPGSV,3,2,09,18,,,26,19,,,30,24,,,37,28,,,28*75

[1499588349627]$GPGSV,3,3,09,30,,,23*72

[1499588349627]$GPGLL,,,,,051911.00,V,N*47

[1499588350627]$GPRMC,051912.00,V,,,,,,,090717,,,N*7B

[1499588350627]$GPVTG,,,,,,,,,N*30

[1499588350627]$GPGGA,051912.00,,,,,0,00,99.99,,,,,,*68

[1499588350627]$GPGSA,A,1,,,,,,,,,,,,,99.99,99.99,99.99*30

[1499588350627]$GPGSV,3,1,09,12,,,36,13,,,27,15,,,35,17,,,40*73

[1499588350627]$GPGSV,3,2,09,18,,,31,19,,,39,24,,,38,28,,,32*7E

[1499588350627]$GPGSV,3,3,09,30,,,21*70

[1499588350627]$GPGLL,,,,,051912.00,V,N*44

[1499588351796]$GPRMC,051913.00,V,,,,,,,090717,,,N*7A

[1499588351796]$GPVTG,,,,,,,,,N*30

[1499588351796]$GPGGA,051913.00,,,,,0,00,99.99,,,,,,*69

[1499588351796]$GPGSA,A,1,,,,,,,,,,,,,99.99,99.99,99.99*30

[1499588351796]$GPGSV,3,1,09,12,,,36,13,,,35,15,,,37,17,,,27*73

[1499588351796]$GPGSV,3,2,09,18,,,24,19,,,27,24,,,27,28,,,27*7F

[1499588351796]$GPGSV,3,3,09,30,,,29*78

[1499588351796]$GPGLL,,,,,051913.00,V,N*45

[1499588352626]$GPRMC,051914.00,V,,,,,,,090717,,,N*7D

[1499588352626]$GPVTG,,,,,,,,,N*30

[1499588352626]$GPGGA,051914.00,,,,,0,00,99.99,,,,,,*6E

[1499588352626]$GPGSA,A,1,,,,,,,,,,,,,99.99,99.99,99.99*30

[1499588352626]$GPGSV,3,1,09,12,,,34,13,,,35,15,,,31,17,,,35*74

[1499588352626]$GPGSV,3,2,09,18,,,31,19,,,40,24,,,32,28,,,35*7D

[1499588352626]$GPGSV,3,3,09,30,,,21*70

[1499588352626]$GPGLL,,,,,051914.00,V,N*42

[1499588353626]$GPRMC,051915.00,V,,,,,,,090717,,,N*7C

[1499588353626]$GPVTG,,,,,,,,,N*30

[1499588353626]$GPGGA,051915.00,,,,,0,00,99.99,,,,,,*6F

[1499588353626]$GPGSA,A,1,,,,,,,,,,,,,99.99,99.99,99.99*30

[1499588353626]$GPGSV,3,1,09,12,,,30,13,,,34,15,,,24,17,,,40*77

[1499588353626]$GPGSV,3,2,09,18,,,31,19,,,32,24,,,34,28,,,33*78

[1499588353626]$GPGSV,3,3,09,30,,,19*7B

[1499588353626]$GPGLL,,,,,051915.00,V,N*43

[1499588354627]$GPRMC,051916.00,V,,,,,,,090717,,,N*7F

[1499588354627]$GPVTG,,,,,,,,,N*30

[1499588354627]$GPGGA,051916.00,,,,,0,00,99.99,,,,,,*6C

[1499588354627]$GPGSA,A,1,,,,,,,,,,,,,99.99,99.99,99.99*30

[1499588354627]$GPGSV,3,1,09,12,,,22,13,,,33,15,,,24,17,,,38*7C

[1499588354627]$GPGSV,3,2,09,18,,,31,19,,,33,24,,,35,28,,,32*79

[1499588354627]$GPGSV,3,3,09,30,,,27*76

[1499588354627]$GPGLL,,,,,051916.00,V,N*40

[1499588355626]$GPRMC,051917.00,V,,,,,,,090717,,,N*7E

[1499588355626]$GPVTG,,,,,,,,,N*30

[1499588355626]$GPGGA,051917.00,,,,,0,00,99.99,,,,,,*6D

[1499588355626]$GPGSA,A,1,,,,,,,,,,,,,99.99,99.99,99.99*30

[1499588355626]$GPGSV,3,1,09,12,,,34,13,,,38,15,,,25,17,,,35*7C

[1499588355626]$GPGSV,3,2,09,18,,,32,19,,,38,24,,,35,28,,,35*76

[1499588355626]$GPGSV,3,3,09,30,,,26*77

[1499588355626]$GPGLL,,,,,051917.00,V,N*41

[1499588356626]$GPRMC,051918.00,V,,,,,,,090717,,,N*71

[1499588356626]$GPVTG,,,,,,,,,N*30

[1499588356626]$GPGGA,051918.00,,,,,0,00,99.99,,,,,,*62

[1499588356626]$GPGSA,A,1,,,,,,,,,,,,,99.99,99.99,99.99*30

[1499588356626]$GPGSV,3,1,09,12,,,33,13,,,33,15,,,35,17,,,37*73

[1499588356626]$GPGSV,3,2,09,18,,,33,19,,,39,24,,,31,28,,,36*71

[1499588356626]$GPGSV,3,3,09,30,,,27*76

[1499588356626]$GPGLL,,,,,051918.00,V,N*4E

[1499588357796]$GPRMC,051919.00,V,,,,,,,090717,,,N*70

[1499588357796]$GPVTG,,,,,,,,,N*30

[1499588357796]$GPGGA,051919.00,,,,,0,00,99.99,,,,,,*63

[1499588357796]$GPGSA,A,1,,,,,,,,,,,,,99.99,99.99,99.99*30

[1499588357796]$GPGSV,3,1,09,12,,,33,13,,,28,15,,,35,17,,,37*79

[1499588357796]$GPGSV,3,2,09,18,,,33,19,,,38,24,,,25,28,,,35*76

[1499588357796]$GPGSV,3,3,09,30,,,32*72

[1499588357796]$GPGLL,,,,,051919.00,V,N*4F

[1499588358626]$GPRMC,051920.00,V,,,,,,,090717,,,N*7A

[1499588358626]$GPVTG,,,,,,,,,N*30

[1499588358626]$GPGGA,051920.00,,,,,0,00,99.99,,,,,,*69

[1499588358626]$GPGSA,A,1,,,,,,,,,,,,,99.99,99.99,99.99*30

[1499588358626]$GPGSV,3,1,09,12,,,25,13,,,32,15,,,30,17,,,37*70

[1499588358626]$GPGSV,3,2,09,18,,,32,19,,,38,24,,,28,28,,,32*7D

[1499588358626]$GPGSV,3,3,09,30,,,38*78

[1499588358626]$GPGLL,,,,,051920.00,V,N*45

[1499588359629]$GPRMC,051921.00,V,,,,,,,090717,,,N*7B

[1499588359629]$GPVTG,,,,,,,,,N*30

[1499588359629]$GPGGA,051921.00,,,,,0,00,99.99,,,,,,*68

[1499588359629]$GPGSA,A,1,,,,,,,,,,,,,99.99,99.99,99.99*30

[1499588359629]$GPGSV,3,1,09,12,,,22,13,,,35,15,,,30,17,,,37*70

[1499588359629]$GPGSV,3,2,09,18,,,31,19,,,36,24,,,32,28,,,27*7F

[1499588359629]$GPGSV,3,3,09,30,,,37*77

[1499588359629]$GPGLL,,,,,051921.00,V,N*44

[1499588360626]$GPRMC,051922.00,V,,,,,,,090717,,,N*78

[1499588360626]$GPVTG,,,,,,,,,N*30

[1499588360626]$GPGGA,051922.00,,,,,0,00,99.99,,,,,,*6B

[1499588360626]$GPGSA,A,1,,,,,,,,,,,,,99.99,99.99,99.99*30

[1499588360626]$GPGSV,3,1,09,12,,,16,13,,,30,15,,,28,17,,,37*7B

[1499588360626]$GPGSV,3,2,09,18,,,26,19,,,39,24,,,31,28,,,27*75

[1499588360626]$GPGSV,3,3,09,30,,,35*75

[1499588360626]$GPGLL,,,,,051922.00,V,N*47

[1499588361626]$GPRMC,051923.00,V,,,,,,,090717,,,N*79

[1499588361626]$GPVTG,,,,,,,,,N*30

[1499588361626]$GPGGA,051923.00,,,,,0,00,99.99,,,,,,*6A

[1499588361626]$GPGSA,A,1,,,,,,,,,,,,,99.99,99.99,99.99*30

[1499588361626]$GPGSV,3,1,09,12,,,14,13,,,22,15,,,32,17,,,39*7F

[1499588361626]$GPGSV,3,2,09,18,,,25,19,,,38,24,,,23,28,,,27*74

[1499588361626]$GPGSV,3,3,09,30,,,35*75

[1499588361626]$GPGLL,,,,,051923.00,V,N*46

[1499588362627]$GPRMC,051924.00,V,,,,,,,090717,,,N*7E

[1499588362627]$GPVTG,,,,,,,,,N*30

[1499588362627]$GPGGA,051924.00,,,,,0,00,99.99,,,,,,*6D

[1499588362627]$GPGSA,A,1,,,,,,,,,,,,,99.99,99.99,99.99*30

[1499588362627]$GPGSV,3,1,09,12,,,10,13,,,23,15,,,32,17,,,39*7A

[1499588362627]$GPGSV,3,2,09,18,,,24,19,,,35,24,,,26,28,,,32*79

[1499588362627]$GPGSV,3,3,09,30,,,35*75

[1499588362627]$GPGLL,,,,,051924.00,V,N*41

[1499588363796]$GPRMC,051925.00,V,,,,,,,090717,,,N*7F

[1499588363796]$GPVTG,,,,,,,,,N*30

[1499588363796]$GPGGA,051925.00,,,,,0,00,99.99,,,,,,*6C

[1499588363796]$GPGSA,A,1,,,,,,,,,,,,,99.99,99.99,99.99*30

[1499588363796]$GPGSV,3,1,09,12,,,12,13,,,22,15,,,33,17,,,39*78

[1499588363796]$GPGSV,3,2,09,18,,,24,19,,,36,24,,,32,28,,,27*7B

[1499588363796]$GPGSV,3,3,09,30,,,35*75

[1499588363796]$GPGLL,,,,,051925.00,V,N*40

[1499588364626]$GPRMC,051926.00,V,,,,,,,090717,,,N*7C

[1499588364626]$GPVTG,,,,,,,,,N*30

[1499588364626]$GPGGA,051926.00,,,,,0,00,99.99,,,,,,*6F

[1499588364626]$GPGSA,A,1,,,,,,,,,,,,,99.99,99.99,99.99*30

[1499588364626]$GPGSV,3,1,09,12,,,13,13,,,20,15,,,33,17,,,39*7B

[1499588364626]$GPGSV,3,2,09,18,,,25,19,,,29,24,,,30,28,,,32*72

[1499588364626]$GPGSV,3,3,09,30,,,32*72

[1499588364626]$GPGLL,,,,,051926.00,V,N*43

[1499588365626]$GPRMC,051927.00,V,,,,,,,090717,,,N*7D

[1499588365626]$GPVTG,,,,,,,,,N*30

[1499588365626]$GPGGA,051927.00,,,,,0,00,99.99,,,,,,*6E

[1499588365626]$GPGSA,A,1,,,,,,,,,,,,,99.99,99.99,99.99*30

[1499588365626]$GPGSV,3,1,09,12,,,17,13,,,19,15,,,34,17,,,39*72

[1499588365626]$GPGSV,3,2,09,18,,,24,19,,,30,24,,,31,28,,,35*7D

[1499588365626]$GPGSV,3,3,09,30,,,32*72

[1499588365626]$GPGLL,,,,,051927.00,V,N*42

[1499588366626]$GPRMC,051928.00,V,,,,,,,090717,,,N*72

[1499588366626]$GPVTG,,,,,,,,,N*30

[1499588366626]$GPGGA,051928.00,,,,,0,00,99.99,,,,,,*61

[1499588366626]$GPGSA,A,1,,,,,,,,,,,,,99.99,99.99,99.99*30

[1499588366626]$GPGSV,3,1,09,12,,,18,13,,,18,15,,,35,17,,,39*7D

[1499588366626]$GPGSV,3,2,09,18,,,24,19,,,32,24,,,35,28,,,29*76

[1499588366626]$GPGSV,3,3,09,30,,,33*73

[1499588366626]$GPGLL,,,,,051928.00,V,N*4D

[1499588367626]$GPRMC,051929.00,V,,,,,,,090717,,,N*73

[1499588367626]$GPVTG,,,,,,,,,N*30

[1499588367626]$GPGGA,051929.00,,,,,0,00,99.99,,,,,,*60

[1499588367626]$GPGSA,A,1,,,,,,,,,,,,,99.99,99.99,99.99*30

[1499588367626]$GPGSV,3,1,09,12,,,28,13,,,17,15,,,34,17,,,40*7E

[1499588367626]$GPGSV,3,2,09,18,,,24,19,,,35,24,,,35,28,,,34*7D

[1499588367626]$GPGSV,3,3,09,30,,,33*73

[1499588367626]$GPGLL,,,,,051929.00,V,N*4C

[1499588368626]$GPRMC,051930.00,V,,,,,,,090717,,,N*7B

[1499588368626]$GPVTG,,,,,,,,,N*30

[1499588368626]$GPGGA,051930.00,,,,,0,00,99.99,,,,,,*68

[1499588368626]$GPGSA,A,1,,,,,,,,,,,,,99.99,99.99,99.99*30

[1499588368626]$GPGSV,3,1,09,12,,,25,13,,,30,15,,,32,17,,,40*70

[1499588368626]$GPGSV,3,2,09,18,,,24,19,,,35,24,,,34,28,,,33*7B

[1499588368626]$GPGSV,3,3,09,30,,,33*73

[1499588368626]$GPGLL,,,,,051930.00,V,N*44

[1499588369816]$GPRMC,051931.00,V,,,,,,,090717,,,N*7A

[1499588369816]$GPVTG,,,,,,,,,N*30

[1499588369816]$GPGGA,051931.00,,,,,0,00,99.99,,,,,,*69

[1499588369816]$GPGSA,A,1,,,,,,,,,,,,,99.99,99.99,99.99*30

[1499588369816]$GPGSV,3,1,09,12,,,25,13,,,32,15,,,33,17,,,41*72

[1499588369816]$GPGSV,3,2,09,18,,,24,19,,,36,24,,,37,28,,,33*7B

[1499588369816]$GPGSV,3,3,09,30,,,35*75

[1499588369816]$GPGLL,,,,,051931.00,V,N*45

[1499588370656]$GPRMC,051932.00,V,,,,,,,090717,,,N*79

[1499588370656]$GPVTG,,,,,,,,,N*30

[1499588370656]$GPGGA,051932.00,,,,,0,04,2.29,,,,,,*57

[1499588370656]$GPGSA,A,1,24,17,13,19,,,,,,,,,9.56,2.29,9.28*0A

[1499588370656]$GPGSV,3,1,09,12,,,26,13,45,184,32,15,,,36,17,50,114,41*79

[1499588370656]$GPGSV,3,2,09,18,,,22,19,38,148,36,24,39,288,37,28,,,32*72

[1499588370656]$GPGSV,3,3,09,30,,,33*73

[1499588370656]$GPGLL,,,,,051932.00,V,N*46

[1499588371649]$GPRMC,051933.00,A,5356.78072,N,02741.16254,E,19.339,117.60,090717,,,A*50

[1499588371649]$GPVTG,117.60,T,,M,19.339,N,35.816,K,A*34

[1499588371649]$GPGGA,051933.00,5356.78072,N,02741.16254,E,1,04,2.29,224.7,M,24.8,M,,*5A

[1499588371649]$GPGSA,A,3,24,17,13,19,,,,,,,,,9.57,2.29,9.29*08

[1499588371649]$GPGSV,3,1,10,01,,,30,12,,,26,13,45,184,33,15,,,36*40

[1499588371649]$GPGSV,3,2,10,17,50,114,41,18,,,21,19,38,148,36,24,39,288,36*41

[1499588371649]$GPGSV,3,3,10,28,,,32,30,,,33*70

[1499588371649]$GPGLL,5356.78072,N,02741.16254,E,051933.00,A,A*6F

[1499588372646]$GPRMC,051934.00,A,5356.77898,N,02741.17106,E,19.056,116.67,090717,,,A*5D

[1499588372646]$GPVTG,116.67,T,,M,19.056,N,35.291,K,A*3D

[1499588372646]$GPGGA,051934.00,5356.77898,N,02741.17106,E,1,04,2.29,221.0,M,24.8,M,,*59

[1499588372646]$GPGSA,A,3,24,17,13,19,,,,,,,,,9.58,2.29,9.30*0F

[1499588372646]$GPGSV,3,1,09,12,,,25,13,45,184,33,15,,,36,17,50,114,41*7B

[1499588372646]$GPGSV,3,2,09,18,,,19,19,38,148,36,24,39,288,37,28,,,32*7A

[1499588372646]$GPGSV,3,3,09,30,,,34*74

[1499588372646]$GPGLL,5356.77898,N,02741.17106,E,051934.00,A,A*6E

[1499588373650]$GPRMC,051935.00,A,5356.77712,N,02741.17938,E,18.804,116.78,090717,,,A*54

[1499588373650]$GPVTG,116.78,T,,M,18.804,N,34.825,K,A*39

[1499588373650]$GPGGA,051935.00,5356.77712,N,02741.17938,E,1,04,2.29,218.0,M,24.8,M,,*5A

[1499588373650]$GPGSA,A,3,24,17,13,19,,,,,,,,,9.59,2.29,9.31*0F

[1499588373650]$GPGSV,3,1,09,12,,,31,13,45,184,33,15,,,36,17,50,114,41*7E

[1499588373650]$GPGSV,3,2,09,18,,,18,19,38,148,35,24,39,288,37,28,,,30*7A

[1499588373650]$GPGSV,3,3,09,30,,,34*74

[1499588373650]$GPGLL,5356.77712,N,02741.17938,E,051935.00,A,A*67

[1499588374656]$GPRMC,051936.00,A,5356.77502,N,02741.18718,E,18.309,116.87,090717,,,A*51

[1499588374656]$GPVTG,116.87,T,,M,18.309,N,33.908,K,A*36

[1499588374656]$GPGGA,051936.00,5356.77502,N,02741.18718,E,1,04,2.29,216.5,M,24.8,M,,*52

[1499588374656]$GPGSA,A,3,24,17,13,19,,,,,,,,,9.60,2.29,9.32*06

[1499588374656]$GPGSV,3,1,09,12,,,26,13,45,184,31,15,,,33,17,50,114,41*7F

[1499588374656]$GPGSV,3,2,09,18,,,18,19,38,148,36,24,39,289,37,28,,,22*7B

[1499588374656]$GPGSV,3,3,09,30,,,36*76

[1499588374656]$GPGLL,5356.77502,N,02741.18718,E,051936.00,A,A*64

[1499588375646]$GPRMC,051937.00,A,5356.77348,N,02741.19534,E,17.506,116.90,090717,,,A*55

[1499588375646]$GPVTG,116.90,T,,M,17.506,N,32.421,K,A*31

[1499588375646]$GPGGA,051937.00,5356.77348,N,02741.19534,E,1,04,2.29,212.7,M,24.8,M,,*50

[1499588375646]$GPGSA,A,3,24,17,13,19,,,,,,,,,9.61,2.29,9.33*06

[1499588375646]$GPGSV,3,1,09,12,,,23,13,45,184,35,15,,,36,17,50,114,40*7A

[1499588375646]$GPGSV,3,2,09,18,,,19,19,38,148,36,24,39,289,37,28,,,21*79

[1499588375646]$GPGSV,3,3,09,30,,,35*75

[1499588375646]$GPGLL,5356.77348,N,02741.19534,E,051937.00,A,A*60

[1499588376650]$GPRMC,051938.00,A,5356.77140,N,02741.20249,E,16.600,116.67,090717,,,A*5B

[1499588376650]$GPVTG,116.67,T,,M,16.600,N,30.743,K,A*38

[1499588376650]$GPGGA,051938.00,5356.77140,N,02741.20249,E,1,04,2.29,212.9,M,24.8,M,,*5C

[1499588376650]$GPGSA,A,3,24,17,13,19,,,,,,,,,9.62,2.29,9.34*02

[1499588376650]$GPGSV,3,1,09,12,,,22,13,45,184,34,15,,,36,17,50,114,42*78

[1499588376650]$GPGSV,3,2,09,18,,,19,19,38,148,34,24,39,289,37,28,,,19*70

[1499588376650]$GPGSV,3,3,09,30,,,32*72

[1499588376650]$GPGLL,5356.77140,N,02741.20249,E,051938.00,A,A*62

[1499588377646]$GPRMC,051939.00,A,5356.76985,N,02741.20993,E,16.028,116.42,090717,,,A*5D

[1499588377646]$GPVTG,116.42,T,,M,16.028,N,29.684,K,A*31

[1499588377646]$GPGGA,051939.00,5356.76985,N,02741.20993,E,1,04,2.30,209.3,M,24.8,M,,*59

[1499588377646]$GPGSA,A,3,24,17,13,19,,,,,,,,,9.63,2.30,9.35*0A

[1499588377646]$GPGSV,3,1,09,12,,,22,13,45,184,33,15,,,35,17,50,114,41*7F

[1499588377646]$GPGSV,3,2,09,18,,,18,19,38,148,37,24,39,289,37,28,,,28*70

[1499588377646]$GPGSV,3,3,09,30,,,33*73

[1499588377646]$GPGLL,5356.76985,N,02741.20993,E,051939.00,A,A*6F

[1499588378646]$GPRMC,051940.00,A,5356.76810,N,02741.21683,E,15.672,117.48,090717,,,A*50

[1499588378646]$GPVTG,117.48,T,,M,15.672,N,29.024,K,A*3C

[1499588378646]$GPGGA,051940.00,5356.76810,N,02741.21683,E,1,04,2.30,207.7,M,24.8,M,,*5F

[1499588378646]$GPGSA,A,3,24,17,13,19,,,,,,,,,9.64,2.30,9.36*0E

[1499588378646]$GPGSV,3,1,09,12,,,23,13,45,184,33,15,,,36,17,50,114,41*7D

[1499588378646]$GPGSV,3,2,09,18,,,19,19,38,148,37,24,39,289,36,28,,,31*78

[1499588378646]$GPGSV,3,3,09,30,,,35*75

[1499588378646]$GPGLL,5356.76810,N,02741.21683,E,051940.00,A,A*63

[1499588379647]$GPRMC,051941.00,A,5356.76654,N,02741.22370,E,15.334,117.24,090717,,,A*58

[1499588379647]$GPVTG,117.24,T,,M,15.334,N,28.398,K,A*34

[1499588379647]$GPGGA,051941.00,5356.76654,N,02741.22370,E,1,04,2.30,205.9,M,24.8,M,,*56

[1499588379647]$GPGSA,A,3,24,17,13,19,,,,,,,,,9.65,2.30,9.37*0E

[1499588379647]$GPGSV,3,1,09,12,,,31,13,45,184,33,15,,,36,17,50,114,41*7E

[1499588379647]$GPGSV,3,2,09,18,,,20,19,38,148,38,24,39,289,37,28,,,31*7C

[1499588379647]$GPGSV,3,3,09,30,,,36*76

[1499588379647]$GPGLL,5356.76654,N,02741.22370,E,051941.00,A,A*66

[1499588380647]$GPRMC,051942.00,A,5356.76486,N,02741.23020,E,14.856,116.83,090717,,,A*53

[1499588380647]$GPVTG,116.83,T,,M,14.856,N,27.513,K,A*3C

[1499588380647]$GPGGA,051942.00,5356.76486,N,02741.23020,E,1,04,2.30,204.5,M,24.8,M,,*52

[1499588380647]$GPGSA,A,3,24,17,13,19,,,,,,,,,9.66,2.30,9.38*02

[1499588380647]$GPGSV,3,1,09,12,,,30,13,45,184,33,15,,,38,17,50,114,41*71

[1499588380647]$GPGSV,3,2,09,18,,,19,19,38,148,36,24,39,289,37,28,,,30*79

[1499588380647]$GPGSV,3,3,09,30,,,35*75

[1499588380647]$GPGLL,5356.76486,N,02741.23020,E,051942.00,A,A*6F

[1499588381654]$GPRMC,051943.00,A,5356.76308,N,02741.23634,E,14.323,117.32,090717,,,A*52

[1499588381654]$GPVTG,117.32,T,,M,14.323,N,26.527,K,A*38

[1499588381654]$GPGGA,051943.00,5356.76308,N,02741.23634,E,1,04,2.30,204.4,M,24.8,M,,*50

[1499588381654]$GPGSA,A,3,24,17,13,19,,,,,,,,,9.67,2.30,9.39*02

[1499588381654]$GPGSV,3,1,09,12,,,29,13,45,184,33,15,,,36,17,50,114,41*77

[1499588381654]$GPGSV,3,2,09,18,,,20,19,38,148,37,24,39,289,37,28,,,31*73

[1499588381654]$GPGSV,3,3,09,30,,,35*75

[1499588381654]$GPGLL,5356.76308,N,02741.23634,E,051943.00,A,A*6C

[1499588382656]$GPRMC,051944.00,A,5356.76123,N,02741.24206,E,13.774,117.14,090717,,,A*59

[1499588382656]$GPVTG,117.14,T,,M,13.774,N,25.510,K,A*3A

[1499588382656]$GPGGA,051944.00,5356.76123,N,02741.24206,E,1,04,2.30,204.5,M,24.8,M,,*5F

[1499588382656]$GPGSA,A,3,24,17,13,19,,,,,,,,,9.68,2.30,9.40*03

[1499588382656]$GPGSV,3,1,09,12,,,29,13,45,184,33,15,,,37,17,50,114,41*76

[1499588382656]$GPGSV,3,2,09,18,,,20,19,38,148,37,24,39,289,36,28,,,31*72

[1499588382656]$GPGSV,3,3,09,30,,,33*73

[1499588382656]$GPGLL,5356.76123,N,02741.24206,E,051944.00,A,A*62

[1499588383656]$GPRMC,051945.00,A,5356.75932,N,02741.24731,E,12.914,117.70,090717,,,A*59

[1499588383656]$GPVTG,117.70,T,,M,12.914,N,23.917,K,A*3C

[1499588383656]$GPGGA,051945.00,5356.75932,N,02741.24731,E,1,04,2.30,205.4,M,24.8,M,,*54

[1499588383656]$GPGSA,A,3,24,17,13,19,,,,,,,,,9.69,2.30,9.41*03

[1499588383656]$GPGSV,3,1,09,12,,,31,13,45,184,32,15,53,245,35,17,50,114,39*46

[1499588383656]$GPGSV,3,2,09,18,,,21,19,38,148,36,24,39,289,33,28,,,31*77

[1499588383656]$GPGSV,3,3,09,30,,,34*74

[1499588383656]$GPGLL,5356.75932,N,02741.24731,E,051945.00,A,A*69

[1499588384656]$GPRMC,051946.00,A,5356.75768,N,02741.25213,E,11.545,117.85,090717,,,A*5E

[1499588384656]$GPVTG,117.85,T,,M,11.545,N,21.381,K,A*3A

[1499588384656]$GPGGA,051946.00,5356.75768,N,02741.25213,E,1,04,2.30,205.7,M,24.8,M,,*51

[1499588384656]$GPGSA,A,3,24,17,13,19,,,,,,,,,9.70,2.30,9.42*08

[1499588384656]$GPGSV,3,1,09,12,,,30,13,45,184,34,15,53,245,36,17,50,114,41*4D

[1499588384656]$GPGSV,3,2,09,18,,,21,19,38,148,36,24,39,289,36,28,,,32*71

[1499588384656]$GPGSV,3,3,09,30,,,31*71

[1499588384656]$GPGLL,5356.75768,N,02741.25213,E,051946.00,A,A*6F

[1499588385651]$GPRMC,051947.00,A,5356.75643,N,02741.25674,E,10.294,117.48,090717,,,A*59

[1499588385651]$GPVTG,117.48,T,,M,10.294,N,19.064,K,A*32

[1499588385651]$GPGGA,051947.00,5356.75643,N,02741.25674,E,1,04,2.30,204.6,M,24.8,M,,*5D

[1499588385651]$GPGSA,A,3,24,17,13,19,,,,,,,,,9.71,2.30,9.44*0F

[1499588385651]$GPGSV,3,1,09,12,,,38,13,45,184,34,15,53,245,36,17,50,114,41*45

[1499588385651]$GPGSV,3,2,09,18,,,22,19,38,148,37,24,39,289,37,28,,,31*71

[1499588385651]$GPGSV,3,3,09,30,,,30*70

[1499588385651]$GPGLL,5356.75643,N,02741.25674,E,051947.00,A,A*63

[1499588386656]$GPRMC,051948.00,A,5356.75525,N,02741.26048,E,8.283,117.92,090717,,,A*67

[1499588386656]$GPVTG,117.92,T,,M,8.283,N,15.340,K,A*03

[1499588386656]$GPGGA,051948.00,5356.75525,N,02741.26048,E,1,04,2.30,203.3,M,24.8,M,,*59

[1499588386656]$GPGSA,A,3,24,17,13,19,,,,,,,,,9.72,2.30,9.45*0D

[1499588386656]$GPGSV,3,1,09,12,,,39,13,45,184,34,15,53,245,35,17,50,114,39*48

[1499588386656]$GPGSV,3,2,09,18,,,22,19,38,148,38,24,39,289,33,28,,,31*7A

[1499588386656]$GPGSV,3,3,09,30,,,29*78

[1499588386656]$GPGLL,5356.75525,N,02741.26048,E,051948.00,A,A*65

[1499588387646]$GPRMC,051949.00,A,5356.75446,N,02741.26350,E,6.372,120.01,090717,,,A*67

[1499588387646]$GPVTG,120.01,T,,M,6.372,N,11.801,K,A*06

[1499588387646]$GPGGA,051949.00,5356.75446,N,02741.26350,E,1,04,2.30,201.9,M,24.8,M,,*5E

[1499588387646]$GPGSA,A,3,24,17,13,19,,,,,,,,,9.73,2.30,9.46*0F

[1499588387646]$GPGSV,3,1,09,12,,,38,13,45,184,35,15,53,245,30,17,50,114,37*43

[1499588387646]$GPGSV,3,2,09,18,,,22,19,38,148,38,24,39,289,28,28,,,30*71

[1499588387646]$GPGSV,3,3,09,30,,,29*78

[1499588387646]$GPGLL,5356.75446,N,02741.26350,E,051949.00,A,A*6A

[1499588388656]$GPRMC,051950.00,A,5356.75360,N,02741.26590,E,5.822,125.11,090717,,,A*6F

[1499588388656]$GPVTG,125.11,T,,M,5.822,N,10.783,K,A*0B

[1499588388656]$GPGGA,051950.00,5356.75360,N,02741.26590,E,1,04,2.30,201.3,M,24.8,M,,*55

[1499588388656]$GPGSA,A,3,24,17,13,19,,,,,,,,,9.74,2.30,9.47*09

[1499588388656]$GPGSV,3,1,09,12,,,38,13,45,184,36,15,53,245,24,17,50,114,34*46

[1499588388656]$GPGSV,3,2,09,18,,,27,19,38,148,40,24,39,289,33,28,,,29*79

[1499588388656]$GPGSV,3,3,09,30,,,29*78

[1499588388656]$GPGLL,5356.75360,N,02741.26590,E,051950.00,A,A*6B

[1499588389650]$GPRMC,051951.00,A,5356.75255,N,02741.26782,E,5.429,133.94,090717,,,A*65

[1499588389650]$GPVTG,133.94,T,,M,5.429,N,10.055,K,A*0A

[1499588389650]$GPGGA,051951.00,5356.75255,N,02741.26782,E,1,04,2.30,201.9,M,24.8,M,,*58

[1499588389650]$GPGSA,A,3,24,17,13,19,,,,,,,,,9.75,2.30,9.48*07

[1499588389650]$GPGSV,3,1,09,12,,,27,13,45,184,33,15,53,245,21,17,50,114,39*45

[1499588389650]$GPGSV,3,2,09,18,,,32,19,38,148,35,24,39,289,34,28,,,32*72

[1499588389650]$GPGSV,3,3,09,30,,,27*76

[1499588389650]$GPGLL,5356.75255,N,02741.26782,E,051951.00,A,A*6C

[1499588390660]$GPRMC,051952.00,A,5356.75147,N,02741.26933,E,4.907,141.05,090717,,,A*6F

[1499588390660]$GPVTG,141.05,T,,M,4.907,N,9.088,K,A*3F

[1499588390660]$GPGGA,051952.00,5356.75147,N,02741.26933,E,1,04,2.30,203.3,M,24.8,M,,*57

[1499588390660]$GPGSA,A,3,24,17,13,19,,,,,,,,,9.76,2.30,9.49*05

[1499588390660]$GPGSV,3,1,09,12,,,32,13,45,184,30,15,53,245,31,17,50,114,41*4C

[1499588390660]$GPGSV,3,2,09,18,,,28,19,38,148,32,24,39,289,31,28,,,30*79

[1499588390660]$GPGSV,3,3,09,30,,,26*77

[1499588390660]$GPGLL,5356.75147,N,02741.26933,E,051952.00,A,A*6B

[1499588391656]$GPRMC,051953.00,A,5356.75037,N,02741.27043,E,4.856,146.71,090717,,,A*66

[1499588391656]$GPVTG,146.71,T,,M,4.856,N,8.994,K,A*3B

[1499588391656]$GPGGA,051953.00,5356.75037,N,02741.27043,E,1,04,2.30,204.4,M,24.8,M,,*5F

[1499588391656]$GPGSA,A,3,24,17,13,19,,,,,,,,,9.77,2.30,9.50*0C

[1499588391656]$GPGSV,3,1,09,12,,,32,13,45,184,28,15,53,245,34,17,50,114,39*4F

[1499588391656]$GPGSV,3,2,09,18,,,32,19,38,148,35,24,39,289,26,28,,,29*7B

[1499588391656]$GPGSV,3,3,09,30,,,26*77

[1499588391656]$GPGLL,5356.75037,N,02741.27043,E,051953.00,A,A*63

[1499588392656]$GPRMC,051954.00,A,5356.74900,N,02741.27111,E,5.267,165.23,090717,,,A*64

[1499588392656]$GPVTG,165.23,T,,M,5.267,N,9.754,K,A*37

[1499588392656]$GPGGA,051954.00,5356.74900,N,02741.27111,E,1,04,2.30,205.6,M,24.8,M,,*51

[1499588392656]$GPGSA,A,3,24,17,13,19,,,,,,,,,9.78,2.30,9.51*02

[1499588392656]$GPGSV,3,1,09,12,,,27,13,45,184,37,15,53,245,30,17,50,114,39*41

[1499588392656]$GPGSV,3,2,09,18,,,27,19,38,148,32,24,39,289,32,28,,,30*75

[1499588392656]$GPGSV,3,3,09,30,,,25*74

[1499588392656]$GPGLL,5356.74900,N,02741.27111,E,051954.00,A,A*6E

[1499588393656]$GPRMC,051955.00,A,5356.74799,N,02741.27136,E,5.519,175.34,090717,,,A*67

[1499588393656]$GPVTG,175.34,T,,M,5.519,N,10.222,K,A*02

[1499588393656]$GPGGA,051955.00,5356.74799,N,02741.27136,E,1,04,2.30,203.6,M,24.8,M,,*5D

[1499588393656]$GPGSA,A,3,24,17,13,19,,,,,,,,,9.80,2.30,9.52*06

[1499588393656]$GPGSV,3,1,09,12,,,28,13,45,184,38,15,53,245,36,17,50,114,36*48

[1499588393656]$GPGSV,3,2,09,18,,,32,19,38,148,33,24,40,289,33,28,,,34*7B

[1499588393656]$GPGSV,3,3,09,30,,,26*77

[1499588393656]$GPGLL,5356.74799,N,02741.27136,E,051955.00,A,A*64

[1499588394661]$GPRMC,051956.00,A,5356.74658,N,02741.27082,E,6.526,196.79,090717,,,A*6D

[1499588394661]$GPVTG,196.79,T,,M,6.526,N,12.085,K,A*04

[1499588394661]$GPGGA,051956.00,5356.74658,N,02741.27082,E,1,04,2.30,202.7,M,24.8,M,,*5C

[1499588394661]$GPGSA,A,3,24,17,13,19,,,,,,,,,9.81,2.30,9.53*06

[1499588394661]$GPGSV,3,1,09,12,,,38,13,45,184,39,15,53,245,30,17,50,114,36*4E

[1499588394661]$GPGSV,3,2,09,18,,,32,19,38,148,29,24,40,289,36,28,,,31*70

[1499588394661]$GPGSV,3,3,09,30,,,25*74

[1499588394661]$GPGLL,5356.74658,N,02741.27082,E,051956.00,A,A*65

[1499588395646]$GPRMC,051957.00,A,5356.74500,N,02741.26932,E,7.305,208.92,090717,,,A*66

[1499588395646]$GPVTG,208.92,T,,M,7.305,N,13.529,K,A*01

[1499588395646]$GPGGA,051957.00,5356.74500,N,02741.26932,E,1,04,2.30,203.9,M,24.8,M,,*5F

[1499588395646]$GPGSA,A,3,24,17,13,19,,,,,,,,,9.82,2.30,9.54*02

[1499588395646]$GPGSV,3,1,09,12,,,21,13,45,184,32,15,53,245,31,17,50,114,38*42

[1499588395646]$GPGSV,3,2,09,18,,,27,19,38,148,24,24,40,289,35,28,,,34*7F

[1499588395646]$GPGSV,3,3,09,30,,,23*72

[1499588395646]$GPGLL,5356.74500,N,02741.26932,E,051957.00,A,A*69

[1499588396646]$GPRMC,051958.00,A,5356.74337,N,02741.26708,E,7.525,216.17,090717,,,A*6A

[1499588396646]$GPVTG,216.17,T,,M,7.525,N,13.936,K,A*05

[1499588396646]$GPGGA,051958.00,5356.74337,N,02741.26708,E,1,04,2.30,203.6,M,24.8,M,,*5A

[1499588396646]$GPGSA,A,3,24,17,13,19,,,,,,,,,9.83,2.30,9.55*02

[1499588396646]$GPGSV,3,1,09,12,,,31,13,45,184,35,15,53,245,40,17,50,114,31*4B

[1499588396646]$GPGSV,3,2,09,18,,,25,19,38,148,34,24,40,289,36,28,,,33*78

[1499588396646]$GPGSV,3,3,09,30,,,23*72

[1499588396646]$GPGLL,5356.74337,N,02741.26708,E,051958.00,A,A*63

[1499588397650]$GPRMC,051959.00,A,5356.74179,N,02741.26445,E,7.752,229.00,090717,,,A*61

[1499588397650]$GPVTG,229.00,T,,M,7.752,N,14.357,K,A*07

[1499588397650]$GPGGA,051959.00,5356.74179,N,02741.26445,E,1,04,2.30,204.8,M,24.8,M,,*50

[1499588397650]$GPGSA,A,3,24,17,13,19,,,,,,,,,9.84,2.30,9.56*06

[1499588397650]$GPGSV,3,1,09,12,,,25,13,45,184,32,15,53,245,37,17,50,114,31*49

[1499588397650]$GPGSV,3,2,09,18,,,24,19,38,148,31,24,40,289,40,28,,,36*78

[1499588397650]$GPGSV,3,3,09,30,,,21*70

[1499588397650]$GPGLL,5356.74179,N,02741.26445,E,051959.00,A,A*60

[1499588398656]$GPRMC,052000.00,A,5356.74083,N,02741.26131,E,8.795,236.46,090717,,,A*6D

[1499588398656]$GPVTG,236.46,T,,M,8.795,N,16.289,K,A*0F

[1499588398656]$GPGGA,052000.00,5356.74083,N,02741.26131,E,1,04,2.31,205.8,M,24.8,M,,*54

[1499588398656]$GPGSA,A,3,24,17,13,19,,,,,,,,,9.85,2.31,9.57*07

[1499588398656]$GPGSV,3,1,09,12,,,31,13,45,184,28,15,53,245,34,17,50,114,41*43

[1499588398656]$GPGSV,3,2,09,18,,,21,19,38,148,31,24,40,289,36,28,,,32*78

[1499588398656]$GPGSV,3,3,09,30,,,29*78

[1499588398656]$GPGLL,5356.74083,N,02741.26131,E,052000.00,A,A*64

[1499588399657]$GPRMC,052001.00,A,5356.73969,N,02741.25738,E,10.209,241.05,090717,,,A*54

[1499588399657]$GPVTG,241.05,T,,M,10.209,N,18.906,K,A*33

[1499588399657]$GPGGA,052001.00,5356.73969,N,02741.25738,E,1,04,2.31,206.4,M,24.8,M,,*5C

[1499588399657]$GPGSA,A,3,24,17,13,19,,,,,,,,,9.86,2.31,9.59*0A

[1499588399657]$GPGSV,3,1,09,12,,,32,13,45,184,32,15,53,245,34,17,50,114,37*4A

[1499588399657]$GPGSV,3,2,09,18,,,19,19,38,148,32,24,40,289,32,28,,,31*77

[1499588399657]$GPGSV,3,3,09,30,,,27*76

[1499588399657]$GPGLL,5356.73969,N,02741.25738,E,052001.00,A,A*63

[1499588400650]$GPRMC,052002.00,A,5356.73830,N,02741.25265,E,11.608,242.44,090717,,,A*55

[1499588400650]$GPVTG,242.44,T,,M,11.608,N,21.498,K,A*31

[1499588400650]$GPGGA,052002.00,5356.73830,N,02741.25265,E,1,04,2.31,206.9,M,24.8,M,,*52

[1499588400650]$GPGSA,A,3,24,17,13,19,,,,,,,,,9.87,2.31,9.60*01

[1499588400650]$GPGSV,3,1,09,12,,,31,13,45,184,31,15,53,245,34,17,50,114,35*48

[1499588400650]$GPGSV,3,2,09,18,,,18,19,38,148,32,24,40,289,31,28,,,30*74

[1499588400650]$GPGSV,3,3,09,30,,,24*75

[1499588400650]$GPGLL,5356.73830,N,02741.25265,E,052002.00,A,A*60

[1499588401650]$GPRMC,052003.00,A,5356.73660,N,02741.24723,E,13.598,241.36,090717,,,A*57

[1499588401650]$GPVTG,241.36,T,,M,13.598,N,25.184,K,A*33

[1499588401650]$GPGGA,052003.00,5356.73660,N,02741.24723,E,1,04,2.31,207.8,M,24.8,M,,*5E

[1499588401650]$GPGSA,A,3,24,17,13,19,,,,,,,,,9.88,2.31,9.61*0F

[1499588401650]$GPGSV,3,1,09,12,,,31,13,45,184,33,15,53,245,34,17,50,114,36*49

[1499588401650]$GPGSV,3,2,09,18,,,18,19,38,148,33,24,40,289,31,28,,,29*7D

[1499588401650]$GPGSV,3,3,09,30,,,21*70

[1499588401650]$GPGLL,5356.73660,N,02741.24723,E,052003.00,A,A*6C

[1499588402656]$GPRMC,052004.00,A,5356.73478,N,02741.24122,E,15.599,240.91,090717,,,A*57

[1499588402656]$GPVTG,240.91,T,,M,15.599,N,28.889,K,A*31

[1499588402656]$GPGGA,052004.00,5356.73478,N,02741.24122,E,1,04,2.31,209.0,M,24.8,M,,*53

[1499588402656]$GPGSA,A,3,24,17,13,19,,,,,,,,,9.89,2.31,9.62*0D

[1499588402656]$GPGSV,3,1,09,12,,,37,13,45,184,33,15,53,245,34,17,50,114,38*41

[1499588402656]$GPGSV,3,2,09,18,,,18,19,38,148,33,24,40,289,32,28,,,29*7E

[1499588402656]$GPGSV,3,3,09,30,,,18*7A

[1499588402656]$GPGLL,5356.73478,N,02741.24122,E,052004.00,A,A*67

[1499588403647]$GPRMC,052005.00,A,5356.73258,N,02741.23431,E,17.062,241.44,090717,,,A*58

[1499588403647]$GPVTG,241.44,T,,M,17.062,N,31.600,K,A*3C

[1499588403647]$GPGGA,052005.00,5356.73258,N,02741.23431,E,1,04,2.31,210.1,M,24.8,M,,*5F

[1499588403647]$GPGSA,A,3,24,17,13,19,,,,,,,,,9.90,2.31,9.63*04

[1499588403647]$GPGSV,3,1,09,12,,,35,13,45,184,35,15,53,245,34,17,50,114,36*4B

[1499588403647]$GPGSV,3,2,09,18,,,18,19,38,148,32,24,40,289,29,28,,,29*75

[1499588403647]$GPGSV,3,3,09,30,,,16*74

[1499588403647]$GPGLL,5356.73258,N,02741.23431,E,052005.00,A,A*62

[1499588404650]$GPRMC,052006.00,A,5356.73028,N,02741.22692,E,18.217,241.95,090717,,,A*57

[1499588404650]$GPVTG,241.95,T,,M,18.217,N,33.738,K,A*37

[1499588404650]$GPGGA,052006.00,5356.73028,N,02741.22692,E,1,04,2.31,210.8,M,24.8,M,,*5A

[1499588404650]$GPGSA,A,3,24,17,13,19,,,,,,,,,9.91,2.31,9.64*02

[1499588404650]$GPGSV,3,1,09,12,,,31,13,45,184,32,15,53,245,35,17,50,114,36*49

[1499588404650]$GPGSV,3,2,09,18,,,17,19,38,148,32,24,40,289,30,28,,,29*72

[1499588404650]$GPGSV,3,3,09,30,,,13*71

[1499588404650]$GPGLL,5356.73028,N,02741.22692,E,052006.00,A,A*6E

[1499588405646]$GPRMC,052007.00,A,5356.72809,N,02741.21950,E,18.244,242.56,090717,,,A*54

[1499588405646]$GPVTG,242.56,T,,M,18.244,N,33.788,K,A*36

[1499588405646]$GPGGA,052007.00,5356.72809,N,02741.21950,E,1,04,2.31,211.6,M,24.8,M,,*5C

[1499588405646]$GPGSA,A,3,24,17,13,19,,,,,,,,,9.92,2.31,9.65*00

[1499588405646]$GPGSV,3,1,09,12,,,34,13,45,184,32,15,53,245,35,17,50,114,38*42

[1499588405646]$GPGSV,3,2,09,18,,,19,19,38,148,32,24,40,289,31,28,,,29*7D

[1499588405646]$GPGSV,3,3,09,30,,,10*72

[1499588405646]$GPGLL,5356.72809,N,02741.21950,E,052007.00,A,A*67

[1499588406646]$GPRMC,052008.00,A,5356.72590,N,02741.21211,E,18.086,242.23,090717,,,A*56

[1499588406646]$GPVTG,242.23,T,,M,18.086,N,33.496,K,A*34

[1499588406646]$GPGGA,052008.00,5356.72590,N,02741.21211,E,1,04,2.31,211.5,M,24.8,M,,*53

[1499588406646]$GPGSA,A,3,24,17,13,19,,,,,,,,,9.93,2.31,9.66*02

[1499588406646]$GPGSV,3,1,09,12,,,34,13,45,184,32,15,53,245,35,17,50,114,38*42

[1499588406646]$GPGSV,3,2,09,18,,,19,19,38,148,33,24,40,289,32,28,,,30*77

[1499588406646]$GPGSV,3,3,09,30,,,10*72

[1499588406646]$GPGLL,5356.72590,N,02741.21211,E,052008.00,A,A*6B

[1499588407646]$GPRMC,052009.00,A,5356.72373,N,02741.20468,E,18.113,242.23,090717,,,A*58

[1499588407646]$GPVTG,242.23,T,,M,18.113,N,33.546,K,A*35

[1499588407646]$GPGGA,052009.00,5356.72373,N,02741.20468,E,1,04,2.31,212.1,M,24.8,M,,*57

[1499588407646]$GPGSA,A,3,24,17,13,19,,,,,,,,,9.95,2.31,9.67*05

[1499588407646]$GPGSV,3,1,09,12,,,32,13,45,184,33,15,53,245,35,17,50,114,38*45

[1499588407646]$GPGSV,3,2,09,18,,,18,19,38,148,33,24,40,289,31,28,,,30*75

[1499588407646]$GPGSV,3,3,09,30,,,17*75

[1499588407646]$GPGLL,5356.72373,N,02741.20468,E,052009.00,A,A*68

[1499588408650]$GPRMC,052010.00,A,5356.72147,N,02741.19724,E,17.797,242.06,090717,,,A*56

[1499588408650]$GPVTG,242.06,T,,M,17.797,N,32.960,K,A*3E

[1499588408650]$GPGGA,052010.00,5356.72147,N,02741.19724,E,1,04,2.31,212.8,M,24.8,M,,*52

[1499588408650]$GPGSA,A,3,24,17,13,19,,,,,,,,,9.96,2.31,9.69*08

[1499588408650]$GPGSV,3,1,09,12,,,33,13,45,184,33,15,53,245,35,17,50,114,37*4B

[1499588408650]$GPGSV,3,2,09,18,,,19,19,38,148,32,24,40,289,31,28,,,29*7D

[1499588408650]$GPGSV,3,3,09,30,,,18*7A

[1499588408650]$GPGLL,5356.72147,N,02741.19724,E,052010.00,A,A*64

[1499588409646]$GPRMC,052011.00,A,5356.71926,N,02741.19003,E,17.587,242.13,090717,,,A*5E

[1499588409646]$GPVTG,242.13,T,,M,17.587,N,32.571,K,A*35

[1499588409646]$GPGGA,052011.00,5356.71926,N,02741.19003,E,1,04,2.31,212.6,M,24.8,M,,*53

[1499588409646]$GPGSA,A,3,24,17,13,19,,,,,,,,,9.97,2.31,9.70*01

[1499588409646]$GPGSV,3,1,09,12,,,33,13,45,184,33,15,53,245,35,17,50,114,37*4B

[1499588409646]$GPGSV,3,2,09,18,,,20,19,38,148,32,24,40,289,31,28,,,30*7F

[1499588409646]$GPGSV,3,3,09,30,,,17*75

[1499588409646]$GPGLL,5356.71926,N,02741.19003,E,052011.00,A,A*6B

[1499588410647]$GPRMC,052012.00,A,5356.71702,N,02741.18263,E,17.896,242.11,090717,,,A*5F

[1499588410647]$GPVTG,242.11,T,,M,17.896,N,33.144,K,A*39

[1499588410647]$GPGGA,052012.00,5356.71702,N,02741.18263,E,1,04,2.31,212.8,M,24.8,M,,*53

[1499588410647]$GPGSA,A,3,24,17,13,19,,,,,,,,,9.98,2.31,9.71*0F

[1499588410647]$GPGSV,3,1,09,12,,,32,13,45,184,33,15,53,245,36,17,50,114,37*49

[1499588410647]$GPGSV,3,2,09,18,,,21,19,38,148,32,24,40,289,31,28,,,30*7E

[1499588410647]$GPGSV,3,3,09,30,,,16*74

[1499588410647]$GPGLL,5356.71702,N,02741.18263,E,052012.00,A,A*65

[1499588411651]$GPRMC,052013.00,A,5356.71468,N,02741.17521,E,18.246,241.01,090717,,,A*55

[1499588411651]$GPVTG,241.01,T,,M,18.246,N,33.792,K,A*3E

[1499588411651]$GPGGA,052013.00,5356.71468,N,02741.17521,E,1,04,2.31,214.0,M,24.8,M,,*5D

[1499588411651]$GPGSA,A,3,24,17,13,19,,,,,,,,,9.99,2.31,9.72*0D

[1499588411651]$GPGSV,3,1,10,01,,,35,12,,,33,13,45,184,32,15,53,245,35*76

[1499588411651]$GPGSV,3,2,10,17,50,114,38,18,,,22,19,38,148,32,24,40,289,26*46

[1499588411651]$GPGSV,3,3,10,28,,,30,30,,,15*76

[1499588411651]$GPGLL,5356.71468,N,02741.17521,E,052013.00,A,A*65

[1499588412656]$GPRMC,052014.00,A,5356.71238,N,02741.16759,E,18.575,241.90,090717,,,A*52

[1499588412656]$GPVTG,241.90,T,,M,18.575,N,34.401,K,A*3F

[1499588412656]$GPGGA,052014.00,5356.71238,N,02741.16759,E,1,04,2.31,214.3,M,24.8,M,,*56

[1499588412656]$GPGSA,A,3,24,17,13,19,,,,,,,,,10.00,2.31,9.73*34

[1499588412656]$GPGSV,3,1,10,01,,,34,12,,,36,13,45,184,31,15,53,245,35*71

[1499588412656]$GPGSV,3,2,10,17,50,114,37,18,,,21,19,38,148,28,24,40,289,31*47

[1499588412656]$GPGSV,3,3,10,28,,,30,30,,,14*77

[1499588412656]$GPGLL,5356.71238,N,02741.16759,E,052014.00,A,A*6D

[1499588413650]$GPRMC,052015.00,A,5356.71004,N,02741.16007,E,18.275,242.55,090717,,,A*5F

[1499588413650]$GPVTG,242.55,T,,M,18.275,N,33.844,K,A*38

[1499588413650]$GPGGA,052015.00,5356.71004,N,02741.16007,E,1,04,2.31,215.2,M,24.8,M,,*56

[1499588413650]$GPGSA,A,3,24,17,13,19,,,,,,,,,10.01,2.31,9.74*32

[1499588413650]$GPGSV,3,1,10,01,,,35,12,,,34,13,45,184,31,15,53,245,36*71

[1499588413650]$GPGSV,3,2,10,17,50,114,38,18,,,22,19,38,148,31,24,40,289,32*40

[1499588413650]$GPGSV,3,3,10,28,,,31,30,,,14*76

[1499588413650]$GPGLL,5356.71004,N,02741.16007,E,052015.00,A,A*6D

[1499588414646]$GPRMC,052016.00,A,5356.70783,N,02741.15259,E,18.324,242.53,090717,,,A*5C

[1499588414646]$GPVTG,242.53,T,,M,18.324,N,33.935,K,A*3C

[1499588414646]$GPGGA,052016.00,5356.70783,N,02741.15259,E,1,04,2.31,216.5,M,24.8,M,,*52

[1499588414646]$GPGSA,A,3,24,17,13,19,,,,,,,,,10.02,2.31,9.75*30

[1499588414646]$GPGSV,3,1,10,01,,,34,12,,,34,13,45,184,35,15,53,245,36*74

[1499588414646]$GPGSV,3,2,10,17,50,114,39,18,,,22,19,38,148,31,24,40,289,31*42

[1499588414646]$GPGSV,3,3,10,28,,,31,30,,,15*77

[1499588414646]$GPGLL,5356.70783,N,02741.15259,E,052016.00,A,A*6D

[1499588415646]$GPRMC,052017.00,A,5356.70560,N,02741.14513,E,18.422,242.12,090717,,,A*5E

[1499588415646]$GPVTG,242.12,T,,M,18.422,N,34.118,K,A*38

[1499588415646]$GPGGA,052017.00,5356.70560,N,02741.14513,E,1,04,2.31,216.7,M,24.8,M,,*56

[1499588415646]$GPGSA,A,3,24,17,13,19,,,,,,,,,10.03,2.31,9.76*32

[1499588415646]$GPGSV,3,1,10,01,,,33,12,,,34,13,45,184,32,15,53,245,37*75

[1499588415646]$GPGSV,3,2,10,17,50,114,39,18,,,23,19,38,148,31,24,40,289,27*44

[1499588415646]$GPGSV,3,3,10,28,,,32,30,,,14*75

[1499588415646]$GPGLL,5356.70560,N,02741.14513,E,052017.00,A,A*6B

[1499588416655]$GPRMC,052018.00,A,5356.70351,N,02741.13733,E,18.510,245.10,090717,,,A*57

[1499588416655]$GPVTG,245.10,T,,M,18.510,N,34.280,K,A*3F

[1499588416655]$GPGGA,052018.00,5356.70351,N,02741.13733,E,1,04,2.32,216.5,M,24.8,M,,*5B

[1499588416655]$GPGSA,A,3,24,17,13,19,,,,,,,,,10.05,2.32,9.77*36

[1499588416655]$GPGSV,3,1,10,01,,,35,12,,,32,13,45,184,32,15,53,245,38*7A

[1499588416655]$GPGSV,3,2,10,17,50,114,40,18,,,27,19,38,148,31,24,40,289,28*41

[1499588416655]$GPGSV,3,3,10,28,,,31,30,,,13*71

[1499588416655]$GPGLL,5356.70351,N,02741.13733,E,052018.00,A,A*67

[1499588417651]$GPRMC,052019.00,A,5356.70145,N,02741.12933,E,18.611,246.61,090717,,,A*59

[1499588417651]$GPVTG,246.61,T,,M,18.611,N,34.467,K,A*37

[1499588417651]$GPGGA,052019.00,5356.70145,N,02741.12933,E,1,04,2.32,216.6,M,24.8,M,,*51

[1499588417651]$GPGSA,A,3,24,17,13,19,,,,,,,,,10.06,2.32,9.79*3B

[1499588417651]$GPGSV,3,1,10,01,,,33,12,,,32,13,45,184,31,15,53,245,37*70

[1499588417651]$GPGSV,3,2,10,17,50,114,39,18,,,26,19,38,148,30,24,40,289,28*4F

[1499588417651]$GPGSV,3,3,10,28,,,30,30,,,12*71

[1499588417651]$GPGLL,5356.70145,N,02741.12933,E,052019.00,A,A*6E

[1499588418657]$GPRMC,052020.00,A,5356.69950,N,02741.12113,E,18.797,247.05,090717,,,A*51

[1499588418657]$GPVTG,247.05,T,,M,18.797,N,34.812,K,A*35

[1499588418657]$GPGGA,052020.00,5356.69950,N,02741.12113,E,1,04,2.32,215.6,M,24.8,M,,*56

[1499588418657]$GPGSA,A,3,24,17,13,19,,,,,,,,,10.07,2.32,9.80*3C

[1499588418657]$GPGSV,3,1,10,01,,,32,12,,,31,13,45,184,32,15,53,245,38*7E

[1499588418657]$GPGSV,3,2,10,17,50,114,39,18,,,25,19,38,148,29,24,40,289,33*4E

[1499588418657]$GPGSV,3,3,10,28,,,30,30,,,12*71

[1499588418657]$GPGLL,5356.69950,N,02741.12113,E,052020.00,A,A*6A

[1499588419651]$GPRMC,052021.00,A,5356.69719,N,02741.11209,E,19.322,247.16,090717,,,A*51

[1499588419651]$GPVTG,247.16,T,,M,19.322,N,35.785,K,A*3C

[1499588419651]$GPGGA,052021.00,5356.69719,N,02741.11209,E,1,05,1.97,219.6,M,24.8,M,,*5E

[1499588419651]$GPGSA,A,3,24,17,13,19,15,,,,,,,,6.65,1.97,6.36*05

[1499588419651]$GPGSV,3,1,10,01,,,28,12,,,33,13,45,184,33,15,53,245,38*76

[1499588419651]$GPGSV,3,2,10,17,50,114,39,18,,,22,19,38,148,29,24,40,289,30*4A

[1499588419651]$GPGSV,3,3,10,28,,,29,30,,,13*78

[1499588419651]$GPGLL,5356.69719,N,02741.11209,E,052021.00,A,A*63

[1499588420646]$GPRMC,052022.00,A,5356.69500,N,02741.10320,E,19.491,247.56,090717,,,A*58

[1499588420646]$GPVTG,247.56,T,,M,19.491,N,36.098,K,A*3F

[1499588420646]$GPGGA,052022.00,5356.69500,N,02741.10320,E,1,05,1.97,221.0,M,24.8,M,,*51

[1499588420646]$GPGSA,A,3,24,17,13,19,15,,,,,,,,6.66,1.97,6.36*06

[1499588420646]$GPGSV,3,1,10,01,,,28,12,,,33,13,45,184,33,15,53,245,40*79

[1499588420646]$GPGSV,3,2,10,17,50,114,39,18,,,20,19,38,148,30,24,40,289,31*41

[1499588420646]$GPGSV,3,3,10,28,,,30,30,,,14*77

[1499588420646]$GPGLL,5356.69500,N,02741.10320,E,052022.00,A,A*61

[1499588421646]$GPRMC,052023.00,A,5356.69283,N,02741.09435,E,19.689,248.00,090717,,,A*59

[1499588421646]$GPVTG,248.00,T,,M,19.689,N,36.464,K,A*3F

[1499588421646]$GPGGA,052023.00,5356.69283,N,02741.09435,E,1,05,1.96,221.0,M,24.8,M,,*56

[1499588421646]$GPGSA,A,3,24,17,13,19,15,,,,,,,,6.66,1.96,6.36*07

[1499588421646]$GPGSV,3,1,10,01,,,28,12,,,29,13,45,184,33,15,53,245,39*7C

[1499588421646]$GPGSV,3,2,10,17,50,114,40,18,,,18,19,38,148,31,24,40,289,31*45

[1499588421646]$GPGSV,3,3,10,28,,,29,30,,,14*7F

[1499588421646]$GPGLL,5356.69283,N,02741.09435,E,052023.00,A,A*67

[1499588422646]$GPRMC,052024.00,A,5356.69069,N,02741.08549,E,19.900,247.14,090717,,,A*57

[1499588422646]$GPVTG,247.14,T,,M,19.900,N,36.855,K,A*35

[1499588422646]$GPGGA,052024.00,5356.69069,N,02741.08549,E,1,05,1.96,221.2,M,24.8,M,,*5E

[1499588422646]$GPGSA,A,3,24,17,13,19,15,,,,,,,,6.66,1.96,6.37*06

[1499588422646]$GPGSV,3,1,10,01,,,15,12,,,30,13,45,184,34,15,53,245,40*73

[1499588422646]$GPGSV,3,2,10,17,50,114,40,18,,,16,19,38,148,30,24,40,289,31*4A

[1499588422646]$GPGSV,3,3,10,28,,,29,30,,,17*7C

[1499588422646]$GPGLL,5356.69069,N,02741.08549,E,052024.00,A,A*6D

[1499588423646]$GPRMC,052025.00,A,5356.68850,N,02741.07671,E,20.209,245.84,090717,,,A*51

[1499588423646]$GPVTG,245.84,T,,M,20.209,N,37.427,K,A*3E

[1499588423646]$GPGGA,052025.00,5356.68850,N,02741.07671,E,1,05,1.96,220.1,M,24.8,M,,*59

[1499588423646]$GPGSA,A,3,24,17,13,19,15,,,,,,,,6.67,1.96,6.37*07

[1499588423646]$GPGSV,3,1,10,01,,,16,12,,,25,13,45,184,33,15,53,245,40*73

[1499588423646]$GPGSV,3,2,10,17,50,114,40,18,,,18,19,38,148,28,24,40,289,31*4D

[1499588423646]$GPGSV,3,3,10,28,,,30,30,,,20*70

[1499588423646]$GPGLL,5356.68850,N,02741.07671,E,052025.00,A,A*68

[1499588424656]$GPRMC,052026.00,A,5356.68613,N,02741.06807,E,20.392,243.91,090717,,,A*54

[1499588424656]$GPVTG,243.91,T,,M,20.392,N,37.767,K,A*38

[1499588424656]$GPGGA,052026.00,5356.68613,N,02741.06807,E,1,05,1.96,219.9,M,24.8,M,,*5F

[1499588424656]$GPGSA,A,3,24,17,13,19,15,,,,,,,,6.67,1.96,6.38*08

[1499588424656]$GPGSV,3,1,10,01,,,18,12,,,25,13,45,184,32,15,53,245,40*7C

[1499588424656]$GPGSV,3,2,10,17,50,114,38,18,,,28,19,38,148,28,24,40,289,21*40

[1499588424656]$GPGSV,3,3,10,28,,,30,30,,,31*70

[1499588424656]$GPGLL,5356.68613,N,02741.06807,E,052026.00,A,A*6C

[1499588425646]$GPRMC,052027.00,A,5356.68396,N,02741.05999,E,18.580,243.81,090717,,,A*57

[1499588425646]$GPVTG,243.81,T,,M,18.580,N,34.410,K,A*37

[1499588425646]$GPGGA,052027.00,5356.68396,N,02741.05999,E,1,06,1.31,219.1,M,24.8,M,,*55

[1499588425646]$GPGSA,A,3,24,17,13,19,28,15,,,,,,,6.25,1.31,6.11*02

[1499588425646]$GPGSV,3,1,10,01,,,20,12,,,31,13,45,184,31,15,53,245,41*70

[1499588425646]$GPGSV,3,2,10,17,50,114,38,18,,,29,19,38,148,29,24,40,289,30*40

[1499588425646]$GPGSV,3,3,10,28,38,062,31,30,,,24*4A

[1499588425646]$GPGLL,5356.68396,N,02741.05999,E,052027.00,A,A*60

[1499588426656]$GPRMC,052028.00,A,5356.68190,N,02741.05277,E,16.599,243.01,090717,,,A*59

[1499588426656]$GPVTG,243.01,T,,M,16.599,N,30.741,K,A*3A

[1499588426656]$GPGGA,052028.00,5356.68190,N,02741.05277,E,1,06,1.31,219.1,M,24.8,M,,*55

[1499588426656]$GPGSA,A,3,24,17,13,19,28,15,,,,,,,6.25,1.31,6.11*02

[1499588426656]$GPGSV,3,1,10,01,,,23,12,,,29,13,45,184,32,15,53,245,40*78

[1499588426656]$GPGSV,3,2,10,17,50,114,40,18,,,28,19,38,148,34,24,40,289,32*40

[1499588426656]$GPGSV,3,3,10,28,38,062,32,30,,,22*4F

[1499588426656]$GPGLL,5356.68190,N,02741.05277,E,052028.00,A,A*60

[1499588427646]$GPRMC,052029.00,A,5356.67987,N,02741.04650,E,14.539,242.47,090717,,,A*52

[1499588427646]$GPVTG,242.47,T,,M,14.539,N,26.926,K,A*39

[1499588427646]$GPGGA,052029.00,5356.67987,N,02741.04650,E,1,06,1.31,218.6,M,24.8,M,,*53

[1499588427646]$GPGSA,A,3,24,17,13,19,28,15,,,,,,,6.25,1.31,6.11*02

[1499588427646]$GPGSV,3,1,10,01,,,21,12,,,28,13,45,184,31,15,53,245,40*78

[1499588427646]$GPGSV,3,2,10,17,50,114,38,18,,,27,19,38,148,31,24,40,289,36*41

[1499588427646]$GPGSV,3,3,10,28,38,062,32,30,,,20*4D

[1499588427646]$GPGLL,5356.67987,N,02741.04650,E,052029.00,A,A*60

[1499588428656]$GPRMC,052030.00,A,5356.67825,N,02741.04101,E,12.594,241.56,090717,,,A*52

[1499588428656]$GPVTG,241.56,T,,M,12.594,N,23.325,K,A*37

[1499588428656]$GPGGA,052030.00,5356.67825,N,02741.04101,E,1,06,1.31,217.7,M,24.8,M,,*5F

[1499588428656]$GPGSA,A,3,24,17,13,19,28,15,,,,,,,6.25,1.31,6.12*01

[1499588428656]$GPGSV,3,1,10,01,,,20,12,,,28,13,45,184,32,15,53,245,40*7A

[1499588428656]$GPGSV,3,2,10,17,50,114,38,18,,,27,19,38,148,31,24,40,289,33*44

[1499588428656]$GPGSV,3,3,10,28,38,062,32,30,,,18*46

[1499588428656]$GPGLL,5356.67825,N,02741.04101,E,052030.00,A,A*62

[1499588429657]$GPRMC,052031.00,A,5356.67676,N,02741.03622,E,10.990,241.56,090717,,,A*50

[1499588429657]$GPVTG,241.56,T,,M,10.990,N,20.354,K,A*38

[1499588429657]$GPGGA,052031.00,5356.67676,N,02741.03622,E,1,06,1.31,217.8,M,24.8,M,,*58

[1499588429657]$GPGSA,A,3,24,17,13,19,28,15,,,,,,,6.26,1.31,6.12*02

[1499588429657]$GPGSV,3,1,10,01,,,21,12,,,27,13,45,184,34,15,53,245,40*72

[1499588429657]$GPGSV,3,2,10,17,50,114,39,18,,,27,19,38,148,31,24,40,289,34*42

[1499588429657]$GPGSV,3,3,10,28,38,062,32,30,,,20*4D

[1499588429657]$GPGLL,5356.67676,N,02741.03622,E,052031.00,A,A*6A

[1499588430656]$GPRMC,052032.00,A,5356.67559,N,02741.03215,E,9.280,241.54,090717,,,A*6D

[1499588430656]$GPVTG,241.54,T,,M,9.280,N,17.187,K,A*00

[1499588430656]$GPGGA,052032.00,5356.67559,N,02741.03215,E,1,06,1.31,218.5,M,24.8,M,,*57

[1499588430656]$GPGSA,A,3,24,17,13,19,28,15,,,,,,,6.26,1.31,6.12*02

[1499588430656]$GPGSV,3,1,10,01,,,19,12,,,25,13,45,184,35,15,53,245,40*7A

[1499588430656]$GPGSV,3,2,10,17,50,114,39,18,,,27,19,38,148,32,24,40,289,35*40

[1499588430656]$GPGSV,3,3,10,28,38,062,32,30,,,20*4D

[1499588430656]$GPGLL,5356.67559,N,02741.03215,E,052032.00,A,A*67

[1499588431646]$GPRMC,052033.00,A,5356.67471,N,02741.02907,E,6.540,241.65,090717,,,A*68

[1499588431646]$GPVTG,241.65,T,,M,6.540,N,12.113,K,A*0E

[1499588431646]$GPGGA,052033.00,5356.67471,N,02741.02907,E,1,06,1.31,218.5,M,24.8,M,,*54

[1499588431646]$GPGSA,A,3,24,17,13,19,28,15,,,,,,,6.26,1.31,6.12*02

[1499588431646]$GPGSV,3,1,10,01,,,17,12,,,32,13,45,184,33,15,53,245,40*74

[1499588431646]$GPGSV,3,2,10,17,50,114,39,18,,,28,19,38,147,33,24,40,289,35*41

[1499588431646]$GPGSV,3,3,10,28,38,062,33,30,,,18*47

[1499588431646]$GPGLL,5356.67471,N,02741.02907,E,052033.00,A,A*64

[1499588432657]$GPRMC,052034.00,A,5356.67422,N,02741.02705,E,4.223,241.01,090717,,,A*67

[1499588432657]$GPVTG,241.01,T,,M,4.223,N,7.821,K,A*30

[1499588432657]$GPGGA,052034.00,5356.67422,N,02741.02705,E,1,06,1.31,218.9,M,24.8,M,,*55

[1499588432657]$GPGSA,A,3,24,17,13,19,28,15,,,,,,,6.26,1.31,6.12*02

[1499588432657]$GPGSV,3,1,10,01,,,17,12,,,31,13,45,184,33,15,53,245,40*77

[1499588432657]$GPGSV,3,2,10,17,50,114,39,18,,,25,19,38,147,36,24,40,289,34*48

[1499588432657]$GPGSV,3,3,10,28,38,062,33,30,,,15*4A

