[1499590107508]$GPRMC,054658.00,A,5355.77153,N,02729.48639,E,0.016,,090717,,,A*7A

[1499590107508]$GPVTG,,T,,M,0.016,N,0.029,K,A*2F

[1499590107508]$GPGGA,054658.00,5355.77153,N,02729.48639,E,1,09,0.96,212.6,M,25.0,M,,*5F

[1499590107508]$GPGSA,A,3,10,24,01,17,13,19,ü$GPTXT,01,01,02,u-blox ag - www.u-blox.com*50

[1499590107508]$GPTXT,01,01,02,HW  UBX-G70xx   00070000 *77

[1499590107508]$GPTXT,01,01,02,ROM CORE 1.00 (59842) Jun 27 2012 17:43:52*59

[1499590107508]$GPTXT,01,01,02,PROTVER 14.00*1E

[1499590107508]$GPTXT,01,01,02,ANTSUPERV=AC SD PDoS SR*20

[1499590107508]$GPTXT,01,01,02,ANTSTATUS=DONTKNOW*33

[1499590107508]$GPTXT,01,01,02,LLC FFFFFFFF-FFFFFFFD-FFFFFFFF-FFFFFFFF-FFFFFFF9*53

[1499590107879]$GPRMC,054827.56,V,,,,,,,090717,,,N*7A

[1499590107879]$GPVTG,,,,,,,,,N*30

[1499590107879]$GPGGA,054827.56,,,,,0,00,99.99,,,,,,*69

[1499590107879]$GPGSA,A,1,,,,,,,,,,,,,99.99,99.99,99.99*30

[1499590107879]$GPGSV,3,1,12,01,14,037,,10,13,315,,11,06,025,,12,24,244,*7A

[1499590107879]$GPGSV,3,2,12,13,31,181,,15,46,228,,17,54,093,,18,10,290,*73

[1499590107879]$GPGSV,3,3,12,19,50,136,,24,52,289,,28,26,065,,30,00,114,*7B

[1499590107879]$GPGLL,,,,,054827.56,V,N*45

[1499590108667]$GPRMC,054828.00,V,,,,,,,090717,,,N*76

[1499590108667]$GPVTG,,,,,,,,,N*30

[1499590108667]$GPGGA,054828.00,,,,,0,00,99.99,,,,,,*65

[1499590108667]$GPGSA,A,1,,,,,,,,,,,,,99.99,99.99,99.99*30

[1499590108667]$GPGSV,3,1,12,01,14,037,,10,13,315,,11,06,025,,12,24,244,*7A

[1499590108667]$GPGSV,3,2,12,13,31,181,,15,46,228,,17,54,093,,18,10,290,*73

[1499590108667]$GPGSV,3,3,12,19,50,136,,24,52,289,,28,26,065,,30,00,114,*7B

[1499590108667]$GPGLL,,,,,054828.00,V,N*49

[1499590108667]$GPTXT,01,01,02,ANTSTATUS=INIT*25

[1499590109827]$GPRMC,054829.00,V,,,,,,,090717,,,N*77

[1499590109827]$GPVTG,,,,,,,,,N*30

[1499590109827]$GPGGA,054829.00,,,,,0,00,99.99,,,,,,*64

[1499590109827]$GPGSA,A,1,,,,,,,,,,,,,99.99,99.99,99.99*30

[1499590109827]$GPGSV,3,1,12,01,14,037,,10,13,315,,11,06,025,,12,24,244,*7A

[1499590109827]$GPGSV,3,2,12,13,31,181,,15,46,228,,17,54,093,,18,10,290,*73

[1499590109827]$GPGSV,3,3,12,19,50,136,,24,52,289,,28,26,065,,30,00,114,*7B

[1499590109827]$GPGLL,,,,,054829.00,V,N*48

[1499590109827]$GPTXT,01,01,02,ANTSTATUS=OK*3B

[1499590110248]$GPRMC,054830.00,V,,,,,,,090717,,,N*7F

[1499590110248]$GPVTG,,,,,,,,,N*30

[1499590110248]$GPGGA,054830.00,,,,,0,00,99.99,,,,,,*6C

[1499590110248]$GPGSA,A,1,,,,,,,,,,,,,99.99,99.99,99.99*30

[1499590110248]$GPGSV,3,1,12,01,14,037,,10,13,315,,11,06,025,,12,24,244,*7A

[1499590110248]$GPGSV,3,2,12,13,31,181,,15,46,228,,17,54,093,,18,10,290,*73

[1499590110248]$GPGSV,3,3,12,19,50,136,37,24,52,289,29,28,26,065,,30,00,114,*74

[1499590110248]$GPGLL,,,,,054830.00,V,N*40

[1499590110779]$GPRMC,054830.50,A,5355.76393,N,02729.48985,E,5.390,177.02,090717,,,A*6D

[1499590110779]$GPVTG,177.02,T,,M,5.390,N,9.982,K,A*3B

[1499590110779]$GPGGA,054830.50,5355.76393,N,02729.48985,E,1,07,1.20,198.7,M,25.0,M,,*5F

[1499590110779]$GPGSA,A,3,17,24,19,15,13,28,12,,,,,,2.69,1.20,2.41*0C

[1499590110779]$GPGSV,3,1,12,01,14,037,26,10,13,315,29,11,06,025,,12,24,244,34*72

[1499590110779]$GPGSV,3,2,12,13,31,181,31,15,46,228,36,17,54,093,40,18,10,290,*70

[1499590110779]$GPGSV,3,3,12,19,50,136,39,24,52,289,29,28,26,065,32,30,00,114,*7B

[1499590110779]$GPGLL,5355.76393,N,02729.48985,E,054830.50,A,A*6E

[1499590111698]$GPRMC,054831.00,A,5355.76467,N,02729.48958,E,3.509,178.32,090717,,,A*69

[1499590111698]$GPVTG,178.32,T,,M,3.509,N,6.498,K,A*3E

[1499590111698]$GPGGA,054831.00,5355.76467,N,02729.48958,E,1,07,1.27,202.0,M,25.0,M,,*57

[1499590111698]$GPGSA,A,3,17,24,19,15,28,12,10,,,,,,2.61,1.27,2.29*0E

[1499590111698]$GPGSV,3,1,12,01,14,037,27,10,13,315,29,11,06,025,,12,24,244,35*72

[1499590111698]$GPGSV,3,2,12,13,31,181,25,15,46,228,33,17,54,093,40,18,10,290,*70

[1499590111698]$GPGSV,3,3,12,19,50,136,39,24,52,289,28,28,26,065,28,30,00,114,*71

[1499590111698]$GPGLL,5355.76467,N,02729.48958,E,054831.00,A,A*66

[1499590112697]$GPRMC,054832.00,A,5355.76658,N,02729.49001,E,1.632,179.50,090717,,,A*6C

[1499590112697]$GPVTG,179.50,T,,M,1.632,N,3.023,K,A*33

[1499590112697]$GPGGA,054832.00,5355.76658,N,02729.49001,E,1,09,0.95,210.3,M,25.0,M,,*58

[1499590112697]$GPGSA,A,3,17,24,19,15,13,28,12,01,10,,,,2.07,0.95,1.84*01

[1499590112697]$GPGSV,3,1,12,01,14,037,26,10,13,315,27,11,06,025,,12,24,244,35*7D

[1499590112697]$GPGSV,3,2,12,13,31,181,27,15,46,228,26,17,54,093,39,18,10,290,*78

[1499590112697]$GPGSV,3,3,12,19,50,136,39,24,52,289,29,28,26,065,28,30,00,114,*70

[1499590112697]$GPGLL,5355.76658,N,02729.49001,E,054832.00,A,A*6F

[1499590113700]$GPRMC,054833.00,A,5355.76878,N,02729.48960,E,1.269,181.90,090717,,,A*6F

[1499590113700]$GPVTG,181.90,T,,M,1.269,N,2.349,K,A*3C

[1499590113700]$GPGGA,054833.00,5355.76878,N,02729.48960,E,1,09,0.95,216.9,M,25.0,M,,*56

[1499590113700]$GPGSA,A,3,17,24,19,15,13,28,12,01,10,,,,2.07,0.95,1.84*01

[1499590113700]$GPGSV,3,1,12,01,14,037,25,10,13,315,24,11,06,025,04,12,24,244,37*7B

[1499590113700]$GPGSV,3,2,12,13,31,181,27,15,46,228,33,17,54,093,40,18,10,290,*72

[1499590113700]$GPGSV,3,3,12,19,50,136,39,24,52,289,30,28,26,065,27,30,00,114,*77

[1499590113700]$GPGLL,5355.76878,N,02729.48960,E,054833.00,A,A*6D

[1499590114700]$GPRMC,054834.00,A,5355.76857,N,02729.48877,E,0.719,,090717,,,A*7E

[1499590114700]$GPVTG,,T,,M,0.719,N,1.331,K,A*2C

[1499590114700]$GPGGA,054834.00,5355.76857,N,02729.48877,E,1,09,0.95,221.8,M,25.0,M,,*5E

[1499590114700]$GPGSA,A,3,17,24,19,15,13,28,12,01,10,,,,2.07,0.95,1.84*01

[1499590114700]$GPGSV,3,1,12,01,14,037,23,10,13,315,23,11,06,025,09,12,24,244,31*71

[1499590114700]$GPGSV,3,2,12,13,31,181,26,15,46,228,34,17,54,093,41,18,10,290,*75

[1499590114700]$GPGSV,3,3,12,19,50,136,37,24,52,289,23,28,26,065,29,30,00,114,*75

[1499590114700]$GPGLL,5355.76857,N,02729.48877,E,054834.00,A,A*60

[1499590115697]$GPRMC,054835.00,A,5355.76792,N,02729.48850,E,0.504,,090717,,,A*72

[1499590115697]$GPVTG,,T,,M,0.504,N,0.934,K,A*2C

[1499590115697]$GPGGA,054835.00,5355.76792,N,02729.48850,E,1,09,0.95,222.4,M,25.0,M,,*53

[1499590115697]$GPGSA,A,3,17,24,19,15,13,28,12,01,10,,,,2.07,0.95,1.84*01

[1499590115697]$GPGSV,3,1,12,01,14,037,22,10,13,315,21,11,06,025,13,12,24,244,32*7A

[1499590115697]$GPGSV,3,2,12,13,31,181,26,15,46,228,29,17,54,093,39,18,10,290,*76

[1499590115697]$GPGSV,3,3,12,19,50,136,37,24,52,289,24,28,26,065,31,30,00,114,*7B

[1499590115697]$GPGLL,5355.76792,N,02729.48850,E,054835.00,A,A*62

[1499590116698]$GPRMC,054836.00,A,5355.76726,N,02729.48855,E,1.296,189.92,090717,,,A*63

[1499590116698]$GPVTG,189.92,T,,M,1.296,N,2.401,K,A*3D

[1499590116698]$GPGGA,054836.00,5355.76726,N,02729.48855,E,1,09,0.95,222.1,M,25.0,M,,*5F

[1499590116698]$GPGSA,A,3,17,24,19,15,13,28,12,01,10,,,,2.07,0.95,1.84*01

[1499590116698]$GPGSV,3,1,12,01,14,037,24,10,13,315,20,11,06,025,14,12,24,244,27*7E

[1499590116698]$GPGSV,3,2,12,13,31,181,27,15,46,228,28,17,54,093,37,18,10,290,*78

[1499590116698]$GPGSV,3,3,12,19,50,136,37,24,52,289,31,28,26,065,30,30,00,114,*7E

[1499590116698]$GPGLL,5355.76726,N,02729.48855,E,054836.00,A,A*6B

[1499590117698]$GPRMC,054837.00,A,5355.76686,N,02729.48891,E,1.609,181.02,090717,,,A*62

[1499590117698]$GPVTG,181.02,T,,M,1.609,N,2.980,K,A*3A

[1499590117698]$GPGGA,054837.00,5355.76686,N,02729.48891,E,1,09,0.95,221.4,M,25.0,M,,*5B

[1499590117698]$GPGSA,A,3,17,24,19,15,13,28,12,01,10,,,,2.07,0.95,1.84*01

[1499590117698]$GPGSV,3,1,12,01,14,037,27,10,13,315,20,11,06,025,15,12,24,244,27*7C

[1499590117698]$GPGSV,3,2,12,13,31,181,28,15,46,228,29,17,54,093,27,18,10,290,19*7F

[1499590117698]$GPGSV,3,3,12,19,50,136,42,24,52,289,29,28,26,065,28,30,00,114,*7C

[1499590117698]$GPGLL,5355.76686,N,02729.48891,E,054837.00,A,A*69

[1499590118697]$GPRMC,054838.00,A,5355.76621,N,02729.48843,E,4.311,190.86,090717,,,A*6A

[1499590118697]$GPVTG,190.86,T,,M,4.311,N,7.985,K,A*3F

[1499590118697]$GPGGA,054838.00,5355.76621,N,02729.48843,E,1,10,0.95,221.9,M,25.0,M,,*53

[1499590118697]$GPGSA,A,3,17,24,19,15,13,28,12,01,10,11,,,2.07,0.95,1.84*01

[1499590118697]$GPGSV,3,1,12,01,14,037,29,10,13,315,19,11,06,025,17,12,24,244,27*7A

[1499590118697]$GPGSV,3,2,12,13,31,181,27,15,46,228,31,17,54,093,32,18,10,290,18*7C

[1499590118697]$GPGSV,3,3,12,19,50,136,42,24,52,289,31,28,26,065,28,30,00,114,*75

[1499590118697]$GPGLL,5355.76621,N,02729.48843,E,054838.00,A,A*64

[1499590119698]$GPRMC,054839.00,A,5355.76461,N,02729.48797,E,6.162,190.74,090717,,,A*62

[1499590119698]$GPVTG,190.74,T,,M,6.162,N,11.412,K,A*02

[1499590119698]$GPGGA,054839.00,5355.76461,N,02729.48797,E,1,09,0.97,221.6,M,25.0,M,,*57

[1499590119698]$GPGSA,A,3,17,24,19,13,28,12,01,10,11,,,,2.12,0.97,1.88*0F

[1499590119698]$GPGSV,3,1,12,01,14,037,28,10,13,315,17,11,06,025,17,12,24,244,26*74

[1499590119698]$GPGSV,3,2,12,13,31,181,26,15,46,228,23,17,54,093,36,18,10,290,17*75

[1499590119698]$GPGSV,3,3,12,19,50,136,40,24,52,289,30,28,26,065,28,30,00,114,*76

[1499590119698]$GPGLL,5355.76461,N,02729.48797,E,054839.00,A,A*65

[1499590120698]$GPRMC,054840.00,A,5355.76236,N,02729.48807,E,8.287,188.82,090717,,,A*68

[1499590120698]$GPVTG,188.82,T,,M,8.287,N,15.347,K,A*07

[1499590120698]$GPGGA,054840.00,5355.76236,N,02729.48807,E,1,10,0.95,221.4,M,25.0,M,,*53

[1499590120698]$GPGSA,A,3,17,24,19,15,13,28,12,01,10,11,,,2.07,0.95,1.84*01

[1499590120698]$GPGSV,3,1,12,01,14,037,31,10,13,315,18,11,06,025,17,12,24,244,31*75

[1499590120698]$GPGSV,3,2,12,13,31,181,25,15,46,228,23,17,54,093,35,18,10,290,17*75

[1499590120698]$GPGSV,3,3,12,19,50,136,40,24,52,289,33,28,26,065,28,30,00,114,*75

[1499590120698]$GPGLL,5355.76236,N,02729.48807,E,054840.00,A,A*69

[1499590121697]$GPRMC,054841.00,A,5355.75947,N,02729.48765,E,8.998,185.96,090717,,,A*61

[1499590121697]$GPVTG,185.96,T,,M,8.998,N,16.665,K,A*0C

[1499590121697]$GPGGA,054841.00,5355.75947,N,02729.48765,E,1,11,0.93,220.5,M,25.0,M,,*50

[1499590121697]$GPGSA,A,3,17,24,19,15,13,28,12,01,10,18,11,,1.96,0.93,1.73*0D

[1499590121697]$GPGSV,3,1,12,01,14,037,33,10,13,315,17,11,06,025,17,12,24,244,27*7F

[1499590121697]$GPGSV,3,2,12,13,31,181,25,15,46,228,29,17,54,093,40,18,10,290,18*72

[1499590121697]$GPGSV,3,3,12,19,50,136,38,24,52,289,31,28,26,065,33,30,00,114,*72

[1499590121697]$GPGLL,5355.75947,N,02729.48765,E,054841.00,A,A*6D

[1499590122701]$GPRMC,054842.00,A,5355.75727,N,02729.48713,E,9.086,184.34,090717,,,A*65

[1499590122701]$GPVTG,184.34,T,,M,9.086,N,16.827,K,A*0A

[1499590122701]$GPGGA,054842.00,5355.75727,N,02729.48713,E,1,11,0.93,220.8,M,25.0,M,,*57

[1499590122701]$GPGSA,A,3,17,24,19,15,13,28,12,01,10,18,11,,1.96,0.93,1.73*0D

[1499590122701]$GPGSV,3,1,12,01,14,037,28,10,13,315,20,11,06,025,17,12,24,244,35*72

[1499590122701]$GPGSV,3,2,12,13,31,181,25,15,46,228,33,17,54,093,40,18,10,290,21*73

[1499590122701]$GPGSV,3,3,12,19,50,136,38,24,52,289,27,28,26,065,31,30,00,114,*77

[1499590122701]$GPGLL,5355.75727,N,02729.48713,E,054842.00,A,A*67

[1499590123697]$GPRMC,054843.00,A,5355.75496,N,02729.48689,E,9.536,183.85,090717,,,A*6C

[1499590123697]$GPVTG,183.85,T,,M,9.536,N,17.660,K,A*05

[1499590123697]$GPGGA,054843.00,5355.75496,N,02729.48689,E,1,11,0.93,222.4,M,25.0,M,,*53

[1499590123697]$GPGSA,A,3,17,24,19,15,13,28,12,01,10,18,11,,1.96,0.93,1.73*0D

[1499590123697]$GPGSV,3,1,12,01,14,037,29,10,13,315,25,11,06,025,15,12,24,244,27*77

[1499590123697]$GPGSV,3,2,12,13,31,181,27,15,46,228,33,17,54,093,40,18,10,290,30*71

[1499590123697]$GPGSV,3,3,12,19,50,136,39,24,52,289,28,28,26,065,31,30,00,114,*79

[1499590123697]$GPGLL,5355.75496,N,02729.48689,E,054843.00,A,A*6D

[1499590124698]$GPRMC,054844.00,A,5355.75210,N,02729.48642,E,9.752,184.96,090717,,,A*61

[1499590124698]$GPVTG,184.96,T,,M,9.752,N,18.060,K,A*09

[1499590124698]$GPGGA,054844.00,5355.75210,N,02729.48642,E,1,11,0.91,223.5,M,25.0,M,,*59

[1499590124698]$GPGSA,A,3,17,24,19,15,13,28,12,01,10,18,11,,1.87,0.91,1.63*0E

[1499590124698]$GPGSV,3,1,12,01,14,037,33,10,13,315,31,11,06,025,14,12,24,244,25*7A

[1499590124698]$GPGSV,3,2,12,13,31,181,27,15,46,228,27,17,54,093,40,18,10,290,25*70

[1499590124698]$GPGSV,3,3,12,19,50,136,38,24,52,289,29,28,26,065,30,30,00,114,*78

[1499590124698]$GPGLL,5355.75210,N,02729.48642,E,054844.00,A,A*65

[1499590125697]$GPRMC,054845.00,A,5355.74939,N,02729.48581,E,9.638,188.88,090717,,,A*63

[1499590125697]$GPVTG,188.88,T,,M,9.638,N,17.849,K,A*0B

[1499590125697]$GPGGA,054845.00,5355.74939,N,02729.48581,E,1,11,0.91,223.5,M,25.0,M,,*55

[1499590125697]$GPGSA,A,3,17,24,19,15,13,28,12,01,10,18,11,,1.87,0.91,1.63*0E

[1499590125697]$GPGSV,3,1,12,01,14,037,28,10,13,315,24,11,06,025,12,12,24,244,31*77

[1499590125697]$GPGSV,3,2,12,13,31,181,26,15,46,228,27,17,54,093,32,18,10,290,22*73

[1499590125697]$GPGSV,3,3,12,19,50,136,41,24,52,289,34,28,26,065,25,30,00,114,*7E

[1499590125697]$GPGLL,5355.74939,N,02729.48581,E,054845.00,A,A*69

[1499590126699]$GPRMC,054846.00,A,5355.74724,N,02729.48362,E,8.647,199.22,090717,,,A*60

[1499590126699]$GPVTG,199.22,T,,M,8.647,N,16.015,K,A*02

[1499590126699]$GPGGA,054846.00,5355.74724,N,02729.48362,E,1,11,0.91,223.7,M,25.0,M,,*5D

[1499590126699]$GPGSA,A,3,17,24,19,15,13,28,12,01,10,18,11,,1.87,0.91,1.63*0E

[1499590126699]$GPGSV,3,1,12,01,14,037,27,10,13,315,21,11,06,025,15,12,24,244,31*7A

[1499590126699]$GPGSV,3,2,12,13,31,181,25,15,46,228,31,17,54,093,36,18,10,290,19*7B

[1499590126699]$GPGSV,3,3,12,19,50,136,26,24,52,289,23,28,26,065,26,30,00,114,*7A

[1499590126699]$GPGLL,5355.74724,N,02729.48362,E,054846.00,A,A*63

[1499590127708]$GPRMC,054847.00,A,5355.74584,N,02729.48034,E,8.190,225.92,090717,,,A*6B

[1499590127708]$GPVTG,225.92,T,,M,8.190,N,15.167,K,A*07

[1499590127708]$GPGGA,054847.00,5355.74584,N,02729.48034,E,1,11,0.91,222.5,M,25.0,M,,*57

[1499590127708]$GPGSA,A,3,17,24,19,15,13,28,12,01,10,18,11,,1.87,0.91,1.63*0E

[1499590127708]$GPGSV,3,1,12,01,14,037,34,10,13,315,17,11,06,025,16,12,24,244,34*7B

[1499590127708]$GPGSV,3,2,12,13,31,181,26,15,46,228,39,17,54,093,23,18,10,290,16*7B

[1499590127708]$GPGSV,3,3,12,19,50,136,34,24,52,289,30,28,26,065,26,30,00,114,*7B

[1499590127708]$GPGLL,5355.74584,N,02729.48034,E,054847.00,A,A*6A

[1499590128697]$GPRMC,054848.00,A,5355.74480,N,02729.47607,E,9.870,247.63,090717,,,A*64

[1499590128697]$GPVTG,247.63,T,,M,9.870,N,18.279,K,A*0A

[1499590128697]$GPGGA,054848.00,5355.74480,N,02729.47607,E,1,11,0.91,222.0,M,25.0,M,,*51

[1499590128697]$GPGSA,A,3,17,24,19,15,13,28,12,01,10,18,11,,1.87,0.91,1.63*0E

[1499590128697]$GPGSV,3,1,12,01,14,037,30,10,13,315,19,11,06,025,17,12,24,244,26*73

[1499590128697]$GPGSV,3,2,12,13,31,181,28,15,46,228,34,17,54,093,37,18,10,290,34*7D

[1499590128697]$GPGSV,3,3,12,19,50,136,24,24,52,289,34,28,26,065,30,30,00,114,*79

[1499590128697]$GPGLL,5355.74480,N,02729.47607,E,054848.00,A,A*69

[1499590129697]$GPRMC,054849.00,A,5355.74421,N,02729.47177,E,10.217,261.26,090717,,,A*58

[1499590129697]$GPVTG,261.26,T,,M,10.217,N,18.922,K,A*39

[1499590129697]$GPGGA,054849.00,5355.74421,N,02729.47177,E,1,11,0.93,220.7,M,25.0,M,,*5C

[1499590129697]$GPGSA,A,3,17,24,19,15,13,28,12,01,10,18,11,,1.96,0.93,1.73*0D

[1499590129697]$GPGSV,3,1,12,01,14,037,22,10,13,315,29,11,06,025,14,12,24,244,30*77

[1499590129697]$GPGSV,3,2,12,13,31,181,26,15,46,228,36,17,54,093,37,18,10,290,30*75

[1499590129697]$GPGSV,3,3,12,19,50,136,39,24,52,289,39,28,26,065,33,30,00,114,*7B

[1499590129697]$GPGLL,5355.74421,N,02729.47177,E,054849.00,A,A*63

[1499590130697]$GPRMC,054850.00,A,5355.74393,N,02729.46712,E,10.045,269.72,090717,,,A*56

[1499590130697]$GPVTG,269.72,T,,M,10.045,N,18.603,K,A*39

[1499590130697]$GPGGA,054850.00,5355.74393,N,02729.46712,E,1,11,0.91,219.7,M,25.0,M,,*56

[1499590130697]$GPGSA,A,3,17,24,19,15,13,28,12,01,10,18,11,,1.87,0.91,1.63*0E

[1499590130697]$GPGSV,3,1,12,01,14,037,25,10,13,315,30,11,06,025,13,12,24,244,35*7A

[1499590130697]$GPGSV,3,2,12,13,31,181,31,15,46,228,36,17,54,093,26,18,10,290,25*77

[1499590130697]$GPGSV,3,3,12,19,50,136,39,24,52,289,37,28,26,065,22,30,00,114,*75

[1499590130697]$GPGLL,5355.74393,N,02729.46712,E,054850.00,A,A*61

[1499590131697]$GPRMC,054851.00,A,5355.74391,N,02729.46236,E,10.309,270.48,090717,,,A*5C

[1499590131697]$GPVTG,270.48,T,,M,10.309,N,19.093,K,A*3D

[1499590131697]$GPGGA,054851.00,5355.74391,N,02729.46236,E,1,11,0.91,218.8,M,25.0,M,,*58

[1499590131697]$GPGSA,A,3,17,24,19,15,13,28,12,01,10,18,11,,1.87,0.91,1.63*0E

[1499590131697]$GPGSV,3,1,12,01,14,037,31,10,13,315,20,11,06,025,11,12,24,244,35*7C

[1499590131697]$GPGSV,3,2,12,13,31,181,31,15,46,228,39,17,54,093,25,18,10,290,29*77

[1499590131697]$GPGSV,3,3,12,19,50,136,39,24,52,289,38,28,26,065,23,30,00,114,*7B

[1499590131697]$GPGLL,5355.74391,N,02729.46236,E,054851.00,A,A*61

[1499590132697]$GPRMC,054852.00,A,5355.74394,N,02729.45716,E,10.455,272.50,090717,,,A*5B

[1499590132697]$GPVTG,272.50,T,,M,10.455,N,19.363,K,A*34

[1499590132697]$GPGGA,054852.00,5355.74394,N,02729.45716,E,1,11,0.91,219.0,M,25.0,M,,*53

[1499590132697]$GPGSA,A,3,17,24,19,15,13,28,12,01,10,18,11,,1.87,0.91,1.63*0E

[1499590132697]$GPGSV,3,1,12,01,14,037,29,10,13,315,28,11,06,025,11,12,24,244,33*7B

[1499590132697]$GPGSV,3,2,12,13,31,181,31,15,46,228,40,17,54,093,25,18,10,290,23*73

[1499590132697]$GPGSV,3,3,12,19,50,136,37,24,52,289,38,28,26,065,25,30,00,114,*73

[1499590132697]$GPGLL,5355.74394,N,02729.45716,E,054852.00,A,A*63

[1499590133698]$GPRMC,054853.00,A,5355.74396,N,02729.45230,E,10.465,275.44,090717,,,A*58

[1499590133698]$GPVTG,275.44,T,,M,10.465,N,19.382,K,A*3A

[1499590133698]$GPGGA,054853.00,5355.74396,N,02729.45230,E,1,11,0.91,218.8,M,25.0,M,,*58

[1499590133698]$GPGSA,A,3,17,24,19,15,13,28,12,01,10,18,11,,1.87,0.91,1.63*0E

[1499590133698]$GPGSV,3,1,12,01,14,037,26,10,13,315,32,11,06,025,10,12,24,244,33*7E

[1499590133698]$GPGSV,3,2,12,13,31,181,32,15,46,228,40,17,54,093,30,18,10,290,23*74

[1499590133698]$GPGSV,3,3,12,19,50,136,34,24,52,289,37,28,26,065,32,30,00,114,*79

[1499590133698]$GPGLL,5355.74396,N,02729.45230,E,054853.00,A,A*61

[1499590134697]$GPRMC,054854.00,A,5355.74426,N,02729.44744,E,10.207,276.89,090717,,,A*54

[1499590134697]$GPVTG,276.89,T,,M,10.207,N,18.904,K,A*3F

[1499590134697]$GPGGA,054854.00,5355.74426,N,02729.44744,E,1,11,0.91,218.1,M,25.0,M,,*5D

[1499590134697]$GPGSA,A,3,17,24,19,15,13,28,12,01,10,18,11,,1.87,0.91,1.63*0E

[1499590134697]$GPGSV,3,1,12,01,14,037,35,10,13,315,25,11,06,025,10,12,24,244,27*7F

[1499590134697]$GPGSV,3,2,12,13,31,181,32,15,46,228,40,17,54,093,29,18,10,290,36*78

[1499590134697]$GPGSV,3,3,12,19,50,136,30,24,52,289,31,28,26,065,32,30,00,114,*7B

[1499590134697]$GPGLL,5355.74426,N,02729.44744,E,054854.00,A,A*6D

[1499590135698]$GPRMC,054855.00,A,5355.74480,N,02729.44283,E,9.849,280.64,090717,,,A*65

[1499590135698]$GPVTG,280.64,T,,M,9.849,N,18.240,K,A*06

[1499590135698]$GPGGA,054855.00,5355.74480,N,02729.44283,E,1,10,0.93,218.0,M,25.0,M,,*5C

[1499590135698]$GPGSA,A,3,17,24,19,15,13,28,12,01,10,18,,,1.96,0.93,1.72*0C

[1499590135698]$GPGSV,3,1,12,01,14,037,16,10,13,315,35,11,06,025,,12,24,244,26*7F

[1499590135698]$GPGSV,3,2,12,13,31,181,30,15,46,228,36,17,54,093,25,18,10,290,36*77

[1499590135698]$GPGSV,3,3,12,19,50,136,30,24,52,289,31,28,26,065,25,30,00,114,*7D

[1499590135698]$GPGLL,5355.74480,N,02729.44283,E,054855.00,A,A*6E

[1499590136697]$GPRMC,054856.00,A,5355.74562,N,02729.43836,E,9.893,286.65,090717,,,A*68

[1499590136697]$GPVTG,286.65,T,,M,9.893,N,18.322,K,A*03

[1499590136697]$GPGGA,054856.00,5355.74562,N,02729.43836,E,1,10,0.93,217.4,M,25.0,M,,*5A

[1499590136697]$GPGSA,A,3,17,24,19,15,13,28,12,01,10,18,,,1.96,0.93,1.72*0C

[1499590136697]$GPGSV,3,1,12,01,14,037,29,10,13,315,32,11,06,025,,12,24,244,26*74

[1499590136697]$GPGSV,3,2,12,13,31,181,31,15,46,228,38,17,54,093,25,18,10,290,29*76

[1499590136697]$GPGSV,3,3,12,19,50,136,34,24,52,289,30,28,26,065,31,30,00,114,*7D

[1499590136697]$GPGLL,5355.74562,N,02729.43836,E,054856.00,A,A*63

[1499590137698]$GPRMC,054857.00,A,5355.74658,N,02729.43388,E,9.620,288.11,090717,,,A*66

[1499590137698]$GPVTG,288.11,T,,M,9.620,N,17.816,K,A*0B

[1499590137698]$GPGGA,054857.00,5355.74658,N,02729.43388,E,1,10,0.93,217.0,M,25.0,M,,*5B

[1499590137698]$GPGSA,A,3,17,24,19,15,13,28,12,01,10,18,,,1.96,0.93,1.72*0C

[1499590137698]$GPGSV,3,1,12,01,14,037,29,10,13,315,32,11,06,025,,12,24,244,35*76

[1499590137698]$GPGSV,3,2,12,13,31,181,25,15,46,228,37,17,54,093,35,18,10,290,33*76

[1499590137698]$GPGSV,3,3,12,19,50,136,38,24,52,289,30,28,26,065,32,30,00,114,*72

[1499590137698]$GPGLL,5355.74658,N,02729.43388,E,054857.00,A,A*66

[1499590138687]$GPRMC,054858.00,A,5355.74727,N,02729.42968,E,9.251,284.75,090717,,,A*69

[1499590138687]$GPVTG,284.75,T,,M,9.251,N,17.134,K,A*0E

[1499590138687]$GPGGA,054858.00,5355.74727,N,02729.42968,E,1,10,0.93,216.5,M,25.0,M,,*5C

[1499590138687]$GPGSA,A,3,17,24,19,15,13,28,12,01,10,18,,,1.96,0.93,1.72*0C

[1499590138687]$GPGSV,3,1,12,01,14,037,28,10,13,315,28,11,06,025,,12,24,244,27*7F

[1499590138687]$GPGSV,3,2,12,13,31,181,31,15,46,228,40,17,54,093,35,18,10,290,34*74

[1499590138687]$GPGSV,3,3,12,19,50,136,31,24,52,289,29,28,26,065,27,30,00,114,*77

[1499590138687]$GPGLL,5355.74727,N,02729.42968,E,054858.00,A,A*65

[1499590139697]$GPRMC,054859.00,A,5355.74782,N,02729.42544,E,9.158,281.67,090717,,,A*69

[1499590139697]$GPVTG,281.67,T,,M,9.158,N,16.961,K,A*0B

[1499590139697]$GPGGA,054859.00,5355.74782,N,02729.42544,E,1,10,0.93,216.4,M,25.0,M,,*51

[1499590139697]$GPGSA,A,3,17,24,19,15,13,28,12,01,10,18,,,1.96,0.93,1.72*0C

[1499590139697]$GPGSV,3,1,12,01,14,037,19,10,13,315,27,11,06,025,,12,24,244,25*70

[1499590139697]$GPGSV,3,2,12,13,31,181,27,15,46,228,39,17,54,093,30,18,10,290,37*7B

[1499590139697]$GPGSV,3,3,12,19,50,136,31,24,52,289,28,28,26,065,32,30,00,114,*72

[1499590139697]$GPGLL,5355.74782,N,02729.42544,E,054859.00,A,A*69

[1499590140697]$GPRMC,054900.00,A,5355.74822,N,02729.42106,E,9.522,279.31,090717,,,A*6E

[1499590140697]$GPVTG,279.31,T,,M,9.522,N,17.635,K,A*09

[1499590140697]$GPGGA,054900.00,5355.74822,N,02729.42106,E,1,10,0.93,216.3,M,25.0,M,,*5C

[1499590140697]$GPGSA,A,3,17,24,19,15,13,28,12,01,10,18,,,1.96,0.93,1.72*0C

[1499590140697]$GPGSV,3,1,12,01,14,037,18,10,13,315,25,11,06,025,,12,24,244,27*71

[1499590140697]$GPGSV,3,2,12,13,31,181,32,15,46,228,39,17,54,093,28,18,10,290,30*71

[1499590140697]$GPGSV,3,3,12,19,50,136,31,24,52,289,33,28,26,065,28,30,00,114,*73

[1499590140697]$GPGLL,5355.74822,N,02729.42106,E,054900.00,A,A*63

[1499590141698]$GPRMC,054901.00,A,5355.74853,N,02729.41671,E,9.307,277.91,090717,,,A*68

[1499590141698]$GPVTG,277.91,T,,M,9.307,N,17.236,K,A*0B

[1499590141698]$GPGGA,054901.00,5355.74853,N,02729.41671,E,1,10,0.93,216.2,M,25.0,M,,*5E

[1499590141698]$GPGSA,A,3,17,24,19,15,13,28,12,01,10,18,,,1.96,0.93,1.72*0C

[1499590141698]$GPGSV,3,1,12,01,14,037,19,10,13,315,24,11,06,025,,12,24,244,25*73

[1499590141698]$GPGSV,3,2,12,13,31,181,35,15,46,228,39,17,54,093,21,18,10,290,33*7C

[1499590141698]$GPGSV,3,3,12,19,50,136,32,24,52,289,34,28,26,065,29,30,00,114,*76

[1499590141698]$GPGLL,5355.74853,N,02729.41671,E,054901.00,A,A*60

[1499590142697]$GPRMC,054902.00,A,5355.74863,N,02729.41226,E,9.728,275.89,090717,,,A*6C

[1499590142697]$GPVTG,275.89,T,,M,9.728,N,18.016,K,A*06

[1499590142697]$GPGGA,054902.00,5355.74863,N,02729.41226,E,1,10,0.93,215.6,M,25.0,M,,*5F

[1499590142697]$GPGSA,A,3,17,24,19,15,13,28,12,01,10,18,,,1.96,0.93,1.72*0C

[1499590142697]$GPGSV,3,1,12,01,14,037,19,10,13,315,24,11,06,025,,12,24,244,30*77

[1499590142697]$GPGSV,3,2,12,13,31,181,31,15,46,228,39,17,54,093,30,18,10,290,22*78

[1499590142697]$GPGSV,3,3,12,19,50,136,32,24,52,289,39,28,26,065,34,30,00,114,*77

[1499590142697]$GPGLL,5355.74863,N,02729.41226,E,054902.00,A,A*66

[1499590143697]$GPRMC,054903.00,A,5355.74883,N,02729.40772,E,9.719,275.89,090717,,,A*64

[1499590143697]$GPVTG,275.89,T,,M,9.719,N,17.999,K,A*05

[1499590143697]$GPGGA,054903.00,5355.74883,N,02729.40772,E,1,10,0.93,215.4,M,25.0,M,,*57

[1499590143697]$GPGSA,A,3,17,24,19,15,13,28,12,01,10,18,,,1.96,0.93,1.72*0C

[1499590143697]$GPGSV,3,1,12,01,14,037,21,10,13,315,22,11,06,025,,12,24,244,30*7A

[1499590143697]$GPGSV,3,2,12,13,31,181,32,15,46,228,41,17,54,093,30,18,10,290,34*73

[1499590143697]$GPGSV,3,3,12,19,50,136,31,24,52,289,36,28,26,065,30,30,00,114,*7F

[1499590143697]$GPGLL,5355.74883,N,02729.40772,E,054903.00,A,A*6C

[1499590144700]$GPRMC,054904.00,A,5355.74907,N,02729.40338,E,9.174,276.09,090717,,,A*62

[1499590144700]$GPVTG,276.09,T,,M,9.174,N,16.990,K,A*0B

[1499590144700]$GPGGA,054904.00,5355.74907,N,02729.40338,E,1,10,0.93,215.1,M,25.0,M,,*52

[1499590144700]$GPGSA,A,3,17,24,19,15,13,28,12,01,10,18,,,1.96,0.93,1.72*0C

[1499590144700]$GPGSV,3,1,12,01,14,037,20,10,13,315,23,11,06,025,,12,24,244,30*7A

[1499590144700]$GPGSV,3,2,12,13,31,181,32,15,46,228,40,17,54,093,29,18,10,290,29*76

[1499590144700]$GPGSV,3,3,12,19,50,136,25,24,52,289,34,28,26,065,30,30,00,114,*78

[1499590144700]$GPGLL,5355.74907,N,02729.40338,E,054904.00,A,A*6C

[1499590145698]$GPRMC,054905.00,A,5355.74935,N,02729.39920,E,8.968,276.53,090717,,,A*64

[1499590145698]$GPVTG,276.53,T,,M,8.968,N,16.609,K,A*0F

[1499590145698]$GPGGA,054905.00,5355.74935,N,02729.39920,E,1,10,0.93,215.1,M,25.0,M,,*5F

[1499590145698]$GPGSA,A,3,17,24,19,15,13,28,12,01,10,18,,,1.96,0.93,1.72*0C

[1499590145698]$GPGSV,3,1,12,01,14,037,22,10,13,315,22,11,06,025,16,12,24,244,25*7A

[1499590145698]$GPGSV,3,2,12,13,31,181,32,15,46,228,40,17,54,093,28,18,10,290,30*7F

[1499590145698]$GPGSV,3,3,12,19,50,136,31,24,52,289,35,28,26,065,24,30,00,114,*79

[1499590145698]$GPGLL,5355.74935,N,02729.39920,E,054905.00,A,A*61

[1499590146697]$GPRMC,054906.00,A,5355.74955,N,02729.39523,E,8.372,276.02,090717,,,A*6B

[1499590146697]$GPVTG,276.02,T,,M,8.372,N,15.504,K,A*07

[1499590146697]$GPGGA,054906.00,5355.74955,N,02729.39523,E,1,10,0.93,214.9,M,25.0,M,,*5C

[1499590146697]$GPGSA,A,3,17,24,19,15,13,28,12,01,10,18,,,1.96,0.93,1.72*0C

[1499590146697]$GPGSV,3,1,12,01,14,037,24,10,13,315,22,11,06,025,17,12,24,244,25*7D

[1499590146697]$GPGSV,3,2,12,13,31,181,33,15,46,228,42,17,54,093,28,18,10,290,22*7F

[1499590146697]$GPGSV,3,3,12,19,50,136,31,24,52,289,31,28,26,065,27,30,00,114,*7E

[1499590146697]$GPGLL,5355.74955,N,02729.39523,E,054906.00,A,A*6B

[1499590147699]$GPRMC,054907.00,A,5355.74973,N,02729.39124,E,8.672,275.93,090717,,,A*63

[1499590147699]$GPVTG,275.93,T,,M,8.672,N,16.061,K,A*0C

[1499590147699]$GPGGA,054907.00,5355.74973,N,02729.39124,E,1,10,0.93,214.8,M,25.0,M,,*5B

[1499590147699]$GPGSA,A,3,17,24,19,15,13,28,12,01,10,18,,,1.96,0.93,1.72*0C

[1499590147699]$GPGSV,3,1,12,01,14,037,24,10,13,315,20,11,06,025,18,12,24,244,25*70

[1499590147699]$GPGSV,3,2,12,13,31,181,30,15,46,228,36,17,54,093,32,18,10,290,23*75

[1499590147699]$GPGSV,3,3,12,19,50,136,31,24,52,289,33,28,26,065,27,30,00,114,*7C

[1499590147699]$GPGLL,5355.74973,N,02729.39124,E,054907.00,A,A*6D

[1499590148697]$GPRMC,054908.00,A,5355.74971,N,02729.38742,E,8.432,276.19,090717,,,A*6E

[1499590148697]$GPVTG,276.19,T,,M,8.432,N,15.616,K,A*0E

[1499590148697]$GPGGA,054908.00,5355.74971,N,02729.38742,E,1,11,0.91,213.9,M,25.0,M,,*54

[1499590148697]$GPGSA,A,3,17,24,19,15,13,28,12,01,10,18,11,,1.86,0.91,1.63*0F

[1499590148697]$GPGSV,3,1,12,01,14,037,24,10,13,315,28,11,06,025,19,12,24,244,31*7C

[1499590148697]$GPGSV,3,2,12,13,31,181,29,15,46,228,39,17,54,093,27,18,10,290,22*77

[1499590148697]$GPGSV,3,3,12,19,50,136,32,24,52,289,38,28,26,065,26,30,00,114,*75

[1499590148697]$GPGLL,5355.74971,N,02729.38742,E,054908.00,A,A*67

[1499590149698]$GPRMC,054909.00,A,5355.74969,N,02729.38374,E,7.697,272.08,090717,,,A*61

[1499590149698]$GPVTG,272.08,T,,M,7.697,N,14.254,K,A*0B

[1499590149698]$GPGGA,054909.00,5355.74969,N,02729.38374,E,1,11,0.91,213.6,M,25.0,M,,*52

[1499590149698]$GPGSA,A,3,17,24,19,15,13,28,12,01,10,18,11,,1.86,0.91,1.63*0F

[1499590149698]$GPGSV,3,1,12,01,14,037,25,10,13,315,19,11,06,025,19,12,24,244,34*7A

[1499590149698]$GPGSV,3,2,12,13,31,181,32,15,46,228,39,17,54,093,25,18,10,290,21*7C

[1499590149698]$GPGSV,3,3,12,19,50,136,37,24,52,289,36,28,26,065,26,30,00,114,*7E

[1499590149698]$GPGLL,5355.74969,N,02729.38374,E,054909.00,A,A*6E

[1499590150697]$GPRMC,054910.00,A,5355.74949,N,02729.38008,E,7.725,266.34,090717,,,A*61

[1499590150697]$GPVTG,266.34,T,,M,7.725,N,14.306,K,A*0F

[1499590150697]$GPGGA,054910.00,5355.74949,N,02729.38008,E,1,11,0.91,213.3,M,25.0,M,,*55

[1499590150697]$GPGSA,A,3,17,24,19,15,13,28,12,01,10,18,11,,1.86,0.91,1.63*0F

[1499590150697]$GPGSV,3,1,12,01,14,037,24,10,13,315,22,11,06,025,18,12,24,244,33*75

[1499590150697]$GPGSV,3,2,12,13,31,181,26,15,46,228,38,17,54,093,39,18,10,290,29*7D

[1499590150697]$GPGSV,3,3,12,19,50,136,37,24,52,289,39,28,26,065,32,30,00,114,*74

[1499590150697]$GPGLL,5355.74949,N,02729.38008,E,054910.00,A,A*6C

[1499590151697]$GPRMC,054911.00,A,5355.74891,N,02729.37635,E,7.813,261.16,090717,,,A*6E

[1499590151697]$GPVTG,261.16,T,,M,7.813,N,14.469,K,A*0C

[1499590151697]$GPGGA,054911.00,5355.74891,N,02729.37635,E,1,11,0.91,212.8,M,25.0,M,,*5D

[1499590151697]$GPGSA,A,3,17,24,19,15,13,28,12,01,10,18,11,,1.86,0.91,1.63*0F

[1499590151697]$GPGSV,3,1,12,01,14,037,25,10,13,315,22,11,06,025,16,12,24,244,26*7E

[1499590151697]$GPGSV,3,2,12,13,31,181,26,15,46,228,38,17,54,093,39,18,10,290,36*73

[1499590151697]$GPGSV,3,3,12,19,50,136,40,24,52,289,40,28,26,065,33,30,00,114,*7B

[1499590151697]$GPGLL,5355.74891,N,02729.37635,E,054911.00,A,A*6E

[1499590152698]$GPRMC,054912.00,A,5355.74855,N,02729.37310,E,7.350,262.96,090717,,,A*60

[1499590152698]$GPVTG,262.96,T,,M,7.350,N,13.612,K,A*02

[1499590152698]$GPGGA,054912.00,5355.74855,N,02729.37310,E,1,11,0.91,212.5,M,25.0,M,,*59

[1499590152698]$GPGSA,A,3,17,24,19,15,13,28,12,01,10,18,11,,1.86,0.91,1.63*0F

[1499590152698]$GPGSV,3,1,12,01,14,037,27,10,13,315,31,11,06,025,16,12,24,244,31*78

[1499590152698]$GPGSV,3,2,12,13,31,181,25,15,46,228,38,17,54,093,39,18,10,290,38*7E

[1499590152698]$GPGSV,3,3,12,19,50,136,39,24,52,289,37,28,26,065,33,30,00,114,*75

[1499590152698]$GPGLL,5355.74855,N,02729.37310,E,054912.00,A,A*67

[1499590153698]$GPRMC,054913.00,A,5355.74852,N,02729.36996,E,6.636,269.21,090717,,,A*60

[1499590153698]$GPVTG,269.21,T,,M,6.636,N,12.289,K,A*06

[1499590153698]$GPGGA,054913.00,5355.74852,N,02729.36996,E,1,11,0.91,212.3,M,25.0,M,,*5C

[1499590153698]$GPGSA,A,3,17,24,19,15,13,28,12,01,10,18,11,,1.86,0.91,1.62*0E

[1499590153698]$GPGSV,3,1,12,01,14,037,32,10,13,315,34,11,06,025,15,12,24,244,25*7F

[1499590153698]$GPGSV,3,2,12,13,31,181,24,15,46,228,36,17,54,093,38,18,10,290,31*79

[1499590153698]$GPGSV,3,3,12,19,50,136,39,24,52,289,39,28,26,065,31,30,00,114,*79

[1499590153698]$GPGLL,5355.74852,N,02729.36996,E,054913.00,A,A*64

[1499590154697]$GPRMC,054914.00,A,5355.74869,N,02729.36725,E,5.219,271.90,090717,,,A*60

[1499590154697]$GPVTG,271.90,T,,M,5.219,N,9.666,K,A*30

[1499590154697]$GPGGA,054914.00,5355.74869,N,02729.36725,E,1,11,0.91,212.3,M,25.0,M,,*55

[1499590154697]$GPGSA,A,3,17,24,19,15,13,28,12,01,10,18,11,,1.86,0.91,1.62*0E

[1499590154697]$GPGSV,3,1,12,01,14,037,27,10,13,315,24,11,06,025,15,12,24,244,25*7A

[1499590154697]$GPGSV,3,2,12,13,31,181,23,15,46,228,36,17,54,093,32,18,10,290,35*70

[1499590154697]$GPGSV,3,3,12,19,50,136,38,24,52,289,33,28,26,065,31,30,00,114,*72

[1499590154697]$GPGLL,5355.74869,N,02729.36725,E,054914.00,A,A*6D

[1499590155697]$GPRMC,054915.00,A,5355.74888,N,02729.36517,E,4.020,275.69,090717,,,A*66

[1499590155697]$GPVTG,275.69,T,,M,4.020,N,7.444,K,A*37

[1499590155697]$GPGGA,054915.00,5355.74888,N,02729.36517,E,1,11,0.91,211.9,M,25.0,M,,*51

[1499590155697]$GPGSA,A,3,17,24,19,15,13,28,12,01,10,18,11,,1.86,0.91,1.62*0E

[1499590155697]$GPGSV,3,1,12,01,14,037,31,10,13,315,31,11,06,025,14,12,24,244,25*78

[1499590155697]$GPGSV,3,2,12,13,31,181,22,15,46,228,36,17,54,093,27,18,10,290,40*77

[1499590155697]$GPGSV,3,3,12,19,50,136,36,24,52,289,35,28,26,065,32,30,00,114,*79

[1499590155697]$GPGLL,5355.74888,N,02729.36517,E,054915.00,A,A*60

[1499590156698]$GPRMC,054916.00,A,5355.74909,N,02729.36354,E,3.219,278.73,090717,,,A*65

[1499590156698]$GPVTG,278.73,T,,M,3.219,N,5.961,K,A*36

[1499590156698]$GPGGA,054916.00,5355.74909,N,02729.36354,E,1,11,0.91,212.0,M,25.0,M,,*51

[1499590156698]$GPGSA,A,3,17,24,19,15,13,28,12,01,10,18,11,,1.86,0.91,1.62*0E

[1499590156698]$GPGSV,3,1,12,01,14,037,30,10,13,315,25,11,05,025,14,12,24,244,24*7E

[1499590156698]$GPGSV,3,2,12,13,31,181,22,15,46,228,37,17,54,093,28,18,10,290,40*79

[1499590156698]$GPGSV,3,3,12,19,50,136,34,24,52,289,34,28,26,065,28,30,00,114,*71

[1499590156698]$GPGLL,5355.74909,N,02729.36354,E,054916.00,A,A*6A

[1499590157698]$GPRMC,054917.00,A,5355.74926,N,02729.36224,E,2.538,279.39,090717,,,A*65

[1499590157698]$GPVTG,279.39,T,,M,2.538,N,4.701,K,A*35

[1499590157698]$GPGGA,054917.00,5355.74926,N,02729.36224,E,1,11,0.91,212.2,M,25.0,M,,*59

[1499590157698]$GPGSA,A,3,17,24,19,15,13,28,12,01,10,18,11,,1.86,0.91,1.62*0E

[1499590157698]$GPGSV,3,1,12,01,14,037,30,10,13,315,26,11,05,025,14,12,25,244,23*7B

[1499590157698]$GPGSV,3,2,12,13,31,181,22,15,46,228,37,17,54,093,33,18,10,290,40*73

[1499590157698]$GPGSV,3,3,12,19,50,136,30,24,52,289,29,28,26,065,31,30,00,114,*71

[1499590157698]$GPGLL,5355.74926,N,02729.36224,E,054917.00,A,A*60

[1499590158698]$GPRMC,054918.00,A,5355.74936,N,02729.36157,E,0.963,,090717,,,A*74

[1499590158698]$GPVTG,,T,,M,0.963,N,1.783,K,A*22

[1499590158698]$GPGGA,054918.00,5355.74936,N,02729.36157,E,1,11,0.91,212.3,M,25.0,M,,*51

[1499590158698]$GPGSA,A,3,17,24,19,15,13,28,12,01,10,18,11,,1.86,0.91,1.62*0E

[1499590158698]$GPGSV,3,1,12,01,14,037,22,10,13,315,33,11,05,025,11,12,25,244,23*79

[1499590158698]$GPGSV,3,2,12,13,31,181,22,15,46,228,36,17,54,093,37,18,10,290,40*76

[1499590158698]$GPGSV,3,3,12,19,50,136,30,24,52,289,33,28,26,065,33,30,00,114,*78

[1499590158698]$GPGLL,5355.74936,N,02729.36157,E,054918.00,A,A*69

[1499590159702]$GPRMC,054919.00,A,5355.74937,N,02729.36151,E,0.037,,090717,,,A*7A

[1499590159702]$GPVTG,,T,,M,0.037,N,0.068,K,A*29

[1499590159702]$GPGGA,054919.00,5355.74937,N,02729.36151,E,1,11,0.91,212.3,M,25.0,M,,*57

[1499590159702]$GPGSA,A,3,17,24,19,15,13,28,12,01,10,18,11,,1.86,0.91,1.62*0E

[1499590159702]$GPGSV,3,1,12,01,14,037,30,10,13,315,34,11,05,025,10,12,25,244,26*79

[1499590159702]$GPGSV,3,2,12,13,31,181,24,15,46,228,35,17,54,093,37,18,10,290,40*73

[1499590159702]$GPGSV,3,3,12,19,50,136,29,24,52,289,34,28,26,065,31,30,00,114,*75

[1499590159702]$GPGLL,5355.74937,N,02729.36151,E,054919.00,A,A*6F

[1499590160697]$GPRMC,054920.00,A,5355.74933,N,02729.36154,E,0.029,,090717,,,A*7E

[1499590160697]$GPVTG,,T,,M,0.029,N,0.054,K,A*29

[1499590160697]$GPGGA,054920.00,5355.74933,N,02729.36154,E,1,11,0.91,212.1,M,25.0,M,,*5E

[1499590160697]$GPGSA,A,3,17,24,19,15,13,28,12,01,10,18,11,,1.86,0.91,1.62*0E

[1499590160697]$GPGSV,3,1,12,01,14,037,30,10,13,315,34,11,05,025,10,12,25,244,26*79

[1499590160697]$GPGSV,3,2,12,13,31,181,25,15,45,227,35,17,54,093,36,18,10,290,40*7F

[1499590160697]$GPGSV,3,3,12,19,50,136,28,24,52,289,35,28,26,065,30,30,00,114,*74

[1499590160697]$GPGLL,5355.74933,N,02729.36154,E,054920.00,A,A*64

[1499590161688]$GPRMC,054921.00,A,5355.74919,N,02729.36162,E,0.020,,090717,,,A*7B

[1499590161688]$GPVTG,,T,,M,0.020,N,0.037,K,A*25

[1499590161688]$GPGGA,054921.00,5355.74919,N,02729.36162,E,1,10,0.93,211.6,M,25.0,M,,*55

[1499590161688]$GPGSA,A,3,17,24,19,15,13,28,12,01,10,18,,,1.95,0.93,1.72*0F

[1499590161688]$GPGSV,3,1,12,01,14,037,30,10,13,315,33,11,05,025,09,12,25,244,26*76

[1499590161688]$GPGSV,3,2,12,13,31,181,26,15,45,227,35,17,54,093,36,18,10,290,40*7C

[1499590161688]$GPGSV,3,3,12,19,50,136,28,24,52,289,36,28,26,065,30,30,00,114,*77

[1499590161688]$GPGLL,5355.74919,N,02729.36162,E,054921.00,A,A*68

[1499590162697]$GPRMC,054922.00,A,5355.74912,N,02729.36166,E,0.050,,090717,,,A*70

[1499590162697]$GPVTG,,T,,M,0.050,N,0.092,K,A*2D

[1499590162697]$GPGGA,054922.00,5355.74912,N,02729.36166,E,1,10,0.93,211.3,M,25.0,M,,*5C

[1499590162697]$GPGSA,A,3,17,24,19,15,13,28,12,01,10,18,,,1.95,0.93,1.72*0F

[1499590162697]$GPGSV,3,1,12,01,14,037,30,10,13,315,33,11,05,025,08,12,25,244,27*76

[1499590162697]$GPGSV,3,2,12,13,31,181,26,15,45,227,35,17,54,092,36,18,10,290,40*7D

[1499590162697]$GPGSV,3,3,12,19,50,136,28,24,52,289,36,28,26,065,30,30,00,114,*77

[1499590162697]$GPGLL,5355.74912,N,02729.36166,E,054922.00,A,A*64

[1499590163699]$GPRMC,054923.00,A,5355.74909,N,02729.36169,E,0.040,,090717,,,A*75

[1499590163699]$GPVTG,,T,,M,0.040,N,0.073,K,A*23

[1499590163699]$GPGGA,054923.00,5355.74909,N,02729.36169,E,1,10,0.93,211.1,M,25.0,M,,*5A

[1499590163699]$GPGSA,A,3,17,24,19,15,13,28,12,01,10,18,,,1.95,0.93,1.72*0F

[1499590163699]$GPGSV,3,1,12,01,14,037,31,10,13,315,33,11,05,025,08,12,25,244,27*77

[1499590163699]$GPGSV,3,2,12,13,31,181,25,15,45,227,35,17,54,092,36,18,10,289,40*76

[1499590163699]$GPGSV,3,3,12,19,50,136,29,24,52,289,36,28,26,065,30,30,00,114,*76

[1499590163699]$GPGLL,5355.74909,N,02729.36169,E,054923.00,A,A*60

[1499590164697]$GPRMC,054924.00,A,5355.74904,N,02729.36174,E,0.147,,090717,,,A*75

[1499590164697]$GPVTG,,T,,M,0.147,N,0.272,K,A*26

[1499590164697]$GPGGA,054924.00,5355.74904,N,02729.36174,E,1,10,0.93,210.9,M,25.0,M,,*55

[1499590164697]$GPGSA,A,3,17,24,19,15,13,28,12,01,10,18,,,1.95,0.93,1.72*0F

[1499590164697]$GPGSV,3,1,12,01,14,037,31,10,13,315,33,11,05,025,08,12,25,244,28*78

[1499590164697]$GPGSV,3,2,12,13,31,181,25,15,45,227,35,17,54,092,36,18,10,289,40*76

[1499590164697]$GPGSV,3,3,12,19,50,136,28,24,52,289,36,28,26,065,29,30,00,114,*7F

[1499590164697]$GPGLL,5355.74904,N,02729.36174,E,054924.00,A,A*66

[1499590165698]$GPRMC,054925.00,A,5355.74897,N,02729.36179,E,0.051,,090717,,,A*74

[1499590165698]$GPVTG,,T,,M,0.051,N,0.094,K,A*2A

[1499590165698]$GPGGA,054925.00,5355.74897,N,02729.36179,E,1,10,0.93,210.6,M,25.0,M,,*5D

[1499590165698]$GPGSA,A,3,17,24,19,15,13,28,12,01,10,18,,,1.95,0.93,1.72*0F

[1499590165698]$GPGSV,3,1,12,01,14,037,31,10,13,315,34,11,05,025,08,12,25,244,28*7F

[1499590165698]$GPGSV,3,2,12,13,31,181,25,15,45,227,35,17,54,092,36,18,10,289,39*78

[1499590165698]$GPGSV,3,3,12,19,50,136,28,24,52,289,36,28,26,065,28,30,00,114,*7E

[1499590165698]$GPGLL,5355.74897,N,02729.36179,E,054925.00,A,A*61

[1499590166697]$GPRMC,054926.00,A,5355.74891,N,02729.36182,E,0.056,,090717,,,A*72

[1499590166697]$GPVTG,,T,,M,0.056,N,0.104,K,A*25

[1499590166697]$GPGGA,054926.00,5355.74891,N,02729.36182,E,1,11,0.91,210.4,M,25.0,M,,*5D

[1499590166697]$GPGSA,A,3,17,24,19,15,13,28,12,01,10,18,11,,1.86,0.91,1.62*0E

[1499590166697]$GPGSV,3,1,12,01,14,037,31,10,13,315,34,11,05,025,09,12,25,244,28*7E

[1499590166697]$GPGSV,3,2,12,13,31,181,25,15,45,227,35,17,54,092,36,18,10,289,39*78

[1499590166697]$GPGSV,3,3,12,19,50,136,27,24,52,289,36,28,26,065,28,30,00,114,*71

[1499590166697]$GPGLL,5355.74891,N,02729.36182,E,054926.00,A,A*60

[1499590167717]$GPRMC,054927.00,A,5355.74886,N,02729.36187,E,0.047,,090717,,,A*70

[1499590167717]$GPVTG,,T,,M,0.047,N,0.087,K,A*2F

[1499590167717]$GPGGA,054927.00,5355.74886,N,02729.36187,E,1,11,0.91,210.2,M,25.0,M,,*59

[1499590167717]$GPGSA,A,3,17,24,19,15,13,28,12,01,10,18,11,,1.86,0.91,1.62*0E

[1499590167717]$GPGSV,3,1,12,01,14,037,31,10,13,315,34,11,05,025,09,12,25,244,28*7E

[1499590167717]$GPGSV,3,2,12,13,31,181,25,15,45,227,35,17,54,092,36,18,10,289,39*78

[1499590167717]$GPGSV,3,3,12,19,50,136,28,24,52,289,36,28,26,065,27,30,00,114,*71

[1499590167717]$GPGLL,5355.74886,N,02729.36187,E,054927.00,A,A*62

[1499590168687]$GPRMC,054928.00,A,5355.74884,N,02729.36192,E,0.059,,090717,,,A*76

[1499590168687]$GPVTG,,T,,M,0.059,N,0.109,K,A*27

[1499590168687]$GPGGA,054928.00,5355.74884,N,02729.36192,E,1,11,0.91,210.0,M,25.0,M,,*52

[1499590168687]$GPGSA,A,3,17,24,19,15,13,28,12,01,10,18,11,,1.86,0.91,1.62*0E

[1499590168687]$GPGSV,3,1,12,01,14,037,31,10,13,315,34,11,05,025,09,12,25,244,29*7F

[1499590168687]$GPGSV,3,2,12,13,31,181,25,15,45,227,36,17,54,092,36,18,10,289,39*7B

[1499590168687]$GPGSV,3,3,12,19,50,136,28,24,52,289,36,28,26,065,27,30,00,114,*71

[1499590168687]$GPGLL,5355.74884,N,02729.36192,E,054928.00,A,A*6B

[1499590169700]$GPRMC,054929.00,A,5355.74879,N,02729.36197,E,0.081,,090717,,,A*75

[1499590169700]$GPVTG,,T,,M,0.081,N,0.149,K,A*26

[1499590169700]$GPGGA,054929.00,5355.74879,N,02729.36197,E,1,11,0.91,209.9,M,25.0,M,,*55

[1499590169700]$GPGSA,A,3,17,24,19,15,13,28,12,01,10,18,11,,1.86,0.91,1.62*0E

[1499590169700]$GPGSV,3,1,12,01,14,037,31,10,13,315,34,11,05,025,09,12,25,244,29*7F

[1499590169700]$GPGSV,3,2,12,13,31,181,25,15,45,227,36,17,54,092,36,18,10,289,39*7B

[1499590169700]$GPGSV,3,3,12,19,50,136,28,24,53,289,36,28,26,065,27,30,00,114,*70

[1499590169700]$GPGLL,5355.74879,N,02729.36197,E,054929.00,A,A*6D

[1499590170697]$GPRMC,054930.00,A,5355.74875,N,02729.36198,E,0.043,,090717,,,A*70

[1499590170697]$GPVTG,,T,,M,0.043,N,0.079,K,A*2A

[1499590170697]$GPGGA,054930.00,5355.74875,N,02729.36198,E,1,11,0.91,209.8,M,25.0,M,,*5F

[1499590170697]$GPGSA,A,3,17,24,19,15,13,28,12,01,10,18,11,,1.86,0.91,1.62*0E

[1499590170697]$GPGSV,3,1,12,01,14,037,31,10,13,315,34,11,05,025,09,12,25,244,28*7E

[1499590170697]$GPGSV,3,2,12,13,31,181,25,15,45,227,36,17,54,092,36,18,10,289,39*7B

[1499590170697]$GPGSV,3,3,12,19,50,136,28,24,53,289,36,28,26,065,27,30,00,114,*70

[1499590170697]$GPGLL,5355.74875,N,02729.36198,E,054930.00,A,A*66

[1499590171698]$GPRMC,054931.00,A,5355.74873,N,02729.36201,E,0.036,,090717,,,A*76

[1499590171698]$GPVTG,,T,,M,0.036,N,0.066,K,A*26

[1499590171698]$GPGGA,054931.00,5355.74873,N,02729.36201,E,1,11,0.91,209.7,M,25.0,M,,*54

[1499590171698]$GPGSA,A,3,17,24,19,15,13,28,12,01,10,18,11,,1.86,0.91,1.62*0E

[1499590171698]$GPGSV,3,1,12,01,14,037,31,10,13,315,34,11,05,025,09,12,25,244,28*7E

[1499590171698]$GPGSV,3,2,12,13,31,181,25,15,45,227,36,17,54,092,36,18,10,289,39*7B

[1499590171698]$GPGSV,3,3,12,19,50,136,28,24,53,289,36,28,26,065,27,30,00,114,*70

[1499590171698]$GPGLL,5355.74873,N,02729.36201,E,054931.00,A,A*62

[1499590172697]$GPRMC,054932.00,A,5355.74870,N,02729.36205,E,0.048,,090717,,,A*7B

[1499590172697]$GPVTG,,T,,M,0.048,N,0.089,K,A*2E

[1499590172697]$GPGGA,054932.00,5355.74870,N,02729.36205,E,1,11,0.91,209.6,M,25.0,M,,*51

[1499590172697]$GPGSA,A,3,17,24,19,15,13,28,12,01,10,18,11,,1.86,0.91,1.62*0E

[1499590172697]$GPGSV,3,1,12,01,14,037,31,10,13,315,34,11,05,025,13,12,25,244,28*75

[1499590172697]$GPGSV,3,2,12,13,31,181,25,15,45,227,35,17,54,092,36,18,10,289,39*78

[1499590172697]$GPGSV,3,3,12,19,50,136,28,24,53,289,36,28,26,065,28,30,00,114,*7F

[1499590172697]$GPGLL,5355.74870,N,02729.36205,E,054932.00,A,A*66

[1499590173697]$GPRMC,054933.00,A,5355.74872,N,02729.36202,E,0.039,,090717,,,A*79

[1499590173697]$GPVTG,,T,,M,0.039,N,0.073,K,A*2D

[1499590173697]$GPGGA,054933.00,5355.74872,N,02729.36202,E,1,11,0.91,209.7,M,25.0,M,,*54

[1499590173697]$GPGSA,A,3,17,24,19,15,13,28,12,01,10,18,11,,1.86,0.91,1.62*0E

[1499590173697]$GPGSV,3,1,12,01,14,037,31,10,13,315,35,11,05,025,13,12,25,244,28*74

[1499590173697]$GPGSV,3,2,12,13,31,181,25,15,45,227,31,17,54,092,35,18,10,289,39*7F

[1499590173697]$GPGSV,3,3,12,19,50,136,28,24,53,289,32,28,26,065,29,30,00,114,*7A

[1499590173697]$GPGLL,5355.74872,N,02729.36202,E,054933.00,A,A*62

[1499590174697]$GPRMC,054934.00,A,5355.74873,N,02729.36201,E,0.021,,090717,,,A*75

[1499590174697]$GPVTG,,T,,M,0.021,N,0.039,K,A*2A

[1499590174697]$GPGGA,054934.00,5355.74873,N,02729.36201,E,1,11,0.91,209.7,M,25.0,M,,*51

[1499590174697]$GPGSA,A,3,17,24,19,15,13,28,12,01,10,18,11,,1.86,0.91,1.62*0E

[1499590174697]$GPGSV,3,1,12,01,14,037,31,10,13,315,35,11,05,025,13,12,25,244,28*74

[1499590174697]$GPGSV,3,2,12,13,31,181,25,15,45,227,33,17,54,092,36,18,10,289,39*7E

[1499590174697]$GPGSV,3,3,12,19,50,136,28,24,53,289,35,28,26,065,29,30,00,114,*7D

[1499590174697]$GPGLL,5355.74873,N,02729.36201,E,054934.00,A,A*67

[1499590175698]$GPRMC,054935.00,A,5355.74879,N,02729.36193,E,0.030,,090717,,,A*76

[1499590175698]$GPVTG,,T,,M,0.030,N,0.055,K,A*20

[1499590175698]$GPGGA,054935.00,5355.74879,N,02729.36193,E,1,11,0.91,210.0,M,25.0,M,,*5D

[1499590175698]$GPGSA,A,3,17,24,19,15,13,28,12,01,10,18,11,,1.86,0.91,1.62*0E

[1499590175698]$GPGSV,3,1,12,01,14,037,31,10,13,315,35,11,05,025,13,12,25,244,28*74

[1499590175698]$GPGSV,3,2,12,13,31,181,25,15,45,227,34,17,54,092,36,18,10,289,39*79

[1499590175698]$GPGSV,3,3,12,19,50,136,28,24,53,289,31,28,26,065,29,30,00,114,*79

[1499590175698]$GPGLL,5355.74879,N,02729.36193,E,054935.00,A,A*64

[1499590176697]$GPRMC,054936.00,A,5355.74885,N,02729.36190,E,0.039,,090717,,,A*7C

[1499590176697]$GPVTG,,T,,M,0.039,N,0.073,K,A*2D

[1499590176697]$GPGGA,054936.00,5355.74885,N,02729.36190,E,1,11,0.91,210.2,M,25.0,M,,*5C

[1499590176697]$GPGSA,A,3,17,24,19,15,13,28,12,01,10,18,11,,1.86,0.91,1.62*0E

[1499590176697]$GPGSV,3,1,12,01,14,037,32,10,13,315,34,11,05,025,13,12,25,244,28*76

[1499590176697]$GPGSV,3,2,12,13,31,181,25,15,45,227,34,17,54,092,37,18,10,289,39*78

[1499590176697]$GPGSV,3,3,12,19,50,136,30,24,53,289,34,28,26,065,30,30,00,114,*7D

[1499590176697]$GPGLL,5355.74885,N,02729.36190,E,054936.00,A,A*67

[1499590177698]$GPRMC,054937.00,A,5355.74888,N,02729.36188,E,0.030,,090717,,,A*70

[1499590177698]$GPVTG,,T,,M,0.030,N,0.056,K,A*23

[1499590177698]$GPGGA,054937.00,5355.74888,N,02729.36188,E,1,11,0.91,210.4,M,25.0,M,,*5F

[1499590177698]$GPGSA,A,3,17,24,19,15,13,28,12,01,10,18,11,,1.86,0.91,1.62*0E

[1499590177698]$GPGSV,3,1,12,01,14,037,32,10,13,315,34,11,05,025,13,12,25,244,28*76

[1499590177698]$GPGSV,3,2,12,13,31,181,24,15,45,227,35,17,54,092,37,18,10,289,39*78

[1499590177698]$GPGSV,3,3,12,19,50,136,30,24,53,289,34,28,26,065,30,30,00,114,*7D

[1499590177698]$GPGLL,5355.74888,N,02729.36188,E,054937.00,A,A*62

[1499590178701]$GPRMC,054938.00,A,5355.74891,N,02729.36186,E,0.012,,090717,,,A*79

[1499590178701]$GPVTG,,T,,M,0.012,N,0.022,K,A*20

[1499590178701]$GPGGA,054938.00,5355.74891,N,02729.36186,E,1,10,0.93,210.6,M,25.0,M,,*57

[1499590178701]$GPGSA,A,3,17,24,19,15,13,28,12,01,10,18,,,1.95,0.93,1.71*0C

[1499590178701]$GPGSV,3,1,12,01,14,037,32,10,13,315,35,11,05,025,06,12,25,244,28*73

[1499590178701]$GPGSV,3,2,12,13,31,181,24,15,45,227,35,17,54,092,37,18,10,289,39*78

[1499590178701]$GPGSV,3,3,12,19,50,136,30,24,53,289,34,28,26,065,30,30,00,114,*7D

[1499590178701]$GPGLL,5355.74891,N,02729.36186,E,054938.00,A,A*6B

[1499590179687]$GPRMC,054939.00,A,5355.74894,N,02729.36182,E,0.018,,090717,,,A*73

[1499590179687]$GPVTG,,T,,M,0.018,N,0.034,K,A*2D

[1499590179687]$GPGGA,054939.00,5355.74894,N,02729.36182,E,1,10,0.93,210.8,M,25.0,M,,*59

[1499590179687]$GPGSA,A,3,17,24,19,15,13,28,12,01,10,18,,,1.95,0.93,1.71*0C

[1499590179687]$GPGSV,3,1,12,01,14,037,32,10,13,315,34,11,05,025,06,12,25,244,28*72

[1499590179687]$GPGSV,3,2,12,13,31,181,24,15,45,227,35,17,54,092,37,18,10,289,39*78

[1499590179687]$GPGSV,3,3,12,19,50,136,30,24,53,289,34,28,26,065,30,30,00,114,*7D

[1499590179687]$GPGLL,5355.74894,N,02729.36182,E,054939.00,A,A*6B

[1499590180697]$GPRMC,054940.00,A,5355.74900,N,02729.36177,E,0.004,,090717,,,A*76

[1499590180697]$GPVTG,,T,,M,0.004,N,0.008,K,A*2F

[1499590180697]$GPGGA,054940.00,5355.74900,N,02729.36177,E,1,10,0.93,211.1,M,25.0,M,,*59

[1499590180697]$GPGSA,A,3,17,24,19,15,13,28,12,01,10,18,,,1.95,0.93,1.71*0C

[1499590180697]$GPGSV,3,1,12,01,14,037,32,10,13,315,34,11,05,025,06,12,25,244,28*72

[1499590180697]$GPGSV,3,2,12,13,31,181,25,15,45,227,35,17,54,092,37,18,10,289,39*79

[1499590180697]$GPGSV,3,3,12,19,50,136,30,24,53,289,33,28,26,065,31,30,00,114,*7B

[1499590180697]$GPGLL,5355.74900,N,02729.36177,E,054940.00,A,A*63

[1499590181700]$GPRMC,054941.00,A,5355.74903,N,02729.36175,E,0.031,,090717,,,A*70

[1499590181700]$GPVTG,,T,,M,0.031,N,0.058,K,A*2C

[1499590181700]$GPGGA,054941.00,5355.74903,N,02729.36175,E,1,10,0.93,211.3,M,25.0,M,,*5B

[1499590181700]$GPGSA,A,3,17,24,19,15,13,28,12,01,10,18,,,1.95,0.93,1.71*0C

[1499590181700]$GPGSV,3,1,12,01,14,037,32,10,13,315,34,11,05,025,06,12,25,244,28*72

[1499590181700]$GPGSV,3,2,12,13,31,181,24,15,45,227,35,17,54,092,37,18,10,289,39*78

[1499590181700]$GPGSV,3,3,12,19,50,136,30,24,53,289,33,28,26,065,31,30,00,114,*7B

[1499590181700]$GPGLL,5355.74903,N,02729.36175,E,054941.00,A,A*63

[1499590182697]$GPRMC,054942.00,A,5355.74906,N,02729.36171,E,0.039,,090717,,,A*7A

[1499590182697]$GPVTG,,T,,M,0.039,N,0.071,K,A*2F

[1499590182697]$GPGGA,054942.00,5355.74906,N,02729.36171,E,1,10,0.93,211.5,M,25.0,M,,*5F

[1499590182697]$GPGSA,A,3,17,24,19,15,13,28,12,01,10,18,,,1.95,0.93,1.71*0C

[1499590182697]$GPGSV,3,1,12,01,14,037,32,10,13,315,34,11,05,025,06,12,25,244,28*72

[1499590182697]$GPGSV,3,2,12,13,31,181,24,15,45,227,35,17,54,092,37,18,10,289,39*78

[1499590182697]$GPGSV,3,3,12,19,50,136,30,24,53,289,33,28,26,065,31,30,00,114,*7B

[1499590182697]$GPGLL,5355.74906,N,02729.36171,E,054942.00,A,A*61

[1499590183698]$GPRMC,054943.00,A,5355.74906,N,02729.36165,E,0.099,,090717,,,A*74

[1499590183698]$GPVTG,,T,,M,0.099,N,0.184,K,A*2E

[1499590183698]$GPGGA,054943.00,5355.74906,N,02729.36165,E,1,10,0.93,211.6,M,25.0,M,,*58

[1499590183698]$GPGSA,A,3,17,24,19,15,13,28,12,01,10,18,,,1.95,0.93,1.71*0C

[1499590183698]$GPGSV,3,1,12,01,14,037,32,10,13,315,34,11,05,025,06,12,25,244,28*72

[1499590183698]$GPGSV,3,2,12,13,31,181,23,15,45,227,35,17,54,092,36,18,10,289,39*7E

[1499590183698]$GPGSV,3,3,12,19,50,136,29,24,53,289,33,28,26,065,32,30,00,114,*70

[1499590183698]$GPGLL,5355.74906,N,02729.36165,E,054943.00,A,A*65

[1499590184697]$GPRMC,054944.00,A,5355.74910,N,02729.36158,E,0.017,,090717,,,A*7C

[1499590184697]$GPVTG,,T,,M,0.017,N,0.031,K,A*27

[1499590184697]$GPGGA,054944.00,5355.74910,N,02729.36158,E,1,10,0.93,211.8,M,25.0,M,,*58

[1499590184697]$GPGSA,A,3,17,24,19,15,13,28,12,01,10,18,,,1.95,0.93,1.71*0C

[1499590184697]$GPGSV,3,1,12,01,14,037,32,10,13,315,34,11,05,025,09,12,25,244,27*72

[1499590184697]$GPGSV,3,2,12,13,31,181,24,15,45,227,35,17,54,092,36,18,10,289,39*79

[1499590184697]$GPGSV,3,3,12,19,50,136,30,24,53,289,33,28,26,065,31,30,00,114,*7B

[1499590184697]$GPGLL,5355.74910,N,02729.36158,E,054944.00,A,A*6B

[1499590185697]$GPRMC,054945.00,A,5355.74914,N,02729.36151,E,0.018,,090717,,,A*7F

[1499590185697]$GPVTG,,T,,M,0.018,N,0.033,K,A*2A

[1499590185697]$GPGGA,054945.00,5355.74914,N,02729.36151,E,1,10,0.93,212.0,M,25.0,M,,*5F

[1499590185697]$GPGSA,A,3,17,24,19,15,13,28,12,01,10,18,,,1.95,0.93,1.71*0C

[1499590185697]$GPGSV,3,1,12,01,14,037,32,10,13,315,34,11,05,025,09,12,25,244,28*7D

[1499590185697]$GPGSV,3,2,12,13,31,181,24,15,45,227,35,17,54,092,36,18,10,289,39*79

[1499590185697]$GPGSV,3,3,12,19,50,136,30,24,53,289,33,28,26,065,31,30,00,114,*7B

[1499590185697]$GPGLL,5355.74914,N,02729.36151,E,054945.00,A,A*67

[1499590186697]$GPRMC,054946.00,A,5355.74915,N,02729.36147,E,0.058,,090717,,,A*7E

[1499590186697]$GPVTG,,T,,M,0.058,N,0.108,K,A*27

[1499590186697]$GPGGA,054946.00,5355.74915,N,02729.36147,E,1,11,0.91,212.2,M,25.0,M,,*5B

[1499590186697]$GPGSA,A,3,17,24,19,15,13,28,12,01,10,18,11,,1.85,0.91,1.61*0E

[1499590186697]$GPGSV,3,1,12,01,14,037,33,10,13,315,35,11,05,025,09,12,25,244,27*72

[1499590186697]$GPGSV,3,2,12,13,31,181,23,15,45,227,36,17,54,092,37,18,10,289,39*7C

[1499590186697]$GPGSV,3,3,12,19,50,136,29,24,53,289,33,28,26,065,32,30,00,114,*70

[1499590186697]$GPGLL,5355.74915,N,02729.36147,E,054946.00,A,A*62

[1499590187698]$GPRMC,054947.00,A,5355.74916,N,02729.36141,E,0.047,,090717,,,A*74

[1499590187698]$GPVTG,,T,,M,0.047,N,0.087,K,A*2F

[1499590187698]$GPGGA,054947.00,5355.74916,N,02729.36141,E,1,11,0.91,212.4,M,25.0,M,,*59

[1499590187698]$GPGSA,A,3,17,24,19,15,13,28,12,01,10,18,11,,1.85,0.91,1.61*0E

[1499590187698]$GPGSV,3,1,12,01,14,037,33,10,13,315,35,11,05,025,09,12,25,244,28*7D

[1499590187698]$GPGSV,3,2,12,13,31,181,22,15,45,227,35,17,54,092,36,18,10,289,39*7F

[1499590187698]$GPGSV,3,3,12,19,50,136,30,24,53,289,32,28,26,065,32,30,00,114,*79

[1499590187698]$GPGLL,5355.74916,N,02729.36141,E,054947.00,A,A*66

[1499590188698]$GPRMC,054948.00,A,5355.74916,N,02729.36136,E,0.034,,090717,,,A*7F

[1499590188698]$GPVTG,,T,,M,0.034,N,0.062,K,A*20

[1499590188698]$GPGGA,054948.00,5355.74916,N,02729.36136,E,1,11,0.91,212.6,M,25.0,M,,*54

[1499590188698]$GPGSA,A,3,17,24,19,15,13,28,12,01,10,18,11,,1.85,0.91,1.61*0E

[1499590188698]$GPGSV,3,1,12,01,14,037,33,10,13,315,35,11,05,025,09,12,25,244,28*7D

[1499590188698]$GPGSV,3,2,12,13,31,181,20,15,45,227,36,17,54,092,36,18,10,289,39*7E

[1499590188698]$GPGSV,3,3,12,19,50,136,30,24,53,289,32,28,26,065,33,30,00,114,*78

[1499590188698]$GPGLL,5355.74916,N,02729.36136,E,054948.00,A,A*69

[1499590189699]$GPRMC,054949.00,A,5355.74926,N,02729.36144,E,0.024,,090717,,,A*79

[1499590189699]$GPVTG,,T,,M,0.024,N,0.044,K,A*25

[1499590189699]$GPGGA,054949.00,5355.74926,N,02729.36144,E,1,11,0.91,213.3,M,25.0,M,,*57

[1499590189699]$GPGSA,A,3,17,24,19,15,13,28,12,01,10,18,11,,1.85,0.91,1.61*0E

[1499590189699]$GPGSV,3,1,12,01,14,037,33,10,13,315,35,11,05,025,09,12,25,244,29*7C

[1499590189699]$GPGSV,3,2,12,13,31,181,20,15,45,227,35,17,54,092,39,18,10,289,39*72

[1499590189699]$GPGSV,3,3,12,19,50,136,30,24,53,289,33,28,26,065,33,30,00,114,*79

[1499590189699]$GPGLL,5355.74926,N,02729.36144,E,054949.00,A,A*6E

[1499590190697]$GPRMC,054950.00,A,5355.74927,N,02729.36137,E,0.034,,090717,,,A*75

[1499590190697]$GPVTG,,T,,M,0.034,N,0.064,K,A*26

[1499590190697]$GPGGA,054950.00,5355.74927,N,02729.36137,E,1,11,0.91,213.4,M,25.0,M,,*5D

[1499590190697]$GPGSA,A,3,17,24,19,15,13,28,12,01,10,18,11,,1.85,0.91,1.61*0E

[1499590190697]$GPGSV,3,1,12,01,14,037,33,10,13,315,35,11,05,025,13,12,25,244,29*77

[1499590190697]$GPGSV,3,2,12,13,31,181,21,15,45,227,36,17,54,092,36,18,10,289,39*7F

[1499590190697]$GPGSV,3,3,12,19,50,136,30,24,53,289,31,28,26,065,33,30,00,114,*7B

[1499590190697]$GPGLL,5355.74927,N,02729.36137,E,054950.00,A,A*63

[1499590191698]$GPRMC,054951.00,A,5355.74927,N,02729.36132,E,0.108,,090717,,,A*7F

[1499590191698]$GPVTG,,T,,M,0.108,N,0.201,K,A*29

[1499590191698]$GPGGA,054951.00,5355.74927,N,02729.36132,E,1,11,0.91,213.6,M,25.0,M,,*5B

[1499590191698]$GPGSA,A,3,17,24,19,15,13,28,12,01,10,18,11,,1.85,0.91,1.61*0E

[1499590191698]$GPGSV,3,1,12,01,14,037,33,10,13,315,35,11,05,025,13,12,25,244,29*77

[1499590191698]$GPGSV,3,2,12,13,31,181,21,15,45,227,36,17,54,092,37,18,10,289,38*7F

[1499590191698]$GPGSV,3,3,12,19,50,136,30,24,53,289,31,28,26,065,33,30,00,114,*7B

[1499590191698]$GPGLL,5355.74927,N,02729.36132,E,054951.00,A,A*67

[1499590192697]$GPRMC,054952.00,A,5355.74931,N,02729.36126,E,0.043,,090717,,,A*70

[1499590192697]$GPVTG,,T,,M,0.043,N,0.080,K,A*2C

[1499590192697]$GPGGA,054952.00,5355.74931,N,02729.36126,E,1,11,0.91,213.9,M,25.0,M,,*55

[1499590192697]$GPGSA,A,3,17,24,19,15,13,28,12,01,10,18,11,,1.85,0.91,1.61*0E

[1499590192697]$GPGSV,3,1,12,01,14,037,33,10,13,315,34,11,05,025,13,12,25,244,30*7E

[1499590192697]$GPGSV,3,2,12,13,31,181,22,15,45,227,35,17,54,092,37,18,10,289,37*70

[1499590192697]$GPGSV,3,3,12,19,50,136,30,24,53,289,31,28,26,065,32,30,00,114,*7A

[1499590192697]$GPGLL,5355.74931,N,02729.36126,E,054952.00,A,A*66

[1499590193698]$GPRMC,054953.00,A,5355.74936,N,02729.36117,E,0.018,,090717,,,A*7A

[1499590193698]$GPVTG,,T,,M,0.018,N,0.034,K,A*2D

[1499590193698]$GPGGA,054953.00,5355.74936,N,02729.36117,E,1,11,0.91,214.2,M,25.0,M,,*5D

[1499590193698]$GPGSA,A,3,17,24,19,15,13,28,12,01,10,18,11,,1.85,0.91,1.61*0E

[1499590193698]$GPGSV,3,1,12,01,14,037,33,10,13,315,34,11,05,025,13,12,25,244,30*7E

[1499590193698]$GPGSV,3,2,12,13,31,181,22,15,45,227,35,17,54,092,37,18,10,289,36*71

[1499590193698]$GPGSV,3,3,12,19,50,136,30,24,53,289,31,28,26,065,32,30,00,114,*7A

[1499590193698]$GPGLL,5355.74936,N,02729.36117,E,054953.00,A,A*62

[1499590194697]$GPRMC,054954.00,A,5355.74941,N,02729.36110,E,0.020,,090717,,,A*71

[1499590194697]$GPVTG,,T,,M,0.020,N,0.037,K,A*25

[1499590194697]$GPGGA,054954.00,5355.74941,N,02729.36110,E,1,11,0.91,214.6,M,25.0,M,,*59

[1499590194697]$GPGSA,A,3,17,24,19,15,13,28,12,01,10,18,11,,1.85,0.91,1.61*0E

[1499590194697]$GPGSV,3,1,12,01,14,037,33,10,13,315,33,11,05,025,13,12,25,244,29*71

[1499590194697]$GPGSV,3,2,12,13,31,181,22,15,45,227,35,17,54,092,37,18,10,289,32*75

[1499590194697]$GPGSV,3,3,12,19,50,136,30,24,53,289,31,28,26,065,32,30,00,114,*7A

[1499590194697]$GPGLL,5355.74941,N,02729.36110,E,054954.00,A,A*62

[1499590195697]$GPRMC,054955.00,A,5355.74942,N,02729.36106,E,0.021,,090717,,,A*75

[1499590195697]$GPVTG,,T,,M,0.021,N,0.038,K,A*2B

[1499590195697]$GPGGA,054955.00,5355.74942,N,02729.36106,E,1,11,0.91,214.7,M,25.0,M,,*5D

[1499590195697]$GPGSA,A,3,17,24,19,15,13,28,12,01,10,18,11,,1.85,0.91,1.61*0E

[1499590195697]$GPGSV,3,1,12,01,14,037,33,10,13,315,33,11,05,025,13,12,25,244,30*79

[1499590195697]$GPGSV,3,2,12,13,31,181,23,15,45,227,32,17,54,092,37,18,10,289,32*73

[1499590195697]$GPGSV,3,3,12,19,50,136,31,24,53,289,30,28,26,065,32,30,00,114,*7A

[1499590195697]$GPGLL,5355.74942,N,02729.36106,E,054955.00,A,A*67

[1499590196698]$GPRMC,054956.00,A,5355.74949,N,02729.36099,E,0.104,,090717,,,A*7C

[1499590196698]$GPVTG,,T,,M,0.104,N,0.193,K,A*2D

[1499590196698]$GPGGA,054956.00,5355.74949,N,02729.36099,E,1,11,0.91,215.0,M,25.0,M,,*54

[1499590196698]$GPGSA,A,3,17,24,19,15,13,28,12,01,10,18,11,,1.85,0.91,1.61*0E

[1499590196698]$GPGSV,3,1,12,01,14,037,32,10,13,315,31,11,05,025,12,12,25,244,29*73

[1499590196698]$GPGSV,3,2,12,13,31,181,25,15,45,227,33,17,54,092,37,18,10,289,34*72

[1499590196698]$GPGSV,3,3,12,19,50,136,30,24,53,289,32,28,26,065,31,30,00,114,*7A

[1499590196698]$GPGLL,5355.74949,N,02729.36099,E,054956.00,A,A*68

[1499590197698]$GPRMC,054957.00,A,5355.74952,N,02729.36075,E,0.492,,090717,,,A*7F

[1499590197698]$GPVTG,,T,,M,0.492,N,0.910,K,A*24

[1499590197698]$GPGGA,054957.00,5355.74952,N,02729.36075,E,1,11,0.91,215.1,M,25.0,M,,*5C

[1499590197698]$GPGSA,A,3,17,24,19,15,13,28,12,01,10,18,11,,1.85,0.91,1.61*0E

[1499590197698]$GPGSV,3,1,12,01,14,037,24,10,13,315,25,11,05,025,12,12,25,244,32*7B

[1499590197698]$GPGSV,3,2,12,13,31,181,25,15,45,227,35,17,54,092,37,18,10,289,37*77

[1499590197698]$GPGSV,3,3,12,19,50,136,30,24,53,289,32,28,26,065,34,30,00,114,*7F

[1499590197698]$GPGLL,5355.74952,N,02729.36075,E,054957.00,A,A*61

[1499590198697]$GPRMC,054958.00,A,5355.74950,N,02729.36042,E,0.858,,090717,,,A*7C

[1499590198697]$GPVTG,,T,,M,0.858,N,1.590,K,A*2B

[1499590198697]$GPGGA,054958.00,5355.74950,N,02729.36042,E,1,11,0.91,215.2,M,25.0,M,,*56

[1499590198697]$GPGSA,A,3,17,24,19,15,13,28,12,01,10,18,11,,1.85,0.91,1.61*0E

[1499590198697]$GPGSV,3,1,12,01,14,037,30,10,13,315,34,11,05,025,12,12,25,244,39*75

[1499590198697]$GPGSV,3,2,12,13,31,181,23,15,45,227,35,17,54,092,33,18,10,289,39*7B

[1499590198697]$GPGSV,3,3,12,19,50,136,32,24,53,289,35,28,26,065,31,30,00,114,*7F

[1499590198697]$GPGLL,5355.74950,N,02729.36042,E,054958.00,A,A*68

[1499590199698]$GPRMC,054959.00,A,5355.74978,N,02729.35993,E,1.041,278.54,090717,,,A*62

[1499590199698]$GPVTG,278.54,T,,M,1.041,N,1.928,K,A*37

[1499590199698]$GPGGA,054959.00,5355.74978,N,02729.35993,E,1,11,0.91,215.8,M,25.0,M,,*51

[1499590199698]$GPGSA,A,3,17,24,19,15,13,28,12,01,10,18,11,,1.85,0.91,1.61*0E

[1499590199698]$GPGSV,3,1,12,01,14,037,25,10,13,315,27,11,05,025,12,12,25,244,40*7D

[1499590199698]$GPGSV,3,2,12,13,31,181,30,15,45,227,35,17,54,092,34,18,10,289,38*7F

[1499590199698]$GPGSV,3,3,12,19,50,136,37,24,53,289,34,28,26,065,34,30,00,114,*7E

[1499590199698]$GPGLL,5355.74978,N,02729.35993,E,054959.00,A,A*65

[1499590200700]$GPRMC,055000.00,A,5355.74984,N,02729.35944,E,0.991,277.12,090717,,,A*67

[1499590200700]$GPVTG,277.12,T,,M,0.991,N,1.836,K,A*31

[1499590200700]$GPGGA,055000.00,5355.74984,N,02729.35944,E,1,11,0.91,216.0,M,25.0,M,,*57

[1499590200700]$GPGSA,A,3,17,24,19,15,13,28,12,01,10,18,11,,1.85,0.91,1.61*0E

[1499590200700]$GPGSV,3,1,12,01,14,037,26,10,13,315,24,11,05,025,12,12,25,244,36*7C

[1499590200700]$GPGSV,3,2,12,13,31,181,30,15,45,227,37,17,54,092,34,18,10,289,38*7D

[1499590200700]$GPGSV,3,3,12,19,50,136,37,24,53,289,35,28,26,065,33,30,00,114,*78

[1499590200700]$GPGLL,5355.74984,N,02729.35944,E,055000.00,A,A*68

[1499590201697]$GPRMC,055001.00,A,5355.74989,N,02729.35897,E,1.050,279.30,090717,,,A*6F

[1499590201697]$GPVTG,279.30,T,,M,1.050,N,1.944,K,A*3E

