[1499588657666]$GPRMC,052417.00,A,5357.31259,N,02738.39464,E,47.301,301.10,090717,,,A*5B

[1499588657666]$GPVTG,301.10,T,,M,47.301,N,87.602,K,A*34

[1499588657666]$GPGGA,052417.00,5357.31259,N,02738.39464,E,1,08,1.12,228.2,M,24.8,M,,*5D

[1499588657666]$GPGSA,A,3,24,30,17,13,19,18,28,15,,,,,2.05,1.12,1.72*0D

[1499588657666]$GPGSV,3,1,09,10,13,325,32,13,43,183,31,15,52,242,41,17,51,111,30*7B

[1499588657666]$GPGSV,3,2,09,18,14,299,33,19,40,146,34,24,41,289,35,28,36,062,34*7D

[1499588657666]$GPGSV,3,3,09,30,09,109,31*40

[1499588657666]$GPGLL,5357.31259,N,02738.39464,E,052417.00,A,A*66

[1499588658667]$GPRMC,052418.00,A,5357.31937,N,02738.37567,E,47.295,301.22,090717,,,A*56

[1499588658667]$GPVTG,301.22,T,,M,47.295,N,87.591,K,A*30

[1499588658667]$GPGGA,052418.00,5357.31937,N,02738.37567,E,1,08,1.12,228.5,M,24.8,M,,*5A

[1499588658667]$GPGSA,A,3,24,30,17,13,19,18,28,15,,,,,2.05,1.12,1.72*0D

[1499588658667]$GPGSV,3,1,09,10,13,325,24,13,43,183,31,15,52,242,40,17,51,111,32*7F

[1499588658667]$GPGSV,3,2,09,18,14,299,33,19,40,146,33,24,41,289,35,28,36,062,34*7A

[1499588658667]$GPGSV,3,3,09,30,09,109,31*40

[1499588658667]$GPGLL,5357.31937,N,02738.37567,E,052418.00,A,A*66

[1499588659666]$GPRMC,052419.00,A,5357.32619,N,02738.35667,E,47.268,301.36,090717,,,A*51

[1499588659666]$GPVTG,301.36,T,,M,47.268,N,87.541,K,A*3A

[1499588659666]$GPGGA,052419.00,5357.32619,N,02738.35667,E,1,09,1.06,228.7,M,24.8,M,,*5C

[1499588659666]$GPGSA,A,3,10,24,30,17,13,19,18,28,15,,,,1.97,1.06,1.66*04

[1499588659666]$GPGSV,3,1,09,10,13,325,26,13,43,183,31,15,52,242,41,17,51,111,31*7F

[1499588659666]$GPGSV,3,2,09,18,14,299,32,19,40,146,33,24,41,289,35,28,36,062,33*7C

[1499588659666]$GPGSV,3,3,09,30,09,109,31*40

[1499588659666]$GPGLL,5357.32619,N,02738.35667,E,052419.00,A,A*66

[1499588660666]$GPRMC,052420.00,A,5357.33301,N,02738.33769,E,47.247,301.26,090717,,,A*53

[1499588660666]$GPVTG,301.26,T,,M,47.247,N,87.502,K,A*31

[1499588660666]$GPGGA,052420.00,5357.33301,N,02738.33769,E,1,09,1.06,228.8,M,24.8,M,,*5D

[1499588660666]$GPGSA,A,3,10,24,30,17,13,19,18,28,15,,,,1.97,1.06,1.66*04

[1499588660666]$GPGSV,3,1,09,10,13,325,22,13,43,183,31,15,52,242,41,17,51,111,30*7A

[1499588660666]$GPGSV,3,2,09,18,14,299,32,19,40,146,33,24,41,289,35,28,36,062,34*7B

[1499588660666]$GPGSV,3,3,09,30,09,109,33*42

[1499588660666]$GPGLL,5357.33301,N,02738.33769,E,052420.00,A,A*68

[1499588661666]$GPRMC,052421.00,A,5357.33976,N,02738.31874,E,47.123,301.12,090717,,,A*5F

[1499588661666]$GPVTG,301.12,T,,M,47.123,N,87.272,K,A*37

[1499588661666]$GPGGA,052421.00,5357.33976,N,02738.31874,E,1,09,1.06,229.1,M,24.8,M,,*5F

[1499588661666]$GPGSA,A,3,10,24,30,17,13,19,18,28,15,,,,1.97,1.06,1.66*04

[1499588661666]$GPGSV,3,1,09,10,13,325,21,13,43,183,31,15,52,242,41,17,51,111,31*78

[1499588661666]$GPGSV,3,2,09,18,14,299,33,19,40,146,34,24,41,289,35,28,36,062,34*7D

[1499588661666]$GPGSV,3,3,09,30,09,109,34*45

[1499588661666]$GPGLL,5357.33976,N,02738.31874,E,052421.00,A,A*62

[1499588662668]$GPRMC,052422.00,A,5357.34653,N,02738.29976,E,47.145,301.28,090717,,,A*50

[1499588662668]$GPVTG,301.28,T,,M,47.145,N,87.313,K,A*38

[1499588662668]$GPGGA,052422.00,5357.34653,N,02738.29976,E,1,09,1.06,229.2,M,24.8,M,,*5A

[1499588662668]$GPGSA,A,3,10,24,30,17,13,19,18,28,15,,,,1.97,1.06,1.66*04

[1499588662668]$GPGSV,3,1,09,10,13,325,19,13,43,183,32,15,52,242,42,17,51,111,32*70

[1499588662668]$GPGSV,3,2,09,18,14,299,32,19,40,146,34,24,41,289,35,28,36,062,34*7C

[1499588662668]$GPGSV,3,3,09,30,09,109,33*42

[1499588662668]$GPGLL,5357.34653,N,02738.29976,E,052422.00,A,A*64

[1499588663667]$GPRMC,052423.00,A,5357.35326,N,02738.28080,E,47.084,300.99,090717,,,A*51

[1499588663667]$GPVTG,300.99,T,,M,47.084,N,87.199,K,A*3F

[1499588663667]$GPGGA,052423.00,5357.35326,N,02738.28080,E,1,09,1.06,229.4,M,24.8,M,,*5A

[1499588663667]$GPGSA,A,3,10,24,30,17,13,19,18,28,15,,,,1.97,1.06,1.66*04

[1499588663667]$GPGSV,3,1,09,10,13,325,21,13,43,183,32,15,52,242,42,17,51,111,31*78

[1499588663667]$GPGSV,3,2,09,18,14,299,32,19,40,146,34,24,41,289,36,28,36,062,32*79

[1499588663667]$GPGSV,3,3,09,30,09,109,34*45

[1499588663667]$GPGLL,5357.35326,N,02738.28080,E,052423.00,A,A*62

[1499588664666]$GPRMC,052424.00,A,5357.35990,N,02738.26175,E,47.055,300.50,090717,,,A*5D

[1499588664666]$GPVTG,300.50,T,,M,47.055,N,87.147,K,A*35

[1499588664666]$GPGGA,052424.00,5357.35990,N,02738.26175,E,1,09,1.06,229.5,M,24.8,M,,*5E

[1499588664666]$GPGSA,A,3,10,24,30,17,13,19,18,28,15,,,,1.97,1.06,1.66*04

[1499588664666]$GPGSV,3,1,09,10,13,325,20,13,43,183,31,15,52,242,42,17,51,111,31*7A

[1499588664666]$GPGSV,3,2,09,18,14,299,32,19,40,146,34,24,41,289,35,28,36,062,35*7D

[1499588664666]$GPGSV,3,3,09,30,09,109,34*45

[1499588664666]$GPGLL,5357.35990,N,02738.26175,E,052424.00,A,A*67

[1499588665662]$GPRMC,052425.00,A,5357.36654,N,02738.24268,E,47.018,300.85,090717,,,A*54

[1499588665662]$GPVTG,300.85,T,,M,47.018,N,87.077,K,A*36

[1499588665662]$GPGGA,052425.00,5357.36654,N,02738.24268,E,1,09,1.06,229.7,M,24.8,M,,*54

[1499588665662]$GPGSA,A,3,10,24,30,17,13,19,18,28,15,,,,1.97,1.06,1.66*04

[1499588665662]$GPGSV,3,1,09,10,13,325,19,13,43,183,30,15,52,242,42,17,51,111,32*72

[1499588665662]$GPGSV,3,2,09,18,14,299,31,19,40,146,34,24,41,289,34,28,36,062,34*7E

[1499588665662]$GPGSV,3,3,09,30,09,109,34*45

[1499588665662]$GPGLL,5357.36654,N,02738.24268,E,052425.00,A,A*6F

[1499588666666]$GPRMC,052426.00,A,5357.37326,N,02738.22375,E,47.002,301.19,090717,,,A*52

[1499588666666]$GPVTG,301.19,T,,M,47.002,N,87.048,K,A*35

[1499588666666]$GPGGA,052426.00,5357.37326,N,02738.22375,E,1,09,1.06,230.1,M,24.8,M,,*53

[1499588666666]$GPGSA,A,3,10,24,30,17,13,19,18,28,15,,,,1.97,1.06,1.66*04

[1499588666666]$GPGSV,3,1,09,10,13,325,29,13,43,183,29,15,52,242,42,17,51,111,33*78

[1499588666666]$GPGSV,3,2,09,18,14,299,31,19,40,146,34,24,41,289,34,28,36,062,31*7B

[1499588666666]$GPGSV,3,3,09,30,09,109,35*44

[1499588666666]$GPGLL,5357.37326,N,02738.22375,E,052426.00,A,A*66

[1499588667666]$GPRMC,052427.00,A,5357.38004,N,02738.20483,E,47.007,301.32,090717,,,A*5F

[1499588667666]$GPVTG,301.32,T,,M,47.007,N,87.057,K,A*37

[1499588667666]$GPGGA,052427.00,5357.38004,N,02738.20483,E,1,09,1.06,230.3,M,24.8,M,,*50

[1499588667666]$GPGSA,A,3,10,24,30,17,13,19,18,28,15,,,,1.97,1.06,1.66*04

[1499588667666]$GPGSV,3,1,09,10,13,325,32,13,43,183,29,15,52,242,41,17,51,111,32*70

[1499588667666]$GPGSV,3,2,09,18,14,299,31,19,40,146,34,24,41,289,35,28,36,062,32*79

[1499588667666]$GPGSV,3,3,09,30,09,109,29*49

[1499588667666]$GPGLL,5357.38004,N,02738.20483,E,052427.00,A,A*67

[1499588668666]$GPRMC,052428.00,A,5357.38679,N,02738.18593,E,46.942,301.17,090717,,,A*59

[1499588668666]$GPVTG,301.17,T,,M,46.942,N,86.936,K,A*36

[1499588668666]$GPGGA,052428.00,5357.38679,N,02738.18593,E,1,09,1.06,230.7,M,24.8,M,,*5C

[1499588668666]$GPGSA,A,3,10,24,30,17,13,19,18,28,15,,,,1.97,1.06,1.66*04

[1499588668666]$GPGSV,3,1,09,10,13,325,27,13,43,183,29,15,52,242,42,17,51,111,32*77

[1499588668666]$GPGSV,3,2,09,18,14,299,32,19,40,146,34,24,41,289,35,28,36,062,33*7B

[1499588668666]$GPGSV,3,3,09,30,09,109,30*41

[1499588668666]$GPGLL,5357.38679,N,02738.18593,E,052428.00,A,A*6F

[1499588669666]$GPRMC,052429.00,A,5357.39351,N,02738.16700,E,47.010,301.20,090717,,,A*5B

[1499588669666]$GPVTG,301.20,T,,M,47.010,N,87.063,K,A*35

[1499588669666]$GPGGA,052429.00,5357.39351,N,02738.16700,E,1,09,1.06,231.0,M,24.8,M,,*53

[1499588669666]$GPGSA,A,3,10,24,30,17,13,19,18,28,15,,,,1.97,1.06,1.66*04

[1499588669666]$GPGSV,3,1,09,10,13,325,25,13,43,183,29,15,52,242,42,17,51,111,31*76

[1499588669666]$GPGSV,3,2,09,18,14,299,31,19,40,146,34,24,41,289,35,28,36,062,31*7A

[1499588669666]$GPGSV,3,3,09,30,09,109,31*40

[1499588669666]$GPGLL,5357.39351,N,02738.16700,E,052429.00,A,A*66

[1499588670669]$GPRMC,052430.00,A,5357.40023,N,02738.14807,E,47.057,301.25,090717,,,A*57

[1499588670669]$GPVTG,301.25,T,,M,47.057,N,87.150,K,A*32

[1499588670669]$GPGGA,052430.00,5357.40023,N,02738.14807,E,1,09,1.06,231.2,M,24.8,M,,*5B

[1499588670669]$GPGSA,A,3,10,24,30,17,13,19,18,28,15,,,,1.97,1.06,1.66*04

[1499588670669]$GPGSV,3,1,09,10,13,325,23,13,43,183,29,15,52,242,42,17,51,111,31*70

[1499588670669]$GPGSV,3,2,09,18,14,299,32,19,40,146,34,24,41,289,35,28,36,062,34*7C

[1499588670669]$GPGSV,3,3,09,30,09,109,30*41

[1499588670669]$GPGLL,5357.40023,N,02738.14807,E,052430.00,A,A*6C

[1499588671666]$GPRMC,052431.00,A,5357.40694,N,02738.12911,E,47.083,300.86,090717,,,A*5D

[1499588671666]$GPVTG,300.86,T,,M,47.083,N,87.198,K,A*37

[1499588671666]$GPGGA,052431.00,5357.40694,N,02738.12911,E,1,09,1.05,231.3,M,24.8,M,,*52

[1499588671666]$GPGSA,A,3,10,24,30,17,13,19,18,28,15,,,,1.97,1.05,1.66*07

[1499588671666]$GPGSV,3,1,09,10,13,325,20,13,43,183,30,15,52,242,42,17,51,111,31*7B

[1499588671666]$GPGSV,3,2,09,18,14,299,32,19,40,146,34,24,41,289,35,28,36,062,34*7C

[1499588671666]$GPGSV,3,3,09,30,09,109,29*49

[1499588671666]$GPGLL,5357.40694,N,02738.12911,E,052431.00,A,A*67

[1499588672666]$GPRMC,052432.00,A,5357.41365,N,02738.11009,E,47.132,300.79,090717,,,A*5C

[1499588672666]$GPVTG,300.79,T,,M,47.132,N,87.289,K,A*3F

[1499588672666]$GPGGA,052432.00,5357.41365,N,02738.11009,E,1,09,1.05,231.5,M,24.8,M,,*5E

[1499588672666]$GPGSA,A,3,10,24,30,17,13,19,18,28,15,,,,1.97,1.05,1.66*07

[1499588672666]$GPGSV,3,1,09,10,13,325,22,13,43,183,30,15,52,242,42,17,51,111,32*7A

[1499588672666]$GPGSV,3,2,09,18,14,299,32,19,40,146,34,24,42,289,35,28,36,062,37*7C

[1499588672666]$GPGSV,3,3,09,30,09,109,33*42

[1499588672666]$GPGLL,5357.41365,N,02738.11009,E,052432.00,A,A*6D

[1499588673666]$GPRMC,052433.00,A,5357.42041,N,02738.09107,E,47.212,301.00,090717,,,A*53

[1499588673666]$GPVTG,301.00,T,,M,47.212,N,87.436,K,A*33

[1499588673666]$GPGGA,052433.00,5357.42041,N,02738.09107,E,1,09,1.05,231.7,M,24.8,M,,*5D

[1499588673666]$GPGSA,A,3,10,24,30,17,13,19,18,28,15,,,,1.96,1.05,1.66*06

[1499588673666]$GPGSV,3,1,09,10,13,325,22,13,43,183,29,15,52,242,42,17,51,111,32*72

[1499588673666]$GPGSV,3,2,09,18,14,299,33,19,40,146,34,24,42,289,35,28,36,062,35*7F

[1499588673666]$GPGSV,3,3,09,30,09,109,30*41

[1499588673666]$GPGLL,5357.42041,N,02738.09107,E,052433.00,A,A*6C

[1499588674666]$GPRMC,052434.00,A,5357.42724,N,02738.07206,E,47.230,301.08,090717,,,A*54

[1499588674666]$GPVTG,301.08,T,,M,47.230,N,87.469,K,A*31

[1499588674666]$GPGGA,052434.00,5357.42724,N,02738.07206,E,1,09,1.05,231.9,M,24.8,M,,*5C

[1499588674666]$GPGSA,A,3,10,24,30,17,13,19,18,28,15,,,,1.96,1.05,1.66*06

[1499588674666]$GPGSV,3,1,09,10,13,325,21,13,43,183,31,15,52,242,42,17,51,111,30*7A

[1499588674666]$GPGSV,3,2,09,18,14,299,32,19,40,146,33,24,42,289,36,28,36,062,35*7A

[1499588674666]$GPGSV,3,3,09,30,09,109,33*42

[1499588674666]$GPGLL,5357.42724,N,02738.07206,E,052434.00,A,A*63

[1499588675666]$GPRMC,052435.00,A,5357.43413,N,02738.05309,E,47.371,301.56,090717,,,A*50

[1499588675666]$GPVTG,301.56,T,,M,47.371,N,87.732,K,A*33

[1499588675666]$GPGGA,052435.00,5357.43413,N,02738.05309,E,1,09,1.05,232.1,M,24.8,M,,*5C

[1499588675666]$GPGSA,A,3,10,24,30,17,13,19,18,28,15,,,,1.96,1.05,1.66*06

[1499588675666]$GPGSV,3,1,09,10,13,325,21,13,43,183,32,15,52,242,41,17,51,111,31*7B

[1499588675666]$GPGSV,3,2,09,18,14,299,33,19,40,146,34,24,42,289,37,28,36,062,35*7D

[1499588675666]$GPGSV,3,3,09,30,09,109,30*41

[1499588675666]$GPGLL,5357.43413,N,02738.05309,E,052435.00,A,A*68

[1499588676666]$GPRMC,052436.00,A,5357.44097,N,02738.03406,E,47.357,301.31,090717,,,A*57

[1499588676666]$GPVTG,301.31,T,,M,47.357,N,87.706,K,A*31

[1499588676666]$GPGGA,052436.00,5357.44097,N,02738.03406,E,1,09,1.05,232.1,M,24.8,M,,*5E

[1499588676666]$GPGSA,A,3,10,24,30,17,13,19,18,28,15,,,,1.96,1.05,1.66*06

[1499588676666]$GPGSV,3,1,09,10,13,325,23,13,43,183,32,15,52,242,41,17,51,111,30*78

[1499588676666]$GPGSV,3,2,09,18,14,299,33,19,40,146,34,24,42,289,37,28,36,062,34*7C

[1499588676666]$GPGSV,3,3,09,30,09,109,31*40

[1499588676666]$GPGLL,5357.44097,N,02738.03406,E,052436.00,A,A*6A

[1499588677666]$GPRMC,052437.00,A,5357.44780,N,02738.01514,E,47.405,301.46,090717,,,A*57

[1499588677666]$GPVTG,301.46,T,,M,47.405,N,87.793,K,A*3D

[1499588677666]$GPGGA,052437.00,5357.44780,N,02738.01514,E,1,09,1.05,232.5,M,24.8,M,,*5A

[1499588677666]$GPGSA,A,3,10,24,30,17,13,19,18,28,15,,,,1.96,1.05,1.66*06

[1499588677666]$GPGSV,3,1,09,10,13,325,37,13,43,183,33,15,52,242,41,17,51,111,30*7C

[1499588677666]$GPGSV,3,2,09,18,14,299,34,19,40,146,34,24,42,289,38,28,36,062,35*75

[1499588677666]$GPGSV,3,3,09,30,09,109,31*40

[1499588677666]$GPGLL,5357.44780,N,02738.01514,E,052437.00,A,A*6A

[1499588678670]$GPRMC,052438.00,A,5357.45471,N,02737.99613,E,47.428,301.76,090717,,,A*52

[1499588678670]$GPVTG,301.76,T,,M,47.428,N,87.836,K,A*31

[1499588678670]$GPGGA,052438.00,5357.45471,N,02737.99613,E,1,09,1.05,232.5,M,24.8,M,,*53

[1499588678670]$GPGSA,A,3,10,24,30,17,13,19,18,28,15,,,,1.96,1.05,1.66*06

[1499588678670]$GPGSV,3,1,09,10,13,325,33,13,43,183,33,15,52,242,41,17,51,111,31*79

[1499588678670]$GPGSV,3,2,09,18,14,299,34,19,40,146,33,24,42,289,38,28,36,062,31*76

[1499588678670]$GPGSV,3,3,09,30,09,109,31*40

[1499588678670]$GPGLL,5357.45471,N,02737.99613,E,052438.00,A,A*63

[1499588679666]$GPRMC,052439.00,A,5357.46152,N,02737.97711,E,47.387,301.20,090717,,,A*58

[1499588679666]$GPVTG,301.20,T,,M,47.387,N,87.760,K,A*3C

[1499588679666]$GPGGA,052439.00,5357.46152,N,02737.97711,E,1,09,1.05,232.4,M,24.8,M,,*59

[1499588679666]$GPGSA,A,3,10,24,30,17,13,19,18,28,15,,,,1.96,1.05,1.66*06

[1499588679666]$GPGSV,3,1,09,10,13,325,35,13,43,183,32,15,52,242,41,17,51,111,30*7F

[1499588679666]$GPGSV,3,2,09,18,14,299,29,19,40,146,34,24,42,289,38,28,36,062,34*78

[1499588679666]$GPGSV,3,3,09,30,09,109,29*49

[1499588679666]$GPGLL,5357.46152,N,02737.97711,E,052439.00,A,A*68

[1499588680666]$GPRMC,052440.00,A,5357.46823,N,02737.95799,E,47.400,301.06,090717,,,A*57

[1499588680666]$GPVTG,301.06,T,,M,47.400,N,87.785,K,A*3B

[1499588680666]$GPGGA,052440.00,5357.46823,N,02737.95799,E,1,09,1.05,232.2,M,24.8,M,,*5C

[1499588680666]$GPGSA,A,3,10,24,30,17,13,19,18,28,15,,,,1.96,1.05,1.66*06

[1499588680666]$GPGSV,3,1,09,10,13,325,35,13,43,183,33,15,52,242,41,17,51,111,29*76

[1499588680666]$GPGSV,3,2,09,18,14,299,31,19,40,146,34,24,42,289,38,28,36,062,35*70

[1499588680666]$GPGSV,3,3,09,30,09,109,28*48

[1499588680666]$GPGLL,5357.46823,N,02737.95799,E,052440.00,A,A*6B

[1499588681656]$GPRMC,052441.00,A,5357.47507,N,02737.93900,E,47.281,301.35,090717,,,A*5B

[1499588681656]$GPVTG,301.35,T,,M,47.281,N,87.565,K,A*38

[1499588681656]$GPGGA,052441.00,5357.47507,N,02737.93900,E,1,09,1.05,232.2,M,24.8,M,,*5F

[1499588681656]$GPGSA,A,3,10,24,30,17,13,19,18,28,15,,,,1.96,1.05,1.66*06

[1499588681656]$GPGSV,3,1,09,10,13,325,35,13,43,183,33,15,52,242,41,17,51,111,29*76

[1499588681656]$GPGSV,3,2,09,18,14,299,33,19,40,146,34,24,42,289,39,28,36,062,34*72

[1499588681656]$GPGSV,3,3,09,30,09,109,26*46

[1499588681656]$GPGLL,5357.47507,N,02737.93900,E,052441.00,A,A*68

[1499588682666]$GPRMC,052442.00,A,5357.48192,N,02737.92001,E,47.388,301.23,090717,,,A*59

[1499588682666]$GPVTG,301.23,T,,M,47.388,N,87.762,K,A*32

[1499588682666]$GPGGA,052442.00,5357.48192,N,02737.92001,E,1,09,1.05,232.1,M,24.8,M,,*51

[1499588682666]$GPGSA,A,3,10,24,30,17,13,19,18,28,15,,,,1.96,1.05,1.65*05

[1499588682666]$GPGSV,3,1,09,10,13,325,33,13,43,183,33,15,52,242,41,17,51,111,29*70

[1499588682666]$GPGSV,3,2,09,18,14,299,32,19,40,146,33,24,42,289,39,28,36,062,34*74

[1499588682666]$GPGSV,3,3,09,30,09,109,24*44

[1499588682666]$GPGLL,5357.48192,N,02737.92001,E,052442.00,A,A*65

[1499588683666]$GPRMC,052443.00,A,5357.48870,N,02737.90097,E,47.329,300.92,090717,,,A*50

[1499588683666]$GPVTG,300.92,T,,M,47.329,N,87.653,K,A*31

[1499588683666]$GPGGA,052443.00,5357.48870,N,02737.90097,E,1,09,1.05,231.9,M,24.8,M,,*53

[1499588683666]$GPGSA,A,3,10,24,30,17,13,19,18,28,15,,,,1.96,1.05,1.65*05

[1499588683666]$GPGSV,3,1,09,10,13,325,36,13,43,183,32,15,52,242,41,17,51,111,28*75

[1499588683666]$GPGSV,3,2,09,18,14,299,31,19,40,146,33,24,42,289,39,28,36,062,35*76

[1499588683666]$GPGSV,3,3,09,30,09,109,24*44

[1499588683666]$GPGLL,5357.48870,N,02737.90097,E,052443.00,A,A*6C

[1499588684666]$GPRMC,052444.00,A,5357.49553,N,02737.88197,E,47.437,301.37,090717,,,A*54

[1499588684666]$GPVTG,301.37,T,,M,47.437,N,87.853,K,A*39

[1499588684666]$GPGGA,052444.00,5357.49553,N,02737.88197,E,1,09,1.05,231.7,M,24.8,M,,*5F

[1499588684666]$GPGSA,A,3,10,24,30,17,13,19,18,28,15,,,,1.96,1.05,1.65*05

[1499588684666]$GPGSV,3,1,09,10,13,325,35,13,43,183,35,15,52,242,41,17,51,111,27*7E

[1499588684666]$GPGSV,3,2,09,18,14,299,32,19,40,146,33,24,42,289,39,28,36,062,35*75

[1499588684666]$GPGSV,3,3,09,30,09,109,25*45

[1499588684666]$GPGLL,5357.49553,N,02737.88197,E,052444.00,A,A*6E

[1499588685666]$GPRMC,052445.00,A,5357.50232,N,02737.86296,E,47.504,301.51,090717,,,A*50

[1499588685666]$GPVTG,301.51,T,,M,47.504,N,87.977,K,A*3F

[1499588685666]$GPGGA,052445.00,5357.50232,N,02737.86296,E,1,09,1.05,231.3,M,24.8,M,,*5E

[1499588685666]$GPGSA,A,3,10,24,30,17,13,19,18,28,15,,,,1.96,1.05,1.65*05

[1499588685666]$GPGSV,3,1,09,10,13,325,35,13,43,183,35,15,52,242,41,17,51,111,29*70

[1499588685666]$GPGSV,3,2,09,18,14,299,31,19,40,146,33,24,42,289,40,28,36,062,35*78

[1499588685666]$GPGSV,3,3,09,30,09,109,32*43

[1499588685666]$GPGLL,5357.50232,N,02737.86296,E,052445.00,A,A*6B

[1499588686666]$GPRMC,052446.00,A,5357.50914,N,02737.84387,E,47.484,301.08,090717,,,A*5A

[1499588686666]$GPVTG,301.08,T,,M,47.484,N,87.940,K,A*3E

[1499588686666]$GPGGA,052446.00,5357.50914,N,02737.84387,E,1,09,1.05,231.0,M,24.8,M,,*52

[1499588686666]$GPGSA,A,3,10,24,30,17,13,19,18,28,15,,,,1.96,1.05,1.65*05

[1499588686666]$GPGSV,3,1,09,10,13,325,36,13,43,183,35,15,52,242,41,17,51,111,29*73

[1499588686666]$GPGSV,3,2,09,18,14,299,31,19,40,146,33,24,42,289,40,28,36,062,35*78

[1499588686666]$GPGSV,3,3,09,30,09,109,31*40

[1499588686666]$GPGLL,5357.50914,N,02737.84387,E,052446.00,A,A*64

[1499588687667]$GPRMC,052447.00,A,5357.51583,N,02737.82475,E,47.441,301.03,090717,,,A*56

[1499588687667]$GPVTG,301.03,T,,M,47.441,N,87.861,K,A*3E

[1499588687667]$GPGGA,052447.00,5357.51583,N,02737.82475,E,1,09,1.05,230.4,M,24.8,M,,*59

[1499588687667]$GPGSA,A,3,10,24,30,17,13,19,18,28,15,,,,1.96,1.05,1.65*05

[1499588687667]$GPGSV,3,1,09,10,13,325,35,13,43,183,33,15,52,242,41,17,51,111,29*76

[1499588687667]$GPGSV,3,2,09,18,14,299,31,19,40,146,34,24,42,289,40,28,36,062,35*7F

[1499588687667]$GPGSV,3,3,09,30,09,109,31*40

[1499588687667]$GPGLL,5357.51583,N,02737.82475,E,052447.00,A,A*6A

[1499588688666]$GPRMC,052448.00,A,5357.52255,N,02737.80568,E,47.367,301.02,090717,,,A*5B

[1499588688666]$GPVTG,301.02,T,,M,47.367,N,87.724,K,A*32

[1499588688666]$GPGGA,052448.00,5357.52255,N,02737.80568,E,1,09,1.05,229.9,M,24.8,M,,*53

[1499588688666]$GPGSA,A,3,10,24,30,17,13,19,18,28,15,,,,1.96,1.05,1.65*05

[1499588688666]$GPGSV,3,1,09,10,13,325,35,13,43,183,31,15,52,242,41,17,51,111,29*74

[1499588688666]$GPGSV,3,2,09,18,14,299,31,19,40,146,34,24,42,289,40,28,36,062,35*7F

[1499588688666]$GPGSV,3,3,09,30,09,109,30*41

[1499588688666]$GPGLL,5357.52255,N,02737.80568,E,052448.00,A,A*65

[1499588689666]$GPRMC,052449.00,A,5357.52925,N,02737.78666,E,47.228,300.98,090717,,,A*54

[1499588689666]$GPVTG,300.98,T,,M,47.228,N,87.466,K,A*3F

[1499588689666]$GPGGA,052449.00,5357.52925,N,02737.78666,E,1,09,1.05,229.4,M,24.8,M,,*59

[1499588689666]$GPGSA,A,3,10,24,30,17,13,19,18,28,15,,,,1.96,1.05,1.65*05

[1499588689666]$GPGSV,3,1,09,10,13,325,35,13,43,183,30,15,52,242,41,17,51,111,28*74

[1499588689666]$GPGSV,3,2,09,18,14,299,32,19,40,146,33,24,42,289,39,28,36,062,35*75

[1499588689666]$GPGSV,3,3,09,30,09,109,30*41

[1499588689666]$GPGLL,5357.52925,N,02737.78666,E,052449.00,A,A*62

[1499588690667]$GPRMC,052450.00,A,5357.53588,N,02737.76764,E,47.123,300.63,090717,,,A*57

[1499588690667]$GPVTG,300.63,T,,M,47.123,N,87.272,K,A*30

[1499588690667]$GPGGA,052450.00,5357.53588,N,02737.76764,E,1,09,1.05,229.1,M,24.8,M,,*53

[1499588690667]$GPGSA,A,3,10,24,30,17,13,19,18,28,15,,,,1.96,1.05,1.65*05

[1499588690667]$GPGSV,3,1,09,10,13,325,36,13,43,183,29,15,52,242,42,17,51,111,29*7D

[1499588690667]$GPGSV,3,2,09,18,14,299,31,19,40,146,34,24,42,289,39,28,36,062,35*71

[1499588690667]$GPGSV,3,3,09,30,09,109,29*49

[1499588690667]$GPGLL,5357.53588,N,02737.76764,E,052450.00,A,A*6D

[1499588691666]$GPRMC,052451.00,A,5357.54247,N,02737.74859,E,47.033,300.35,090717,,,A*55

[1499588691666]$GPVTG,300.35,T,,M,47.033,N,87.105,K,A*30

[1499588691666]$GPGGA,052451.00,5357.54247,N,02737.74859,E,1,09,1.05,228.9,M,24.8,M,,*5B

[1499588691666]$GPGSA,A,3,10,24,30,17,13,19,18,28,15,,,,1.96,1.05,1.65*05

[1499588691666]$GPGSV,3,1,09,10,13,325,32,13,43,183,32,15,52,242,41,17,51,111,29*70

[1499588691666]$GPGSV,3,2,09,18,14,299,32,19,40,146,33,24,42,289,38,28,36,062,35*74

[1499588691666]$GPGSV,3,3,09,30,09,109,30*41

[1499588691666]$GPGLL,5357.54247,N,02737.74859,E,052451.00,A,A*6C

[1499588692666]$GPRMC,052452.00,A,5357.54917,N,02737.72965,E,46.973,301.19,090717,,,A*53

[1499588692666]$GPVTG,301.19,T,,M,46.973,N,86.995,K,A*33

[1499588692666]$GPGGA,052452.00,5357.54917,N,02737.72965,E,1,09,1.05,228.8,M,24.8,M,,*5F

[1499588692666]$GPGSA,A,3,10,24,30,17,13,19,18,28,15,,,,1.96,1.05,1.65*05

[1499588692666]$GPGSV,3,1,09,10,13,325,33,13,43,183,32,15,52,242,41,17,51,111,31*78

[1499588692666]$GPGSV,3,2,09,18,14,299,33,19,40,146,32,24,42,289,38,28,36,062,35*74

[1499588692666]$GPGSV,3,3,09,30,09,109,30*41

[1499588692666]$GPGLL,5357.54917,N,02737.72965,E,052452.00,A,A*69

[1499588693666]$GPRMC,052453.00,A,5357.55592,N,02737.71082,E,46.926,301.45,090717,,,A*58

[1499588693666]$GPVTG,301.45,T,,M,46.926,N,86.908,K,A*3E

[1499588693666]$GPGGA,052453.00,5357.55592,N,02737.71082,E,1,09,1.05,228.6,M,24.8,M,,*53

[1499588693666]$GPGSA,A,3,10,24,30,17,13,19,18,28,15,,,,1.96,1.05,1.65*05

[1499588693666]$GPGSV,3,1,09,10,13,325,34,13,43,183,33,15,52,242,41,17,51,111,30*7F

[1499588693666]$GPGSV,3,2,09,18,14,299,32,19,40,146,32,24,42,289,38,28,36,062,35*75

[1499588693666]$GPGSV,3,3,09,30,09,109,31*40

[1499588693666]$GPGLL,5357.55592,N,02737.71082,E,052453.00,A,A*6B

[1499588694669]$GPRMC,052454.00,A,5357.56267,N,02737.69194,E,46.924,301.29,090717,,,A*56

[1499588694669]$GPVTG,301.29,T,,M,46.924,N,86.904,K,A*3A

[1499588694669]$GPGGA,052454.00,5357.56267,N,02737.69194,E,1,09,1.05,228.6,M,24.8,M,,*55

[1499588694669]$GPGSA,A,3,10,24,30,17,13,19,18,28,15,,,,1.96,1.05,1.65*05

[1499588694669]$GPGSV,3,1,09,10,13,325,34,13,43,183,33,15,52,242,40,17,51,111,31*7F

[1499588694669]$GPGSV,3,2,09,18,14,298,33,19,40,146,33,24,42,289,37,28,36,062,35*7B

[1499588694669]$GPGSV,3,3,09,30,09,109,30*41

[1499588694669]$GPGLL,5357.56267,N,02737.69194,E,052454.00,A,A*6D

[1499588695667]$GPRMC,052455.00,A,5357.56936,N,02737.67302,E,46.927,300.88,090717,,,A*52

[1499588695667]$GPVTG,300.88,T,,M,46.927,N,86.909,K,A*3E

[1499588695667]$GPGGA,052455.00,5357.56936,N,02737.67302,E,1,09,1.05,228.6,M,24.8,M,,*58

[1499588695667]$GPGSA,A,3,10,24,30,17,13,19,18,28,15,,,,1.96,1.05,1.65*05

[1499588695667]$GPGSV,3,1,09,10,13,325,35,13,43,183,32,15,52,242,40,17,51,111,31*7F

[1499588695667]$GPGSV,3,2,09,18,14,298,34,19,40,146,34,24,42,289,38,28,36,062,35*74

[1499588695667]$GPGSV,3,3,09,30,09,109,29*49

[1499588695667]$GPGLL,5357.56936,N,02737.67302,E,052455.00,A,A*60

[1499588696667]$GPRMC,052456.00,A,5357.57608,N,02737.65409,E,47.026,301.16,090717,,,A*53

[1499588696667]$GPVTG,301.16,T,,M,47.026,N,87.092,K,A*3B

[1499588696667]$GPGGA,052456.00,5357.57608,N,02737.65409,E,1,09,1.05,228.6,M,24.8,M,,*56

[1499588696667]$GPGSA,A,3,10,24,30,17,13,19,18,28,15,,,,1.96,1.05,1.65*05

[1499588696667]$GPGSV,3,1,09,10,13,325,35,13,43,183,32,15,52,242,40,17,51,111,31*7F

[1499588696667]$GPGSV,3,2,09,18,14,298,34,19,40,146,34,24,42,289,38,28,36,062,35*74

[1499588696667]$GPGSV,3,3,09,30,09,109,29*49

[1499588696667]$GPGLL,5357.57608,N,02737.65409,E,052456.00,A,A*6E

[1499588697666]$GPRMC,052457.00,A,5357.58278,N,02737.63511,E,47.040,300.86,090717,,,A*58

[1499588697666]$GPVTG,300.86,T,,M,47.040,N,87.118,K,A*30

[1499588697666]$GPGGA,052457.00,5357.58278,N,02737.63511,E,1,09,1.05,228.5,M,24.8,M,,*56

[1499588697666]$GPGSA,A,3,10,24,30,17,13,19,18,28,15,,,,1.96,1.05,1.65*05

[1499588697666]$GPGSV,3,1,09,10,13,325,38,13,43,183,33,15,52,242,41,17,51,111,31*72

[1499588697666]$GPGSV,3,2,09,18,14,298,34,19,40,146,34,24,42,289,38,28,36,062,34*75

[1499588697666]$GPGSV,3,3,09,30,09,109,29*49

[1499588697666]$GPGLL,5357.58278,N,02737.63511,E,052457.00,A,A*6D

[1499588698666]$GPRMC,052458.00,A,5357.58953,N,02737.61619,E,47.001,301.13,090717,,,A*54

[1499588698666]$GPVTG,301.13,T,,M,47.001,N,87.045,K,A*31

[1499588698666]$GPGGA,052458.00,5357.58953,N,02737.61619,E,1,09,1.05,228.4,M,24.8,M,,*53

[1499588698666]$GPGSA,A,3,10,24,30,17,13,19,18,28,15,,,,1.96,1.05,1.65*05

[1499588698666]$GPGSV,3,1,09,10,13,325,36,13,43,183,32,15,52,242,41,17,51,111,31*7D

[1499588698666]$GPGSV,3,2,09,18,14,298,34,19,40,146,34,24,42,289,38,28,36,062,35*74

[1499588698666]$GPGSV,3,3,09,30,09,109,29*49

[1499588698666]$GPGLL,5357.58953,N,02737.61619,E,052458.00,A,A*69

[1499588699666]$GPRMC,052459.00,A,5357.59623,N,02737.59724,E,46.999,300.75,090717,,,A*50

[1499588699666]$GPVTG,300.75,T,,M,46.999,N,87.042,K,A*3E

[1499588699666]$GPGGA,052459.00,5357.59623,N,02737.59724,E,1,09,1.05,228.4,M,24.8,M,,*5F

[1499588699666]$GPGSA,A,3,10,24,30,17,13,19,18,28,15,,,,1.96,1.05,1.65*05

[1499588699666]$GPGSV,3,1,09,10,13,325,33,13,43,183,31,15,52,242,41,17,51,111,31*7B

[1499588699666]$GPGSV,3,2,09,18,14,298,33,19,40,146,33,24,42,289,38,28,36,062,34*75

[1499588699666]$GPGSV,3,3,09,30,09,109,30*41

[1499588699666]$GPGLL,5357.59623,N,02737.59724,E,052459.00,A,A*65

[1499588700666]$GPRMC,052500.00,A,5357.60293,N,02737.57824,E,47.053,300.65,090717,,,A*56

[1499588700666]$GPVTG,300.65,T,,M,47.053,N,87.142,K,A*30

[1499588700666]$GPGGA,052500.00,5357.60293,N,02737.57824,E,1,09,1.05,228.5,M,24.8,M,,*57

[1499588700666]$GPGSA,A,3,10,24,30,17,13,19,18,28,15,,,,1.96,1.05,1.65*05

[1499588700666]$GPGSV,3,1,09,10,13,325,33,13,43,183,32,15,52,242,41,17,51,111,31*78

[1499588700666]$GPGSV,3,2,09,18,14,298,33,19,40,146,33,24,42,289,36,28,36,062,35*7A

[1499588700666]$GPGSV,3,3,09,30,09,109,30*41

[1499588700666]$GPGLL,5357.60293,N,02737.57824,E,052500.00,A,A*6C

[1499588701663]$GPRMC,052501.00,A,5357.60958,N,02737.55919,E,47.074,300.59,090717,,,A*5C

[1499588701663]$GPVTG,300.59,T,,M,47.074,N,87.181,K,A*35

[1499588701663]$GPGGA,052501.00,5357.60958,N,02737.55919,E,1,09,1.05,228.6,M,24.8,M,,*54

[1499588701663]$GPGSA,A,3,10,24,30,17,13,19,18,28,15,,,,1.96,1.05,1.65*05

[1499588701663]$GPGSV,3,1,09,10,13,325,34,13,43,183,32,15,52,242,41,17,51,111,30*7E

[1499588701663]$GPGSV,3,2,09,18,14,298,32,19,40,146,33,24,42,289,37,28,36,062,35*7A

[1499588701663]$GPGSV,3,3,09,30,09,109,30*41

[1499588701663]$GPGLL,5357.60958,N,02737.55919,E,052501.00,A,A*6C

[1499588702670]$GPRMC,052502.00,A,5357.61625,N,02737.54014,E,47.101,300.72,090717,,,A*54

[1499588702670]$GPVTG,300.72,T,,M,47.101,N,87.231,K,A*37

[1499588702670]$GPGGA,052502.00,5357.61625,N,02737.54014,E,1,09,1.05,228.5,M,24.8,M,,*55

[1499588702670]$GPGSA,A,3,10,24,30,17,13,19,18,28,15,,,,1.96,1.05,1.65*05

[1499588702670]$GPGSV,3,1,09,10,13,325,35,13,43,183,32,15,52,242,41,17,51,111,30*7F

[1499588702670]$GPGSV,3,2,09,18,14,298,33,19,40,146,33,24,42,289,38,28,36,062,35*74

[1499588702670]$GPGSV,3,3,09,30,09,109,31*40

[1499588702670]$GPGLL,5357.61625,N,02737.54014,E,052502.00,A,A*6E

[1499588703666]$GPRMC,052503.00,A,5357.62300,N,02737.52115,E,47.141,301.08,090717,,,A*5A

[1499588703666]$GPVTG,301.08,T,,M,47.141,N,87.306,K,A*3A

[1499588703666]$GPGGA,052503.00,5357.62300,N,02737.52115,E,1,09,1.05,228.4,M,24.8,M,,*52

[1499588703666]$GPGSA,A,3,10,24,30,17,13,19,18,28,15,,,,1.96,1.05,1.65*05

[1499588703666]$GPGSV,3,1,09,10,13,325,35,13,43,183,33,15,52,242,41,17,51,111,31*7F

[1499588703666]$GPGSV,3,2,09,18,14,298,32,19,40,146,33,24,42,289,38,28,36,062,35*75

[1499588703666]$GPGSV,3,3,09,30,09,109,31*40

[1499588703666]$GPGLL,5357.62300,N,02737.52115,E,052503.00,A,A*68

[1499588704666]$GPRMC,052504.00,A,5357.62972,N,02737.50213,E,47.114,300.85,090717,,,A*51

[1499588704666]$GPVTG,300.85,T,,M,47.114,N,87.255,K,A*39

[1499588704666]$GPGGA,052504.00,5357.62972,N,02737.50213,E,1,09,1.05,228.4,M,24.8,M,,*5D

[1499588704666]$GPGSA,A,3,10,24,30,17,13,19,18,28,15,,,,1.95,1.05,1.65*06

[1499588704666]$GPGSV,3,1,09,10,13,325,35,13,43,183,31,15,52,242,41,17,51,111,31*7D

[1499588704666]$GPGSV,3,2,09,18,14,298,33,19,40,146,34,24,42,289,38,28,36,062,34*72

[1499588704666]$GPGSV,3,3,09,30,09,109,31*40

[1499588704666]$GPGLL,5357.62972,N,02737.50213,E,052504.00,A,A*67

[1499588705656]$GPRMC,052505.00,A,5357.63636,N,02737.48310,E,47.126,300.65,090717,,,A*5A

[1499588705656]$GPVTG,300.65,T,,M,47.126,N,87.277,K,A*36

[1499588705656]$GPGGA,052505.00,5357.63636,N,02737.48310,E,1,09,1.05,228.3,M,24.8,M,,*5E

[1499588705656]$GPGSA,A,3,10,24,30,17,13,19,18,28,15,,,,1.95,1.05,1.65*06

[1499588705656]$GPGSV,3,1,09,10,13,325,34,13,43,183,31,15,52,242,41,17,51,111,31*7C

[1499588705656]$GPGSV,3,2,09,18,14,298,33,19,40,146,34,24,42,289,38,28,36,062,35*73

[1499588705656]$GPGSV,3,3,09,30,09,109,31*40

[1499588705656]$GPGLL,5357.63636,N,02737.48310,E,052505.00,A,A*63

[1499588706670]$GPRMC,052506.00,A,5357.64300,N,02737.46401,E,47.165,300.61,090717,,,A*54

[1499588706670]$GPVTG,300.61,T,,M,47.165,N,87.349,K,A*39

[1499588706670]$GPGGA,052506.00,5357.64300,N,02737.46401,E,1,09,1.11,228.3,M,24.8,M,,*56

[1499588706670]$GPGSA,A,3,10,24,30,17,13,19,18,28,15,,,,2.16,1.11,1.85*05

[1499588706670]$GPGSV,3,1,09,10,13,325,35,13,43,183,31,15,52,242,41,17,51,111,31*7D

[1499588706670]$GPGSV,3,2,09,18,14,298,33,19,40,146,34,24,42,289,38,28,36,062,35*73

[1499588706670]$GPGSV,3,3,09,30,09,109,32*43

[1499588706670]$GPGLL,5357.64300,N,02737.46401,E,052506.00,A,A*6E

[1499588707667]$GPRMC,052507.00,A,5357.64952,N,02737.44474,E,47.187,299.78,090717,,,A*5D

[1499588707667]$GPVTG,299.78,T,,M,47.187,N,87.390,K,A*38

[1499588707667]$GPGGA,052507.00,5357.64952,N,02737.44474,E,1,09,1.05,228.1,M,24.8,M,,*5D

[1499588707667]$GPGSA,A,3,10,24,30,17,13,19,18,28,15,,,,1.95,1.05,1.65*06

[1499588707667]$GPGSV,3,1,09,10,13,325,33,13,43,183,29,15,52,242,41,17,51,111,30*73

[1499588707667]$GPGSV,3,2,09,18,14,298,29,19,40,146,34,24,42,289,38,28,36,062,32*7F

[1499588707667]$GPGSV,3,3,09,30,09,109,31*40

[1499588707667]$GPGLL,5357.64952,N,02737.44474,E,052507.00,A,A*62

[1499588708667]$GPRMC,052508.00,A,5357.65589,N,02737.42530,E,47.270,298.96,090717,,,A*54

[1499588708667]$GPVTG,298.96,T,,M,47.270,N,87.544,K,A*3D

[1499588708667]$GPGGA,052508.00,5357.65589,N,02737.42530,E,1,09,1.05,227.9,M,24.8,M,,*59

[1499588708667]$GPGSA,A,3,10,24,30,17,13,19,18,28,15,,,,1.95,1.05,1.65*06

[1499588708667]$GPGSV,3,1,09,10,13,325,33,13,43,183,28,15,52,242,41,17,51,111,29*7A

[1499588708667]$GPGSV,3,2,09,18,14,298,30,19,40,146,34,24,42,289,36,28,36,062,33*78

[1499588708667]$GPGSV,3,3,09,30,09,109,30*41

[1499588708667]$GPGLL,5357.65589,N,02737.42530,E,052508.00,A,A*61

[1499588709666]$GPRMC,052509.00,A,5357.66221,N,02737.40583,E,47.200,298.85,090717,,,A*5C

[1499588709666]$GPVTG,298.85,T,,M,47.200,N,87.414,K,A*3C

[1499588709666]$GPGGA,052509.00,5357.66221,N,02737.40583,E,1,09,1.05,227.7,M,24.8,M,,*5A

[1499588709666]$GPGSA,A,3,10,24,30,17,13,19,18,28,15,,,,1.95,1.05,1.65*06

[1499588709666]$GPGSV,3,1,09,10,13,325,36,13,43,183,28,15,52,242,41,17,51,111,28*7E

[1499588709666]$GPGSV,3,2,09,18,14,298,31,19,40,146,34,24,42,289,38,28,36,062,34*70

[1499588709666]$GPGSV,3,3,09,30,09,109,29*49

[1499588709666]$GPGLL,5357.66221,N,02737.40583,E,052509.00,A,A*6C

[1499588710670]$GPRMC,052510.00,A,5357.66855,N,02737.38639,E,47.224,299.23,090717,,,A*5B

[1499588710670]$GPVTG,299.23,T,,M,47.224,N,87.460,K,A*34

[1499588710670]$GPGGA,052510.00,5357.66855,N,02737.38639,E,1,09,1.05,227.6,M,24.8,M,,*57

[1499588710670]$GPGSA,A,3,10,24,30,17,13,19,18,28,15,,,,1.95,1.05,1.65*06

[1499588710670]$GPGSV,3,1,10,01,,,32,10,13,325,34,13,43,183,28,15,52,242,41*4D

[1499588710670]$GPGSV,3,2,10,17,51,111,28,18,14,298,31,19,40,146,34,24,42,289,37*72

[1499588710670]$GPGSV,3,3,10,28,36,062,34,30,09,109,29*7D

[1499588710670]$GPGLL,5357.66855,N,02737.38639,E,052510.00,A,A*60

[1499588711666]$GPRMC,052511.00,A,5357.67510,N,02737.36700,E,47.564,300.10,090717,,,A*50

[1499588711666]$GPVTG,300.10,T,,M,47.564,N,88.089,K,A*3A

[1499588711666]$GPGGA,052511.00,5357.67510,N,02737.36700,E,1,09,1.05,227.4,M,24.8,M,,*5C

[1499588711666]$GPGSA,A,3,10,24,30,17,13,19,18,28,15,,,,1.95,1.05,1.65*06

[1499588711666]$GPGSV,3,1,11,01,,,31,10,13,325,34,12,,,30,13,43,183,29*7C

[1499588711666]$GPGSV,3,2,11,15,52,242,41,17,51,111,28,18,14,298,32,19,40,146,33*72

[1499588711666]$GPGSV,3,3,11,24,42,289,37,28,36,062,34,30,09,109,31*42

[1499588711666]$GPGLL,5357.67510,N,02737.36700,E,052511.00,A,A*69

[1499588712676]$GPRMC,052512.00,A,5357.68184,N,02737.34750,E,48.338,300.57,090717,,,A*51

[1499588712676]$GPVTG,300.57,T,,M,48.338,N,89.522,K,A*3C

[1499588712676]$GPGGA,052512.00,5357.68184,N,02737.34750,E,1,09,1.05,227.1,M,24.8,M,,*5B

[1499588712676]$GPGSA,A,3,10,24,30,17,13,19,18,28,15,,,,1.95,1.05,1.65*06

[1499588712676]$GPGSV,3,1,11,01,,,31,10,13,325,34,12,,,33,13,43,183,29*7F

[1499588712676]$GPGSV,3,2,11,15,52,242,40,17,51,111,29,18,14,298,32,19,40,146,33*72

[1499588712676]$GPGSV,3,3,11,24,42,289,37,28,36,062,34,30,09,109,31*42

[1499588712676]$GPGLL,5357.68184,N,02737.34750,E,052512.00,A,A*6B

[1499588713666]$GPRMC,052513.00,A,5357.68881,N,02737.32770,E,49.250,300.91,090717,,,A*5C

[1499588713666]$GPVTG,300.91,T,,M,49.250,N,91.210,K,A*37

[1499588713666]$GPGGA,052513.00,5357.68881,N,02737.32770,E,1,09,1.05,227.0,M,24.8,M,,*53

[1499588713666]$GPGSA,A,3,10,24,30,17,13,19,18,28,15,,,,1.95,1.05,1.64*07

[1499588713666]$GPGSV,3,1,11,01,13,047,31,10,13,325,33,12,,,32,13,43,183,31*41

[1499588713666]$GPGSV,3,2,11,15,52,242,40,17,51,111,31,18,14,298,32,19,40,146,33*7B

[1499588713666]$GPGSV,3,3,11,24,42,289,38,28,36,062,35,30,09,109,31*4C

[1499588713666]$GPGLL,5357.68881,N,02737.32770,E,052513.00,A,A*62

[1499588714667]$GPRMC,052514.00,A,5357.69586,N,02737.30747,E,50.211,300.59,090717,,,A*5F

[1499588714667]$GPVTG,300.59,T,,M,50.211,N,92.992,K,A*3C

[1499588714667]$GPGGA,052514.00,5357.69586,N,02737.30747,E,1,09,1.05,226.8,M,24.8,M,,*50

[1499588714667]$GPGSA,A,3,10,24,30,17,13,19,18,28,15,,,,1.95,1.05,1.64*07

[1499588714667]$GPGSV,3,1,11,01,13,047,32,10,13,325,33,12,,,31,13,43,183,30*40

[1499588714667]$GPGSV,3,2,11,15,52,242,40,17,51,111,32,18,14,298,33,19,40,146,33*79

[1499588714667]$GPGSV,3,3,11,24,42,289,38,28,36,062,35,30,09,109,31*4C

[1499588714667]$GPGLL,5357.69586,N,02737.30747,E,052514.00,A,A*68

[1499588715667]$GPRMC,052515.00,A,5357.70296,N,02737.28675,E,51.116,300.22,090717,,,A*50

[1499588715667]$GPVTG,300.22,T,,M,51.116,N,94.667,K,A*36

[1499588715667]$GPGGA,052515.00,5357.70296,N,02737.28675,E,1,09,1.05,226.6,M,24.8,M,,*58

[1499588715667]$GPGSA,A,3,10,24,30,17,13,19,18,28,15,,,,1.95,1.05,1.64*07

[1499588715667]$GPGSV,3,1,11,01,13,047,31,10,13,325,32,12,,,32,13,43,183,30*41

[1499588715667]$GPGSV,3,2,11,15,52,242,40,17,51,111,32,18,14,298,32,19,40,146,33*78

[1499588715667]$GPGSV,3,3,11,24,42,289,38,28,36,062,34,30,09,109,31*4D

[1499588715667]$GPGLL,5357.70296,N,02737.28675,E,052515.00,A,A*6E

[1499588716666]$GPRMC,052516.00,A,5357.71024,N,02737.26575,E,52.028,300.47,090717,,,A*58

[1499588716666]$GPVTG,300.47,T,,M,52.028,N,96.356,K,A*3F

[1499588716666]$GPGGA,052516.00,5357.71024,N,02737.26575,E,1,09,1.05,226.5,M,24.8,M,,*5F

[1499588716666]$GPGSA,A,3,10,24,30,17,13,19,18,28,15,,,,1.95,1.05,1.64*07

[1499588716666]$GPGSV,3,1,11,01,13,047,31,10,13,325,32,12,,,28,13,43,183,30*4A

[1499588716666]$GPGSV,3,2,11,15,52,242,39,17,51,111,27,18,14,298,33,19,40,146,33*73

[1499588716666]$GPGSV,3,3,11,24,42,289,38,28,36,062,34,30,09,109,31*4D

[1499588716666]$GPGLL,5357.71024,N,02737.26575,E,052516.00,A,A*6A

[1499588717666]$GPRMC,052517.00,A,5357.71770,N,02737.24446,E,52.967,300.82,090717,,,A*57

[1499588717666]$GPVTG,300.82,T,,M,52.967,N,98.095,K,A*36

[1499588717666]$GPGGA,052517.00,5357.71770,N,02737.24446,E,1,09,1.05,226.3,M,24.8,M,,*5D

[1499588717666]$GPGSA,A,3,10,24,30,17,13,19,18,28,15,,,,1.95,1.05,1.64*07

[1499588717666]$GPGSV,3,1,11,01,13,047,31,10,13,325,35,12,,,31,13,43,183,31*44

[1499588717666]$GPGSV,3,2,11,15,52,242,40,17,51,111,29,18,14,298,33,19,40,146,32*72

[1499588717666]$GPGSV,3,3,11,24,42,289,38,28,36,062,34,30,09,109,30*4C

[1499588717666]$GPGLL,5357.71770,N,02737.24446,E,052517.00,A,A*6E

[1499588718676]$GPRMC,052518.00,A,5357.72535,N,02737.22284,E,53.873,301.04,090717,,,A*5C

[1499588718676]$GPVTG,301.04,T,,M,53.873,N,99.773,K,A*32

[1499588718676]$GPGGA,052518.00,5357.72535,N,02737.22284,E,1,09,1.05,226.1,M,24.8,M,,*5E

[1499588718676]$GPGSA,A,3,10,24,30,17,13,19,18,28,15,,,,1.95,1.05,1.64*07

[1499588718676]$GPGSV,3,1,11,01,13,047,31,10,13,325,35,12,,,30,13,43,183,32*46

[1499588718676]$GPGSV,3,2,11,15,52,242,37,17,51,111,29,18,14,298,33,19,40,146,32*72

[1499588718676]$GPGSV,3,3,11,24,42,289,38,28,36,062,34,30,09,109,31*4D

[1499588718676]$GPGLL,5357.72535,N,02737.22284,E,052518.00,A,A*6F

[1499588719677]$GPRMC,052519.00,A,5357.73313,N,02737.20093,E,54.479,301.03,090717,,,A*5E

[1499588719677]$GPVTG,301.03,T,,M,54.479,N,100.895,K,A*02

[1499588719677]$GPGGA,052519.00,5357.73313,N,02737.20093,E,1,09,1.05,225.9,M,24.8,M,,*51

[1499588719677]$GPGSA,A,3,10,24,30,17,13,19,18,28,15,,,,1.95,1.05,1.64*07

[1499588719677]$GPGSV,3,1,11,01,13,047,31,10,13,325,36,12,,,29,13,43,183,32*4D

[1499588719677]$GPGSV,3,2,11,15,52,241,40,17,51,111,29,18,14,298,33,19,40,146,32*71

[1499588719677]$GPGSV,3,3,11,24,42,289,38,28,36,062,35,30,09,109,31*4C

[1499588719677]$GPGLL,5357.73313,N,02737.20093,E,052519.00,A,A*6B

[1499588720676]$GPRMC,052520.00,A,5357.74091,N,02737.17897,E,54.398,300.89,090717,,,A*59

[1499588720676]$GPVTG,300.89,T,,M,54.398,N,100.745,K,A*0B

[1499588720676]$GPGGA,052520.00,5357.74091,N,02737.17897,E,1,10,0.87,225.8,M,24.8,M,,*5F

[1499588720676]$GPGSA,A,3,10,24,30,17,13,19,18,28,15,12,,,1.65,0.87,1.41*07

[1499588720676]$GPGSV,3,1,11,01,13,047,32,10,13,325,34,12,15,239,29,13,43,183,32*70

[1499588720676]$GPGSV,3,2,11,15,52,241,40,17,51,111,29,18,14,298,33,19,40,146,33*70

[1499588720676]$GPGSV,3,3,11,24,42,289,39,28,36,062,34,30,09,109,30*4D

[1499588720676]$GPGLL,5357.74091,N,02737.17897,E,052520.00,A,A*67

[1499588721666]$GPRMC,052521.00,A,5357.74856,N,02737.15699,E,54.325,300.64,090717,,,A*5C

[1499588721666]$GPVTG,300.64,T,,M,54.325,N,100.610,K,A*0F

[1499588721666]$GPGGA,052521.00,5357.74856,N,02737.15699,E,1,10,0.87,225.5,M,24.8,M,,*52

[1499588721666]$GPGSA,A,3,10,24,30,17,13,19,18,28,15,12,,,1.65,0.87,1.41*07

[1499588721666]$GPGSV,3,1,11,01,13,047,32,10,13,325,34,12,15,239,29,13,43,183,32*70

[1499588721666]$GPGSV,3,2,11,15,52,241,40,17,51,110,29,18,14,298,33,19,40,146,33*71

[1499588721666]$GPGSV,3,3,11,24,42,289,39,28,36,062,35,30,09,109,30*4C

[1499588721666]$GPGLL,5357.74856,N,02737.15699,E,052521.00,A,A*67

[1499588722666]$GPRMC,052522.00,A,5357.75626,N,02737.13505,E,54.333,300.92,090717,,,A*59

[1499588722666]$GPVTG,300.92,T,,M,54.333,N,100.624,K,A*06

[1499588722666]$GPGGA,052522.00,5357.75626,N,02737.13505,E,1,10,0.87,225.2,M,24.8,M,,*5E

[1499588722666]$GPGSA,A,3,10,24,30,17,13,19,18,28,15,12,,,1.65,0.87,1.41*07

[1499588722666]$GPGSV,3,1,11,01,13,047,32,10,13,325,33,12,15,239,30,13,43,183,32*7F

[1499588722666]$GPGSV,3,2,11,15,52,241,40,17,51,110,29,18,14,298,33,19,40,146,32*70

[1499588722666]$GPGSV,3,3,11,24,42,289,39,28,36,062,35,30,09,109,30*4C

[1499588722666]$GPGLL,5357.75626,N,02737.13505,E,052522.00,A,A*6C

[1499588723667]$GPRMC,052523.00,A,5357.76396,N,02737.11314,E,54.238,300.71,090717,,,A*56

[1499588723667]$GPVTG,300.71,T,,M,54.238,N,100.449,K,A*08

[1499588723667]$GPGGA,052523.00,5357.76396,N,02737.11314,E,1,10,0.87,225.1,M,24.8,M,,*55

[1499588723667]$GPGSA,A,3,10,24,30,17,13,19,18,28,15,12,,,1.65,0.87,1.41*07

[1499588723667]$GPGSV,3,1,11,01,13,047,32,10,13,325,32,12,15,239,30,13,43,183,32*7E

[1499588723667]$GPGSV,3,2,11,15,52,241,40,17,51,110,30,18,14,298,33,19,40,146,33*79

[1499588723667]$GPGSV,3,3,11,24,42,289,39,28,36,062,35,30,09,109,29*44

[1499588723667]$GPGLL,5357.76396,N,02737.11314,E,052523.00,A,A*64

[1499588724677]$GPRMC,052524.00,A,5357.77166,N,02737.09121,E,54.204,300.47,090717,,,A*5A

[1499588724677]$GPVTG,300.47,T,,M,54.204,N,100.387,K,A*07

[1499588724677]$GPGGA,052524.00,5357.77166,N,02737.09121,E,1,10,0.87,225.0,M,24.8,M,,*52

[1499588724677]$GPGSA,A,3,10,24,30,17,13,19,18,28,15,12,,,1.65,0.87,1.41*07

[1499588724677]$GPGSV,3,1,11,01,13,047,32,10,13,325,36,12,15,239,31,13,43,183,33*7A

[1499588724677]$GPGSV,3,2,11,15,52,241,41,17,51,110,31,18,14,298,32,19,40,146,33*78

[1499588724677]$GPGSV,3,3,11,24,42,289,39,28,36,062,35,30,09,109,29*44

[1499588724677]$GPGLL,5357.77166,N,02737.09121,E,052524.00,A,A*62

[1499588725666]$GPRMC,052525.00,A,5357.77935,N,02737.06928,E,54.273,300.78,090717,,,A*57

[1499588725666]$GPVTG,300.78,T,,M,54.273,N,100.515,K,A*06

[1499588725666]$GPGGA,052525.00,5357.77935,N,02737.06928,E,1,10,0.87,224.8,M,24.8,M,,*5A

[1499588725666]$GPGSA,A,3,10,24,30,17,13,19,18,28,15,12,,,1.65,0.87,1.41*07

[1499588725666]$GPGSV,3,1,11,01,13,047,31,10,13,325,34,12,15,239,30,13,43,183,33*7A

[1499588725666]$GPGSV,3,2,11,15,52,241,40,17,51,110,31,18,14,298,33,19,40,146,33*78

[1499588725666]$GPGSV,3,3,11,24,42,289,39,28,36,062,35,30,09,109,30*4C

[1499588725666]$GPGLL,5357.77935,N,02737.06928,E,052525.00,A,A*63

[1499588726676]$GPRMC,052526.00,A,5357.78703,N,02737.04734,E,54.249,300.74,090717,,,A*54

[1499588726676]$GPVTG,300.74,T,,M,54.249,N,100.469,K,A*09

[1499588726676]$GPGGA,052526.00,5357.78703,N,02737.04734,E,1,10,0.87,224.5,M,24.8,M,,*51

[1499588726676]$GPGSA,A,3,10,24,30,17,13,19,18,28,15,12,,,1.65,0.87,1.41*07

[1499588726676]$GPGSV,3,1,11,01,13,047,32,10,13,325,34,12,15,239,31,13,43,183,33*78

[1499588726676]$GPGSV,3,2,11,15,52,241,40,17,51,110,29,18,14,298,33,19,40,146,33*71

[1499588726676]$GPGSV,3,3,11,24,42,289,39,28,36,062,35,30,09,109,30*4C

[1499588726676]$GPGLL,5357.78703,N,02737.04734,E,052526.00,A,A*65

[1499588727666]$GPRMC,052527.00,A,5357.79468,N,02737.02536,E,54.223,300.61,090717,,,A*54

[1499588727666]$GPVTG,300.61,T,,M,54.223,N,100.420,K,A*0C

[1499588727666]$GPGGA,052527.00,5357.79468,N,02737.02536,E,1,10,0.87,224.2,M,24.8,M,,*5E

[1499588727666]$GPGSA,A,3,10,24,30,17,13,19,18,28,15,12,,,1.65,0.87,1.41*07

[1499588727666]$GPGSV,3,1,11,01,13,047,32,10,13,325,34,12,15,239,31,13,43,183,33*78

[1499588727666]$GPGSV,3,2,11,15,52,241,41,17,51,110,33,18,14,298,33,19,40,146,33*7B

[1499588727666]$GPGSV,3,3,11,24,42,289,39,28,36,062,35,30,09,109,30*4C

[1499588727666]$GPGLL,5357.79468,N,02737.02536,E,052527.00,A,A*6D

[1499588728666]$GPRMC,052528.00,A,5357.80229,N,02737.00339,E,54.203,300.43,090717,,,A*57

[1499588728666]$GPVTG,300.43,T,,M,54.203,N,100.383,K,A*00

[1499588728666]$GPGGA,052528.00,5357.80229,N,02737.00339,E,1,10,0.87,223.9,M,24.8,M,,*53

[1499588728666]$GPGSA,A,3,10,24,30,17,13,19,18,28,15,12,,,1.65,0.87,1.41*07

[1499588728666]$GPGSV,3,1,11,01,13,047,31,10,13,325,34,12,15,239,30,13,43,183,33*7A

[1499588728666]$GPGSV,3,2,11,15,52,241,41,17,51,110,30,18,14,298,32,19,40,146,33*79

[1499588728666]$GPGSV,3,3,11,24,42,289,39,28,36,062,35,30,09,109,30*4C

[1499588728666]$GPGLL,5357.80229,N,02737.00339,E,052528.00,A,A*6C

[1499588729677]$GPRMC,052529.00,A,5357.80991,N,02736.98147,E,54.183,300.70,090717,,,A*5E

[1499588729677]$GPVTG,300.70,T,,M,54.183,N,100.346,K,A*02

[1499588729677]$GPGGA,052529.00,5357.80991,N,02736.98147,E,1,10,0.87,223.4,M,24.8,M,,*5C

[1499588729677]$GPGSA,A,3,10,24,30,17,13,19,18,28,15,12,,,1.65,0.87,1.41*07

[1499588729677]$GPGSV,3,1,11,01,13,047,31,10,13,325,35,12,15,239,29,13,43,183,34*74

[1499588729677]$GPGSV,3,2,11,15,52,241,40,17,51,110,30,18,14,298,33,19,40,146,32*78

[1499588729677]$GPGSV,3,3,11,24,42,289,39,28,36,063,35,30,09,109,30*4D

[1499588729677]$GPGLL,5357.80991,N,02736.98147,E,052529.00,A,A*6E

[1499588730676]$GPRMC,052530.00,A,5357.81758,N,02736.95962,E,54.201,300.96,090717,,,A*5F

[1499588730676]$GPVTG,300.96,T,,M,54.201,N,100.381,K,A*08

[1499588730676]$GPGGA,052530.00,5357.81758,N,02736.95962,E,1,10,0.87,223.0,M,24.8,M,,*58

[1499588730676]$GPGSA,A,3,10,24,30,17,13,19,18,28,15,12,,,1.65,0.87,1.41*07

[1499588730676]$GPGSV,3,1,11,01,13,047,32,10,13,325,34,12,15,239,29,13,43,183,34*76

[1499588730676]$GPGSV,3,2,11,15,52,241,40,17,51,110,29,18,14,298,33,19,40,146,32*70

[1499588730676]$GPGSV,3,3,11,24,42,289,39,28,36,063,35,30,09,110,31*44

[1499588730676]$GPGLL,5357.81758,N,02736.95962,E,052530.00,A,A*6E

[1499588731667]$GPRMC,052531.00,A,5357.82525,N,02736.93780,E,54.129,300.97,090717,,,A*59

[1499588731667]$GPVTG,300.97,T,,M,54.129,N,100.248,K,A*04

[1499588731667]$GPGGA,052531.00,5357.82525,N,02736.93780,E,1,11,0.79,222.5,M,24.8,M,,*52

[1499588731667]$GPGSA,A,3,10,24,01,30,17,13,19,18,28,15,12,,1.59,0.79,1.38*06

[1499588731667]$GPGSV,3,1,11,01,13,047,32,10,13,325,35,12,15,239,29,13,43,183,34*77

[1499588731667]$GPGSV,3,2,11,15,52,241,40,17,51,110,31,18,14,298,33,19,40,146,32*79

[1499588731667]$GPGSV,3,3,11,24,42,289,39,28,36,063,35,30,09,110,31*44

[1499588731667]$GPGLL,5357.82525,N,02736.93780,E,052531.00,A,A*60

[1499588732676]$GPRMC,052532.00,A,5357.83292,N,02736.91597,E,54.135,300.80,090717,,,A*5D

[1499588732676]$GPVTG,300.80,T,,M,54.135,N,100.258,K,A*0E

[1499588732676]$GPGGA,052532.00,5357.83292,N,02736.91597,E,1,11,0.81,222.2,M,24.8,M,,*5D

[1499588732676]$GPGSA,A,3,10,24,01,30,17,13,19,18,28,15,12,,1.71,0.81,1.51*04

[1499588732676]$GPGSV,3,1,11,01,13,047,32,10,13,325,34,12,15,239,29,13,43,183,33*71

[1499588732676]$GPGSV,3,2,11,15,52,241,40,17,51,110,30,18,14,298,32,19,40,146,32*79

[1499588732676]$GPGSV,3,3,11,24,42,289,39,28,36,063,35,30,09,110,31*44

[1499588732676]$GPGLL,5357.83292,N,02736.91597,E,052532.00,A,A*6F

[1499588733676]$GPRMC,052533.00,A,5357.84054,N,02736.89411,E,54.079,300.71,090717,,,A*52

[1499588733676]$GPVTG,300.71,T,,M,54.079,N,100.154,K,A*06

[1499588733676]$GPGGA,052533.00,5357.84054,N,02736.89411,E,1,11,0.79,222.0,M,24.8,M,,*50

[1499588733676]$GPGSA,A,3,10,24,01,30,17,13,19,18,28,15,12,,1.59,0.79,1.38*06

[1499588733676]$GPGSV,3,1,11,01,13,047,32,10,13,325,34,12,15,239,33,13,43,183,33*7A

[1499588733676]$GPGSV,3,2,11,15,52,241,41,17,51,110,28,18,14,298,33,19,40,146,32*70

[1499588733676]$GPGSV,3,3,11,24,42,289,40,28,36,063,35,30,09,110,30*4B

[1499588733676]$GPGLL,5357.84054,N,02736.89411,E,052533.00,A,A*67

[1499588734666]$GPRMC,052534.00,A,5357.84815,N,02736.87221,E,54.127,300.62,090717,,,A*5B

[1499588734666]$GPVTG,300.62,T,,M,54.127,N,100.244,K,A*0C

[1499588734666]$GPGGA,052534.00,5357.84815,N,02736.87221,E,1,11,0.79,221.7,M,24.8,M,,*55

[1499588734666]$GPGSA,A,3,10,24,01,30,17,13,19,18,28,15,12,,1.59,0.79,1.38*06

[1499588734666]$GPGSV,3,1,11,01,13,047,31,10,13,325,35,12,15,239,30,13,43,183,33*7B

[1499588734666]$GPGSV,3,2,11,15,52,241,40,17,51,110,28,18,14,298,33,19,40,146,32*71

[1499588734666]$GPGSV,3,3,11,24,42,289,39,28,36,063,35,30,09,110,30*45

[1499588734666]$GPGLL,5357.84815,N,02736.87221,E,052534.00,A,A*66

[1499588735676]$GPRMC,052535.00,A,5357.85578,N,02736.85032,E,54.107,300.63,090717,,,A*5C

[1499588735676]$GPVTG,300.63,T,,M,54.107,N,100.205,K,A*0A

[1499588735676]$GPGGA,052535.00,5357.85578,N,02736.85032,E,1,11,0.79,221.4,M,24.8,M,,*52

[1499588735676]$GPGSA,A,3,10,24,01,30,17,13,19,18,28,15,12,,1.59,0.79,1.38*06

[1499588735676]$GPGSV,3,1,11,01,13,047,32,10,13,325,35,12,15,239,30,13,43,183,34*7F

[1499588735676]$GPGSV,3,2,11,15,52,241,41,17,51,110,29,18,14,298,33,19,40,146,33*70

[1499588735676]$GPGSV,3,3,11,24,42,289,40,28,36,063,35,30,09,110,31*4A

[1499588735676]$GPGLL,5357.85578,N,02736.85032,E,052535.00,A,A*62

[1499588736676]$GPRMC,052536.00,A,5357.86341,N,02736.82844,E,54.115,300.69,090717,,,A*57

[1499588736676]$GPVTG,300.69,T,,M,54.115,N,100.221,K,A*05

[1499588736676]$GPGGA,052536.00,5357.86341,N,02736.82844,E,1,11,0.79,221.1,M,24.8,M,,*55

[1499588736676]$GPGSA,A,3,10,24,01,30,17,13,19,18,28,15,12,,1.59,0.79,1.38*06

[1499588736676]$GPGSV,3,1,11,01,13,047,32,10,13,325,35,12,15,239,30,13,43,183,34*7F

[1499588736676]$GPGSV,3,2,11,15,52,241,41,17,51,110,31,18,14,298,33,19,40,146,33*79

[1499588736676]$GPGSV,3,3,11,24,42,289,40,28,36,063,36,30,09,110,31*49

[1499588736676]$GPGLL,5357.86341,N,02736.82844,E,052536.00,A,A*60

[1499588737676]$GPRMC,052537.00,A,5357.87104,N,02736.80656,E,54.121,300.59,090717,,,A*5F

[1499588737676]$GPVTG,300.59,T,,M,54.121,N,100.231,K,A*00

[1499588737676]$GPGGA,052537.00,5357.87104,N,02736.80656,E,1,11,0.79,220.8,M,24.8,M,,*51

[1499588737676]$GPGSA,A,3,10,24,01,30,17,13,19,18,28,15,12,,1.59,0.79,1.38*06

[1499588737676]$GPGSV,3,1,11,01,13,047,32,10,13,325,35,12,15,239,31,13,43,183,33*79

[1499588737676]$GPGSV,3,2,11,15,52,241,41,17,51,110,32,18,14,298,33,19,40,146,34*7D

[1499588737676]$GPGSV,3,3,11,24,42,289,40,28,36,063,35,30,09,110,31*4A

[1499588737676]$GPGLL,5357.87104,N,02736.80656,E,052537.00,A,A*6C

[1499588738677]$GPRMC,052538.00,A,5357.87864,N,02736.78468,E,54.166,300.55,090717,,,A*58

[1499588738677]$GPVTG,300.55,T,,M,54.166,N,100.315,K,A*08

[1499588738677]$GPGGA,052538.00,5357.87864,N,02736.78468,E,1,11,0.79,220.5,M,24.8,M,,*54

[1499588738677]$GPGSA,A,3,10,24,01,30,17,13,19,18,28,15,12,,1.59,0.79,1.38*06

[1499588738677]$GPGSV,3,1,11,01,13,047,32,10,13,325,35,12,15,239,23,13,43,183,34*7D

[1499588738677]$GPGSV,3,2,11,15,52,241,41,17,51,110,26,18,14,298,33,19,40,146,34*78

[1499588738677]$GPGSV,3,3,11,24,42,289,40,28,36,063,35,30,09,110,30*4B

[1499588738677]$GPGLL,5357.87864,N,02736.78468,E,052538.00,A,A*64

[1499588739676]$GPRMC,052539.00,A,5357.88629,N,02736.76281,E,54.127,300.79,090717,,,A*55

[1499588739676]$GPVTG,300.79,T,,M,54.127,N,100.243,K,A*01

[1499588739676]$GPGGA,052539.00,5357.88629,N,02736.76281,E,1,11,0.79,220.3,M,24.8,M,,*54

[1499588739676]$GPGSA,A,3,10,24,01,30,17,13,19,18,28,15,12,,1.59,0.79,1.38*06

[1499588739676]$GPGSV,3,1,11,01,13,047,32,10,13,325,34,12,15,239,21,13,43,183,33*79

[1499588739676]$GPGSV,3,2,11,15,52,241,39,17,51,110,27,18,14,298,33,19,40,146,33*71

[1499588739676]$GPGSV,3,3,11,24,42,289,39,28,36,063,34,30,09,110,29*4C

[1499588739676]$GPGLL,5357.88629,N,02736.76281,E,052539.00,A,A*62

[1499588740677]$GPRMC,052540.00,A,5357.89397,N,02736.74098,E,54.125,300.84,090717,,,A*52

[1499588740677]$GPVTG,300.84,T,,M,54.125,N,100.239,K,A*0C

[1499588740677]$GPGGA,052540.00,5357.89397,N,02736.74098,E,1,11,0.79,220.0,M,24.8,M,,*50

[1499588740677]$GPGSA,A,3,10,24,01,30,17,13,19,18,28,15,12,,1.59,0.79,1.38*06

[1499588740677]$GPGSV,3,1,11,01,13,047,31,10,13,325,33,12,15,239,30,13,43,183,33*7D

[1499588740677]$GPGSV,3,2,11,15,52,241,40,17,51,110,27,18,14,298,34,19,40,146,34*7F

[1499588740677]$GPGSV,3,3,11,24,42,289,39,28,36,063,36,30,09,110,30*46

[1499588740677]$GPGLL,5357.89397,N,02736.74098,E,052540.00,A,A*65

[1499588741666]$GPRMC,052541.00,A,5357.90165,N,02736.71915,E,54.099,300.82,090717,,,A*5D

[1499588741666]$GPVTG,300.82,T,,M,54.099,N,100.192,K,A*0E

[1499588741666]$GPGGA,052541.00,5357.90165,N,02736.71915,E,1,11,0.79,219.7,M,24.8,M,,*52

[1499588741666]$GPGSA,A,3,10,24,01,30,17,13,19,18,28,15,12,,1.59,0.79,1.38*06

[1499588741666]$GPGSV,3,1,11,01,13,047,27,10,13,325,32,12,15,239,30,13,43,183,33*7B

[1499588741666]$GPGSV,3,2,11,15,52,241,40,17,51,110,31,18,14,298,34,19,40,146,34*78

[1499588741666]$GPGSV,3,3,11,24,42,289,39,28,36,063,35,30,09,110,30*45

[1499588741666]$GPGLL,5357.90165,N,02736.71915,E,052541.00,A,A*6A

[1499588742677]$GPRMC,052542.00,A,5357.90937,N,02736.69734,E,54.114,301.02,090717,,,A*58

[1499588742677]$GPVTG,301.02,T,,M,54.114,N,100.219,K,A*03

[1499588742677]$GPGGA,052542.00,5357.90937,N,02736.69734,E,1,11,0.79,219.6,M,24.8,M,,*5B

[1499588742677]$GPGSA,A,3,10,24,01,30,17,13,19,18,28,15,12,,1.59,0.79,1.38*06

[1499588742677]$GPGSV,3,1,11,01,13,047,27,10,13,325,31,12,15,239,22,13,43,183,33*7B

[1499588742677]$GPGSV,3,2,11,15,52,241,40,17,51,110,30,18,14,298,34,19,40,146,34*79

[1499588742677]$GPGSV,3,3,11,24,42,289,39,28,36,063,34,30,09,110,29*4C

[1499588742677]$GPGLL,5357.90937,N,02736.69734,E,052542.00,A,A*62

[1499588743677]$GPRMC,052543.00,A,5357.91706,N,02736.67554,E,54.002,300.81,090717,,,A*52

[1499588743677]$GPVTG,300.81,T,,M,54.002,N,100.012,K,A*06

[1499588743677]$GPGGA,052543.00,5357.91706,N,02736.67554,E,1,11,0.79,219.6,M,24.8,M,,*5D

[1499588743677]$GPGSA,A,3,10,24,01,30,17,13,19,18,28,15,12,,1.59,0.79,1.38*06

[1499588743677]$GPGSV,3,1,11,01,13,047,25,10,13,325,31,12,15,239,20,13,43,183,31*79

[1499588743677]$GPGSV,3,2,11,15,52,241,40,17,51,110,32,18,14,298,34,19,40,146,34*7B

[1499588743677]$GPGSV,3,3,11,24,42,289,39,28,36,063,35,30,09,110,29*4D

[1499588743677]$GPGLL,5357.91706,N,02736.67554,E,052543.00,A,A*64

[1499588744677]$GPRMC,052544.00,A,5357.92469,N,02736.65371,E,53.926,300.44,090717,,,A*5E

[1499588744677]$GPVTG,300.44,T,,M,53.926,N,99.870,K,A*3A

[1499588744677]$GPGGA,052544.00,5357.92469,N,02736.65371,E,1,11,0.79,219.7,M,24.8,M,,*51

[1499588744677]$GPGSA,A,3,10,24,01,30,17,13,19,18,28,15,12,,1.59,0.79,1.38*06

[1499588744677]$GPGSV,3,1,11,01,13,047,24,10,13,325,31,12,15,239,17,13,43,183,31*7C

[1499588744677]$GPGSV,3,2,11,15,52,241,41,17,51,110,28,18,14,298,34,19,40,146,34*71

[1499588744677]$GPGSV,3,3,11,24,42,289,39,28,36,063,34,30,09,110,29*4C

[1499588744677]$GPGLL,5357.92469,N,02736.65371,E,052544.00,A,A*69

[1499588745679]$GPRMC,052545.00,A,5357.93224,N,02736.63188,E,53.869,300.47,090717,,,A*5A

[1499588745679]$GPVTG,300.47,T,,M,53.869,N,99.766,K,A*3B

[1499588745679]$GPGGA,052545.00,5357.93224,N,02736.63188,E,1,11,0.79,219.6,M,24.8,M,,*5D

[1499588745679]$GPGSA,A,3,10,24,01,30,17,13,19,18,28,15,12,,1.59,0.79,1.38*06

[1499588745679]$GPGSV,3,1,11,01,13,047,21,10,13,324,25,12,15,239,17,13,43,183,31*7D

[1499588745679]$GPGSV,3,2,11,15,52,241,41,17,51,110,32,18,14,298,34,19,40,146,34*7A

[1499588745679]$GPGSV,3,3,11,24,42,289,39,28,36,063,36,30,09,110,29*4E

[1499588745679]$GPGLL,5357.93224,N,02736.63188,E,052545.00,A,A*64

[1499588746676]$GPRMC,052546.00,A,5357.93986,N,02736.61010,E,53.875,300.67,090717,,,A*57

[1499588746676]$GPVTG,300.67,T,,M,53.875,N,99.776,K,A*35

[1499588746676]$GPGGA,052546.00,5357.93986,N,02736.61010,E,1,11,0.79,219.8,M,24.8,M,,*51

[1499588746676]$GPGSA,A,3,10,24,01,30,17,13,19,18,28,15,12,,1.59,0.79,1.38*06

[1499588746676]$GPGSV,3,1,11,01,13,047,20,10,13,324,25,12,15,239,17,13,43,183,32*7F

[1499588746676]$GPGSV,3,2,11,15,52,241,41,17,51,110,31,18,14,298,33,19,40,146,34*7E

[1499588746676]$GPGSV,3,3,11,24,42,289,37,28,36,063,36,30,09,110,31*49

[1499588746676]$GPGLL,5357.93986,N,02736.61010,E,052546.00,A,A*66

[1499588747677]$GPRMC,052547.00,A,5357.94745,N,02736.58828,E,53.838,300.58,090717,,,A*5C

[1499588747677]$GPVTG,300.58,T,,M,53.838,N,99.708,K,A*39

[1499588747677]$GPGGA,052547.00,5357.94745,N,02736.58828,E,1,11,0.79,219.9,M,24.8,M,,*5E

[1499588747677]$GPGSA,A,3,10,24,01,30,17,13,19,18,28,15,12,,1.59,0.79,1.38*06

[1499588747677]$GPGSV,3,1,11,01,13,047,18,10,13,324,34,12,15,239,18,13,42,183,32*7A

[1499588747677]$GPGSV,3,2,11,15,52,241,41,17,51,110,32,18,14,298,33,19,40,146,34*7D

[1499588747677]$GPGSV,3,3,11,24,42,289,37,28,36,063,35,30,09,110,31*4A

[1499588747677]$GPGLL,5357.94745,N,02736.58828,E,052547.00,A,A*68

[1499588748677]$GPRMC,052548.00,A,5357.95504,N,02736.56650,E,53.773,300.49,090717,,,A*5A

[1499588748677]$GPVTG,300.49,T,,M,53.773,N,99.588,K,A*33

[1499588748677]$GPGGA,052548.00,5357.95504,N,02736.56650,E,1,11,0.79,220.2,M,24.8,M,,*59

[1499588748677]$GPGSA,A,3,10,24,01,30,17,13,19,18,28,15,12,,1.59,0.79,1.38*06

[1499588748677]$GPGSV,3,1,11,01,13,047,16,10,13,324,31,12,15,239,17,13,42,183,32*7E

[1499588748677]$GPGSV,3,2,11,15,52,241,41,17,51,110,32,18,14,298,33,19,40,146,34*7D

[1499588748677]$GPGSV,3,3,11,24,42,289,37,28,36,063,35,30,09,110,31*4A

[1499588748677]$GPGLL,5357.95504,N,02736.56650,E,052548.00,A,A*6E

[1499588749677]$GPRMC,052549.00,A,5357.96264,N,02736.54474,E,53.726,300.65,090717,,,A*51

[1499588749677]$GPVTG,300.65,T,,M,53.726,N,99.500,K,A*3D

[1499588749677]$GPGGA,052549.00,5357.96264,N,02736.54474,E,1,11,0.79,220.6,M,24.8,M,,*58

[1499588749677]$GPGSA,A,3,10,24,01,30,17,13,19,18,28,15,12,,1.59,0.79,1.38*06

[1499588749677]$GPGSV,3,1,11,01,13,047,17,10,13,324,27,12,15,239,16,13,42,183,32*79

[1499588749677]$GPGSV,3,2,11,15,52,241,41,17,51,110,31,18,14,298,32,19,40,146,34*7F

[1499588749677]$GPGSV,3,3,11,24,42,289,37,28,36,063,35,30,09,110,31*4A

[1499588749677]$GPGLL,5357.96264,N,02736.54474,E,052549.00,A,A*6B

[1499588750677]$GPRMC,052550.00,A,5357.97024,N,02736.52298,E,53.731,300.64,090717,,,A*5B

[1499588750677]$GPVTG,300.64,T,,M,53.731,N,99.509,K,A*33

[1499588750677]$GPGGA,052550.00,5357.97024,N,02736.52298,E,1,11,0.79,221.0,M,24.8,M,,*52

[1499588750677]$GPGSA,A,3,10,24,01,30,17,13,19,18,28,15,12,,1.59,0.79,1.38*06

[1499588750677]$GPGSV,3,1,11,01,13,047,18,10,13,324,24,12,15,239,16,13,42,183,32*75

[1499588750677]$GPGSV,3,2,11,15,52,241,41,17,51,110,30,18,14,298,30,19,40,146,34*7C

[1499588750677]$GPGSV,3,3,11,24,42,289,37,28,36,063,35,30,09,110,32*49

[1499588750677]$GPGLL,5357.97024,N,02736.52298,E,052550.00,A,A*66

[1499588751676]$GPRMC,052551.00,A,5357.97783,N,02736.50119,E,53.792,300.67,090717,,,A*52

[1499588751676]$GPVTG,300.67,T,,M,53.792,N,99.623,K,A*32

[1499588751676]$GPGGA,052551.00,5357.97783,N,02736.50119,E,1,11,0.79,221.4,M,24.8,M,,*55

[1499588751676]$GPGSA,A,3,10,24,01,30,17,13,19,18,28,15,12,,1.59,0.79,1.38*06

[1499588751676]$GPGSV,3,1,11,01,13,047,27,10,13,324,22,12,15,239,17,13,42,183,32*7E

[1499588751676]$GPGSV,3,2,11,15,52,241,41,17,51,110,30,18,14,298,31,19,40,146,34*7D

[1499588751676]$GPGSV,3,3,11,24,42,289,36,28,36,063,35,30,09,110,31*4B

[1499588751676]$GPGLL,5357.97783,N,02736.50119,E,052551.00,A,A*65

[1499588752666]$GPRMC,052552.00,A,5357.98541,N,02736.47942,E,53.782,300.65,090717,,,A*51

[1499588752666]$GPVTG,300.65,T,,M,53.782,N,99.605,K,A*35

[1499588752666]$GPGGA,052552.00,5357.98541,N,02736.47942,E,1,11,0.79,221.8,M,24.8,M,,*59

[1499588752666]$GPGSA,A,3,10,24,01,30,17,13,19,18,28,15,12,,1.59,0.79,1.38*06

[1499588752666]$GPGSV,3,1,11,01,13,047,26,10,13,324,19,12,15,239,18,13,42,183,32*78

[1499588752666]$GPGSV,3,2,11,15,52,241,40,17,51,110,30,18,14,298,30,19,40,146,34*7D

[1499588752666]$GPGSV,3,3,11,24,42,289,36,28,36,063,33,30,09,110,31*4D

[1499588752666]$GPGLL,5357.98541,N,02736.47942,E,052552.00,A,A*65

[1499588753679]$GPRMC,052553.00,A,5357.99299,N,02736.45759,E,53.919,300.61,090717,,,A*5D

[1499588753679]$GPVTG,300.61,T,,M,53.919,N,99.858,K,A*3B

[1499588753679]$GPGGA,052553.00,5357.99299,N,02736.45759,E,1,11,0.79,222.1,M,24.8,M,,*57

[1499588753679]$GPGSA,A,3,10,24,01,30,17,13,19,18,28,15,12,,1.59,0.79,1.38*06

[1499588753679]$GPGSV,3,1,11,01,13,047,24,10,13,324,19,12,15,239,18,13,42,183,32*7A

[1499588753679]$GPGSV,3,2,11,15,52,241,41,17,51,110,31,18,14,298,31,19,41,146,33*7A

[1499588753679]$GPGSV,3,3,11,24,42,289,37,28,36,063,31,30,09,110,30*4F

[1499588753679]$GPGLL,5357.99299,N,02736.45759,E,052553.00,A,A*61

[1499588754676]$GPRMC,052554.00,A,5358.00063,N,02736.43575,E,53.934,300.69,090717,,,A*5F

[1499588754676]$GPVTG,300.69,T,,M,53.934,N,99.885,K,A*3C

[1499588754676]$GPGGA,052554.00,5358.00063,N,02736.43575,E,1,11,0.94,222.4,M,24.8,M,,*54

[1499588754676]$GPGSA,A,3,10,24,01,30,17,13,19,18,28,15,12,,1.88,0.94,1.63*07

[1499588754676]$GPGSV,3,1,11,01,13,047,21,10,13,324,19,12,15,239,17,13,42,183,32*70

[1499588754676]$GPGSV,3,2,11,15,52,241,41,17,51,110,31,18,14,298,32,19,41,146,33*79

[1499588754676]$GPGSV,3,3,11,24,42,289,37,28,36,063,32,30,09,110,31*4D

[1499588754676]$GPGLL,5358.00063,N,02736.43575,E,052554.00,A,A*64

[1499588755677]$GPRMC,052555.00,A,5358.00835,N,02736.41389,E,54.093,300.94,090717,,,A*53

[1499588755677]$GPVTG,300.94,T,,M,54.093,N,100.180,K,A*00

[1499588755677]$GPGGA,052555.00,5358.00835,N,02736.41389,E,1,11,0.79,222.7,M,24.8,M,,*59

[1499588755677]$GPGSA,A,3,10,24,01,30,17,13,19,18,28,15,12,,1.59,0.79,1.38*06

