[1499552950577]$GPRMC,192910.00,A,5357.23109,N,02741.20858,E,0.007,,080717,,,A*76

[1499552950577]$GPVTG,,T,,M,0.007,N,0.014,K,A*21

[1499552950577]$GPGGA,192910.00,5357.23109,N,02741.20858,E,1,10,1.17,224.5,M,24.7,M,,*52

[1499552950577]$GPGSA,A,3,22,01,14,03,11,32,17,31,19,23,,,2.20,1.17,1.86*01

[1499552950577]$GPGSV,4,1,13,01,75,214,23,03,50,269,28,04,14,130,16,08,01,193,*7C

[1499552950577]$GPGSV,4,2,13,11,49,196,33,12,04,018,,14,51,067,39,17,29,307,32*72

[1499552950577]$GPGSV,4,3,13,19,16,326,31,22,78,264,30,23,14,215,19,31,28,110,28*72

[1499552950577]$GPGSV,4,4,13,32,32,056,27*4D

[1499552950577]$GPGLL,5357.23109,N,02741.20858,E,192910.00,A,A*61

[1499552951576]$GPRMC,192911.00,A,5357.23111,N,02741.20858,E,0.061,,080717,,,A*7E

[1499552951576]$GPVTG,,T,,M,0.061,N,0.113,K,A*27

[1499552951576]$GPGGA,192911.00,5357.23111,N,02741.20858,E,1,10,1.17,224.6,M,24.7,M,,*59

[1499552951576]$GPGSA,A,3,22,01,14,03,11,32,17,31,19,23,,,2.20,1.17,1.86*01

[1499552951576]$GPGSV,4,1,13,01,75,214,24,03,50,269,30,04,14,130,15,08,01,193,*71

[1499552951576]$GPGSV,4,2,13,11,49,196,34,12,04,018,,14,51,067,39,17,29,307,31*76

[1499552951576]$GPGSV,4,3,13,19,16,326,30,22,78,264,31,23,14,215,19,31,28,110,26*7C

[1499552951576]$GPGSV,4,4,13,32,32,056,26*4C

[1499552951576]$GPGLL,5357.23111,N,02741.20858,E,192911.00,A,A*69

[1499552952566]$GPRMC,192912.00,A,5357.23111,N,02741.20854,E,0.019,,080717,,,A*7E

[1499552952566]$GPVTG,,T,,M,0.019,N,0.035,K,A*2D

[1499552952566]$GPGGA,192912.00,5357.23111,N,02741.20854,E,1,10,1.17,224.6,M,24.7,M,,*56

[1499552952566]$GPGSA,A,3,22,01,14,03,11,32,17,31,19,23,,,2.20,1.17,1.86*01

[1499552952566]$GPGSV,4,1,13,01,75,214,23,03,50,269,29,04,14,130,14,08,01,193,*7F

[1499552952566]$GPGSV,4,2,13,11,49,196,33,12,04,018,,14,51,067,40,17,29,307,29*76

[1499552952566]$GPGSV,4,3,13,19,16,326,30,22,78,264,31,23,14,215,19,31,28,110,26*7C

[1499552952566]$GPGSV,4,4,13,32,32,056,27*4D

[1499552952566]$GPGLL,5357.23111,N,02741.20854,E,192912.00,A,A*66

[1499552953566]$GPRMC,192913.00,A,5357.23115,N,02741.20852,E,0.024,,080717,,,A*73

[1499552953566]$GPVTG,,T,,M,0.024,N,0.044,K,A*25

[1499552953566]$GPGGA,192913.00,5357.23115,N,02741.20852,E,1,10,1.17,224.6,M,24.7,M,,*55

[1499552953566]$GPGSA,A,3,22,01,14,03,11,32,17,31,19,23,,,2.20,1.17,1.86*01

[1499552953566]$GPGSV,4,1,13,01,75,214,25,03,50,269,30,04,14,130,16,08,01,193,*73

[1499552953566]$GPGSV,4,2,13,11,49,196,34,12,04,018,,14,51,067,37,17,29,307,29*71

[1499552953566]$GPGSV,4,3,13,19,16,326,29,22,78,264,30,23,14,215,19,31,28,110,25*76

[1499552953566]$GPGSV,4,4,13,32,32,056,27*4D

[1499552953566]$GPGLL,5357.23115,N,02741.20852,E,192913.00,A,A*65

[1499552954566]$GPRMC,192914.00,A,5357.23119,N,02741.20848,E,0.048,,080717,,,A*79

[1499552954566]$GPVTG,,T,,M,0.048,N,0.089,K,A*2E

[1499552954566]$GPGGA,192914.00,5357.23119,N,02741.20848,E,1,10,1.17,224.7,M,24.7,M,,*54

[1499552954566]$GPGSA,A,3,22,01,14,03,11,32,17,31,19,23,,,2.20,1.17,1.86*01

[1499552954566]$GPGSV,4,1,13,01,75,214,23,03,50,269,29,04,14,130,16,08,01,193,*7D

[1499552954566]$GPGSV,4,2,13,11,49,196,34,12,04,018,,14,51,067,39,17,29,307,27*71

[1499552954566]$GPGSV,4,3,13,19,16,326,29,22,78,264,30,23,14,215,19,31,28,110,26*75

[1499552954566]$GPGSV,4,4,13,32,32,056,27*4D

[1499552954566]$GPGLL,5357.23119,N,02741.20848,E,192914.00,A,A*65

[1499552955576]$GPRMC,192915.00,A,5357.23121,N,02741.20849,E,0.070,,080717,,,A*79

[1499552955576]$GPVTG,,T,,M,0.070,N,0.129,K,A*2E

[1499552955576]$GPGGA,192915.00,5357.23121,N,02741.20849,E,1,10,1.17,224.7,M,24.7,M,,*5F

[1499552955576]$GPGSA,A,3,22,01,14,03,11,32,17,31,19,23,,,2.34,1.17,2.03*0A

[1499552955576]$GPGSV,4,1,13,01,75,214,30,03,50,269,29,04,14,130,16,08,01,193,*7F

[1499552955576]$GPGSV,4,2,13,11,49,196,35,12,04,018,,14,51,067,39,17,29,307,28*7F

[1499552955576]$GPGSV,4,3,13,19,16,326,30,22,78,264,30,23,14,215,19,31,28,110,25*7E

[1499552955576]$GPGSV,4,4,13,32,32,056,29*43

[1499552955576]$GPGLL,5357.23121,N,02741.20849,E,192915.00,A,A*6E

[1499552956566]$GPRMC,192916.00,A,5357.23121,N,02741.20850,E,0.069,,080717,,,A*7A

[1499552956566]$GPVTG,,T,,M,0.069,N,0.128,K,A*27

[1499552956566]$GPGGA,192916.00,5357.23121,N,02741.20850,E,1,10,1.17,224.6,M,24.7,M,,*55

[1499552956566]$GPGSA,A,3,22,01,14,03,11,32,17,31,19,23,,,2.20,1.17,1.86*01

[1499552956566]$GPGSV,4,1,13,01,75,214,28,03,50,269,28,04,14,130,14,08,01,193,*75

[1499552956566]$GPGSV,4,2,13,11,49,196,34,12,04,018,,14,51,067,39,17,29,307,28*7E

[1499552956566]$GPGSV,4,3,13,19,16,326,29,22,78,264,31,23,14,215,18,31,28,110,25*76

[1499552956566]$GPGSV,4,4,13,32,32,056,28*42

[1499552956566]$GPGLL,5357.23121,N,02741.20850,E,192916.00,A,A*65

[1499552957576]$GPRMC,192917.00,A,5357.23122,N,02741.20853,E,0.038,,080717,,,A*7F

[1499552957576]$GPVTG,,T,,M,0.038,N,0.070,K,A*2F

[1499552957576]$GPGGA,192917.00,5357.23122,N,02741.20853,E,1,10,1.17,224.6,M,24.7,M,,*54

[1499552957576]$GPGSA,A,3,22,01,14,03,11,32,17,31,19,23,,,2.20,1.17,1.86*01

[1499552957576]$GPGSV,4,1,13,01,75,214,28,03,50,269,28,04,14,130,12,08,01,193,*73

[1499552957576]$GPGSV,4,2,13,11,49,196,34,12,04,018,,14,51,067,38,17,29,307,28*7F

[1499552957576]$GPGSV,4,3,13,19,16,326,29,22,78,264,31,23,14,215,17,31,28,110,25*79

[1499552957576]$GPGSV,4,4,13,32,32,056,29*43

[1499552957576]$GPGLL,5357.23122,N,02741.20853,E,192917.00,A,A*64

[1499552958566]$GPRMC,192918.00,A,5357.23126,N,02741.20857,E,0.050,,080717,,,A*7E

[1499552958566]$GPVTG,,T,,M,0.050,N,0.092,K,A*2D

[1499552958566]$GPGGA,192918.00,5357.23126,N,02741.20857,E,1,10,1.17,224.7,M,24.7,M,,*5A

[1499552958566]$GPGSA,A,3,22,01,14,03,11,32,17,31,19,23,,,2.20,1.17,1.87*00

[1499552958566]$GPGSV,4,1,13,01,75,214,28,03,50,269,28,04,14,130,10,08,01,193,*71

[1499552958566]$GPGSV,4,2,13,11,49,196,34,12,04,018,,14,51,067,38,17,29,307,28*7F

[1499552958566]$GPGSV,4,3,13,19,16,326,29,22,78,264,31,23,14,215,17,31,28,110,25*79

[1499552958566]$GPGSV,4,4,13,32,32,056,28*42

[1499552958566]$GPGLL,5357.23126,N,02741.20857,E,192918.00,A,A*6B

[1499552959566]$GPRMC,192919.00,A,5357.23127,N,02741.20860,E,0.023,,080717,,,A*7E

[1499552959566]$GPVTG,,T,,M,0.023,N,0.042,K,A*24

[1499552959566]$GPGGA,192919.00,5357.23127,N,02741.20860,E,1,10,1.17,224.6,M,24.7,M,,*5F

[1499552959566]$GPGSA,A,3,22,01,14,03,11,32,17,31,19,23,,,2.20,1.17,1.87*00

[1499552959566]$GPGSV,4,1,13,01,75,214,27,03,50,269,27,04,14,130,10,08,01,193,*71

[1499552959566]$GPGSV,4,2,13,11,49,196,34,12,04,018,,14,51,067,38,17,29,307,28*7F

[1499552959566]$GPGSV,4,3,13,19,16,326,29,22,78,264,31,23,14,215,16,31,28,110,25*78

[1499552959566]$GPGSV,4,4,13,32,32,056,28*42

[1499552959566]$GPGLL,5357.23127,N,02741.20860,E,192919.00,A,A*6F

[1499552960566]$GPRMC,192920.00,A,5357.23129,N,02741.20868,E,0.069,,080717,,,A*7C

[1499552960566]$GPVTG,,T,,M,0.069,N,0.127,K,A*28

[1499552960566]$GPGGA,192920.00,5357.23129,N,02741.20868,E,1,10,1.17,224.6,M,24.7,M,,*53

[1499552960566]$GPGSA,A,3,22,01,14,03,11,32,17,31,19,23,,,2.20,1.17,1.87*00

[1499552960566]$GPGSV,4,1,13,01,75,214,27,03,50,269,27,04,14,130,09,08,01,193,*79

[1499552960566]$GPGSV,4,2,13,11,49,196,35,12,04,018,,14,51,067,39,17,29,307,30*76

[1499552960566]$GPGSV,4,3,13,19,16,326,30,22,78,264,32,23,14,215,17,31,28,110,24*73

[1499552960566]$GPGSV,4,4,13,32,32,056,29*43

[1499552960566]$GPGLL,5357.23129,N,02741.20868,E,192920.00,A,A*63

[1499552961566]$GPRMC,192921.00,A,5357.23130,N,02741.20878,E,0.085,,080717,,,A*76

[1499552961566]$GPVTG,,T,,M,0.085,N,0.158,K,A*22

[1499552961566]$GPGGA,192921.00,5357.23130,N,02741.20878,E,1,10,1.17,224.6,M,24.7,M,,*5B

[1499552961566]$GPGSA,A,3,22,01,14,03,11,32,17,31,19,23,,,2.20,1.17,1.87*00

[1499552961566]$GPGSV,4,1,13,01,75,214,26,03,50,269,29,04,14,130,08,08,01,193,*77

[1499552961566]$GPGSV,4,2,13,11,49,196,34,12,04,018,,14,51,067,39,17,29,307,28*7E

[1499552961566]$GPGSV,4,3,13,19,16,326,30,22,78,264,30,23,14,215,17,31,28,110,23*76

[1499552961566]$GPGSV,4,4,13,32,32,056,28*42

[1499552961566]$GPGLL,5357.23130,N,02741.20878,E,192921.00,A,A*6B

[1499552962566]$GPRMC,192922.00,A,5357.23135,N,02741.20879,E,0.031,,080717,,,A*7E

[1499552962566]$GPVTG,,T,,M,0.031,N,0.057,K,A*23

[1499552962566]$GPGGA,192922.00,5357.23135,N,02741.20879,E,1,10,1.17,224.7,M,24.7,M,,*5D

[1499552962566]$GPGSA,A,3,22,01,14,03,11,32,17,31,19,23,,,2.20,1.17,1.87*00

[1499552962566]$GPGSV,4,1,13,01,75,214,24,03,50,269,29,04,14,130,08,08,01,193,*75

[1499552962566]$GPGSV,4,2,13,11,49,196,33,12,04,018,,14,51,067,39,17,29,307,28*79

[1499552962566]$GPGSV,4,3,13,19,16,326,29,22,78,264,32,23,14,215,18,31,28,110,22*72

[1499552962566]$GPGSV,4,4,13,32,32,056,14*4D

[1499552962566]$GPGLL,5357.23135,N,02741.20879,E,192922.00,A,A*6C

[1499552963576]$GPRMC,192923.00,A,5357.23138,N,02741.20884,E,0.041,,080717,,,A*77

[1499552963576]$GPVTG,,T,,M,0.041,N,0.075,K,A*24

[1499552963576]$GPGGA,192923.00,5357.23138,N,02741.20884,E,1,10,1.17,224.8,M,24.7,M,,*5C

[1499552963576]$GPGSA,A,3,22,01,14,03,11,32,17,31,19,23,,,2.20,1.17,1.87*00

[1499552963576]$GPGSV,4,1,13,01,75,214,22,03,50,269,29,04,14,130,08,08,01,193,*73

[1499552963576]$GPGSV,4,2,13,11,49,196,34,12,04,018,,14,51,067,39,17,29,307,27*71

[1499552963576]$GPGSV,4,3,13,19,16,326,30,22,78,264,32,23,14,215,18,31,28,110,20*78

[1499552963576]$GPGSV,4,4,13,32,32,056,16*4F

[1499552963576]$GPGLL,5357.23138,N,02741.20884,E,192923.00,A,A*62

[1499552964567]$GPRMC,192924.00,A,5357.23142,N,02741.20889,E,0.028,,080717,,,A*7F

[1499552964567]$GPVTG,,T,,M,0.028,N,0.052,K,A*2E

[1499552964567]$GPGGA,192924.00,5357.23142,N,02741.20889,E,1,10,1.17,224.8,M,24.7,M,,*5B

[1499552964567]$GPGSA,A,3,22,01,14,03,11,32,17,31,19,23,,,2.20,1.17,1.87*00

[1499552964567]$GPGSV,4,1,13,01,75,214,22,03,50,269,28,04,14,130,08,08,01,193,*72

[1499552964567]$GPGSV,4,2,13,11,49,196,34,12,04,018,,14,51,067,39,17,29,307,27*71

[1499552964567]$GPGSV,4,3,13,19,16,326,29,22,78,264,31,23,14,215,18,31,28,110,20*73

[1499552964567]$GPGSV,4,4,13,32,32,056,20*4A

[1499552964567]$GPGLL,5357.23142,N,02741.20889,E,192924.00,A,A*65

[1499552965576]$GPRMC,192925.00,A,5357.23143,N,02741.20893,E,0.069,,080717,,,A*71

[1499552965576]$GPVTG,,T,,M,0.069,N,0.128,K,A*27

[1499552965576]$GPGGA,192925.00,5357.23143,N,02741.20893,E,1,10,1.17,224.8,M,24.7,M,,*50

[1499552965576]$GPGSA,A,3,22,01,14,03,11,32,17,31,19,23,,,2.20,1.17,1.87*00

[1499552965576]$GPGSV,4,1,13,01,75,214,23,03,50,269,28,04,14,130,08,08,01,193,*73

[1499552965576]$GPGSV,4,2,13,11,49,196,34,12,04,018,,14,51,067,39,17,29,307,27*71

[1499552965576]$GPGSV,4,3,13,19,16,326,29,22,78,264,31,23,14,215,18,31,28,110,22*71

[1499552965576]$GPGSV,4,4,13,32,32,056,21*4B

[1499552965576]$GPGLL,5357.23143,N,02741.20893,E,192925.00,A,A*6E

[1499552966569]$GPRMC,192926.00,A,5357.23145,N,02741.20896,E,0.009,,080717,,,A*77

[1499552966569]$GPVTG,,T,,M,0.009,N,0.016,K,A*2D

[1499552966569]$GPGGA,192926.00,5357.23145,N,02741.20896,E,1,10,1.17,224.9,M,24.7,M,,*51

[1499552966569]$GPGSA,A,3,22,01,14,03,11,32,17,31,19,23,,,2.20,1.17,1.87*00

[1499552966569]$GPGSV,4,1,13,01,75,214,25,03,50,269,28,04,14,130,08,08,01,193,*75

[1499552966569]$GPGSV,4,2,13,11,49,196,34,12,04,018,,14,51,067,38,17,29,307,28*7F

[1499552966569]$GPGSV,4,3,13,19,16,326,28,22,78,264,30,23,14,215,17,31,28,110,23*7F

[1499552966569]$GPGSV,4,4,13,32,32,056,22*48

[1499552966569]$GPGLL,5357.23145,N,02741.20896,E,192926.00,A,A*6E

[1499552967576]$GPRMC,192927.00,A,5357.23148,N,02741.20899,E,0.045,,080717,,,A*7C

[1499552967576]$GPVTG,,T,,M,0.045,N,0.083,K,A*29

[1499552967576]$GPGGA,192927.00,5357.23148,N,02741.20899,E,1,10,1.17,225.1,M,24.7,M,,*5B

[1499552967576]$GPGSA,A,3,22,01,14,03,11,32,17,31,19,23,,,2.20,1.17,1.87*00

[1499552967576]$GPGSV,4,1,13,01,75,214,25,03,50,269,27,04,14,130,08,08,01,193,*7A

[1499552967576]$GPGSV,4,2,13,11,49,196,34,12,04,018,,14,51,067,38,17,29,307,29*7E

[1499552967576]$GPGSV,4,3,13,19,16,326,28,22,78,264,30,23,14,215,17,31,28,110,23*7F

[1499552967576]$GPGSV,4,4,13,32,32,056,21*4B

[1499552967576]$GPGLL,5357.23148,N,02741.20899,E,192927.00,A,A*6D

[1499552968576]$GPRMC,192928.00,A,5357.23146,N,02741.20899,E,0.101,,080717,,,A*7C

[1499552968576]$GPVTG,,T,,M,0.101,N,0.188,K,A*22

[1499552968576]$GPGGA,192928.00,5357.23146,N,02741.20899,E,1,10,1.17,225.1,M,24.7,M,,*5A

[1499552968576]$GPGSA,A,3,22,01,14,03,11,32,17,31,19,23,,,2.20,1.17,1.87*00

[1499552968576]$GPGSV,4,1,13,01,75,212,26,03,50,269,27,04,14,130,08,08,01,193,*7F

[1499552968576]$GPGSV,4,2,13,11,49,196,34,12,04,018,,14,51,067,39,17,29,307,29*7F

[1499552968576]$GPGSV,4,3,13,19,16,326,30,22,78,264,30,23,14,215,18,31,28,110,22*78

[1499552968576]$GPGSV,4,4,13,32,32,056,25*4F

[1499552968576]$GPGLL,5357.23146,N,02741.20899,E,192928.00,A,A*6C

[1499552969576]$GPRMC,192929.00,A,5357.23144,N,02741.20897,E,0.070,,080717,,,A*76

[1499552969576]$GPVTG,,T,,M,0.070,N,0.130,K,A*26

[1499552969576]$GPGGA,192929.00,5357.23144,N,02741.20897,E,1,10,1.17,225.1,M,24.7,M,,*57

[1499552969576]$GPGSA,A,3,22,01,14,03,11,32,17,31,19,23,,,2.20,1.17,1.87*00

[1499552969576]$GPGSV,4,1,13,01,75,212,27,03,50,269,27,04,14,130,08,08,01,193,*7E

[1499552969576]$GPGSV,4,2,13,11,49,196,34,12,04,018,,14,51,067,39,17,29,307,30*77

[1499552969576]$GPGSV,4,3,13,19,16,326,30,22,78,264,30,23,14,215,18,31,28,110,21*7B

[1499552969576]$GPGSV,4,4,13,32,32,056,27*4D

[1499552969576]$GPGLL,5357.23144,N,02741.20897,E,192929.00,A,A*61

[1499552970566]$GPRMC,192930.00,A,5357.23148,N,02741.20894,E,0.019,,080717,,,A*7E

[1499552970566]$GPVTG,,T,,M,0.019,N,0.035,K,A*2D

[1499552970566]$GPGGA,192930.00,5357.23148,N,02741.20894,E,1,10,1.17,225.2,M,24.7,M,,*53

[1499552970566]$GPGSA,A,3,22,01,14,03,11,32,17,31,19,23,,,2.20,1.17,1.87*00

[1499552970566]$GPGSV,4,1,13,01,75,212,25,03,50,270,27,04,14,130,08,08,01,193,*74

[1499552970566]$GPGSV,4,2,13,11,49,196,35,12,04,018,,14,51,067,39,17,29,307,30*76

[1499552970566]$GPGSV,4,3,13,19,16,326,30,22,78,264,28,23,14,215,19,31,28,110,21*73

[1499552970566]$GPGSV,4,4,13,32,32,056,27*4D

[1499552970566]$GPGLL,5357.23148,N,02741.20894,E,192930.00,A,A*66

[1499552971566]$GPRMC,192931.00,A,5357.23149,N,02741.20890,E,0.061,,080717,,,A*75

[1499552971566]$GPVTG,,T,,M,0.061,N,0.113,K,A*27

[1499552971566]$GPGGA,192931.00,5357.23149,N,02741.20890,E,1,10,1.17,225.2,M,24.7,M,,*57

[1499552971566]$GPGSA,A,3,22,01,14,03,11,32,17,31,19,23,,,2.20,1.17,1.87*00

[1499552971566]$GPGSV,4,1,13,01,75,212,26,03,50,270,26,04,15,130,08,08,01,193,*77

[1499552971566]$GPGSV,4,2,13,11,49,196,35,12,04,018,,14,51,067,39,17,29,307,30*76

[1499552971566]$GPGSV,4,3,13,19,16,326,30,22,78,264,28,23,14,215,19,31,28,110,20*72

[1499552971566]$GPGSV,4,4,13,32,32,056,27*4D

[1499552971566]$GPGLL,5357.23149,N,02741.20890,E,192931.00,A,A*62

[1499552972566]$GPRMC,192932.00,A,5357.23151,N,02741.20890,E,0.041,,080717,,,A*7D

[1499552972566]$GPVTG,,T,,M,0.041,N,0.076,K,A*27

[1499552972566]$GPGGA,192932.00,5357.23151,N,02741.20890,E,1,10,1.17,225.5,M,24.7,M,,*5A

[1499552972566]$GPGSA,A,3,22,01,14,03,11,32,17,31,19,23,,,2.20,1.17,1.87*00

[1499552972566]$GPGSV,4,1,13,01,75,212,31,03,50,270,23,04,15,130,,08,01,193,*7C

[1499552972566]$GPGSV,4,2,13,11,49,196,34,12,04,018,,14,51,067,38,17,29,307,30*76

[1499552972566]$GPGSV,4,3,13,19,16,326,29,22,78,264,29,23,14,215,18,31,28,110,20*7A

[1499552972566]$GPGSV,4,4,13,32,32,056,28*42

[1499552972566]$GPGLL,5357.23151,N,02741.20890,E,192932.00,A,A*68

[1499552973581]$GPRMC,192933.00,A,5357.23147,N,02741.20893,E,0.136,,080717,,,A*79

[1499552973581]$GPVTG,,T,,M,0.136,N,0.253,K,A*23

[1499552973581]$GPGGA,192933.00,5357.23147,N,02741.20893,E,1,10,1.17,225.3,M,24.7,M,,*59

[1499552973581]$GPGSA,A,3,22,01,14,03,11,32,17,31,19,23,,,2.20,1.17,1.87*00

[1499552973581]$GPGSV,4,1,13,01,75,212,24,03,50,270,20,04,15,130,,08,01,193,*7B

[1499552973581]$GPGSV,4,2,13,11,49,196,34,12,04,018,,14,51,067,38,17,29,307,30*76

[1499552973581]$GPGSV,4,3,13,19,16,326,29,22,78,264,29,23,14,215,17,31,28,110,18*7E

[1499552973581]$GPGSV,4,4,13,32,32,056,28*42

[1499552973581]$GPGLL,5357.23147,N,02741.20893,E,192933.00,A,A*6D

[1499552974566]$GPRMC,192934.00,A,5357.23146,N,02741.20892,E,0.064,,080717,,,A*78

[1499552974566]$GPVTG,,T,,M,0.064,N,0.118,K,A*29

[1499552974566]$GPGGA,192934.00,5357.23146,N,02741.20892,E,1,10,1.17,225.2,M,24.7,M,,*5F

[1499552974566]$GPGSA,A,3,22,01,14,03,11,32,17,31,19,23,,,2.20,1.17,1.87*00

[1499552974566]$GPGSV,4,1,13,01,75,212,30,03,50,270,15,04,15,130,05,08,01,193,*7D

[1499552974566]$GPGSV,4,2,13,11,49,196,34,12,04,018,,14,51,067,40,17,29,307,30*79

[1499552974566]$GPGSV,4,3,13,19,16,326,29,22,78,264,28,23,14,215,16,31,28,110,19*7F

[1499552974566]$GPGSV,4,4,13,32,32,056,28*42

[1499552974566]$GPGLL,5357.23146,N,02741.20892,E,192934.00,A,A*6A

[1499552975566]$GPRMC,192935.00,A,5357.23146,N,02741.20893,E,0.057,,080717,,,A*78

[1499552975566]$GPVTG,,T,,M,0.057,N,0.106,K,A*26

[1499552975566]$GPGGA,192935.00,5357.23146,N,02741.20893,E,1,10,1.17,225.3,M,24.7,M,,*5E

[1499552975566]$GPGSA,A,3,22,01,14,03,11,32,17,31,19,23,,,2.20,1.17,1.87*00

[1499552975566]$GPGSV,4,1,13,01,75,212,29,03,50,270,19,04,15,130,08,08,01,192,*75

[1499552975566]$GPGSV,4,2,13,11,49,196,34,12,04,018,,14,51,067,40,17,29,307,31*78

[1499552975566]$GPGSV,4,3,13,19,16,326,29,22,78,264,28,23,14,215,15,31,28,110,19*7C

[1499552975566]$GPGSV,4,4,13,32,32,056,28*42

[1499552975566]$GPGLL,5357.23146,N,02741.20893,E,192935.00,A,A*6A

[1499552976566]$GPRMC,192936.00,A,5357.23143,N,02741.20898,E,0.067,,080717,,,A*76

[1499552976566]$GPVTG,,T,,M,0.067,N,0.124,K,A*25

[1499552976566]$GPGGA,192936.00,5357.23143,N,02741.20898,E,1,09,1.17,225.3,M,24.7,M,,*5B

[1499552976566]$GPGSA,A,3,22,01,14,03,11,32,17,31,19,,,,2.20,1.17,1.87*01

[1499552976566]$GPGSV,4,1,13,01,75,212,28,03,50,270,29,04,15,130,11,08,01,192,*7F

[1499552976566]$GPGSV,4,2,13,11,49,196,33,12,04,018,,14,51,067,40,17,29,307,35*7B

[1499552976566]$GPGSV,4,3,13,19,16,326,29,22,78,264,29,23,14,215,16,31,28,110,20*74

[1499552976566]$GPGSV,4,4,13,32,32,056,27*4D

[1499552976566]$GPGLL,5357.23143,N,02741.20898,E,192936.00,A,A*67

[1499552977566]$GPRMC,192937.00,A,5357.23135,N,02741.20905,E,0.203,,080717,,,A*73

[1499552977566]$GPVTG,,T,,M,0.203,N,0.375,K,A*23

[1499552977566]$GPGGA,192937.00,5357.23135,N,02741.20905,E,1,09,1.17,224.9,M,24.7,M,,*55

[1499552977566]$GPGSA,A,3,22,01,14,03,11,32,17,31,19,,,,2.20,1.17,1.87*01

[1499552977566]$GPGSV,4,1,13,01,75,212,27,03,50,270,29,04,15,130,14,08,01,192,*75

[1499552977566]$GPGSV,4,2,13,11,49,196,27,12,04,018,,14,51,067,38,17,29,307,32*76

[1499552977566]$GPGSV,4,3,13,19,16,326,19,22,78,264,27,23,14,215,16,31,28,110,18*72

[1499552977566]$GPGSV,4,4,13,32,32,056,24*4E

[1499552977566]$GPGLL,5357.23135,N,02741.20905,E,192937.00,A,A*62

[1499552978566]$GPRMC,192938.00,A,5357.23142,N,02741.20900,E,0.118,,080717,,,A*70

[1499552978566]$GPVTG,,T,,M,0.118,N,0.219,K,A*21

[1499552978566]$GPGGA,192938.00,5357.23142,N,02741.20900,E,1,09,1.17,225.1,M,24.7,M,,*56

[1499552978566]$GPGSA,A,3,22,01,14,03,11,32,17,31,19,,,,2.20,1.17,1.87*01

[1499552978566]$GPGSV,4,1,13,01,75,212,30,03,50,270,32,04,15,130,12,08,01,192,*7F

[1499552978566]$GPGSV,4,2,13,11,48,196,30,12,04,018,,14,51,067,39,17,29,307,32*70

[1499552978566]$GPGSV,4,3,13,19,16,326,29,22,78,264,26,23,14,215,14,31,28,110,20*79

[1499552978566]$GPGSV,4,4,13,32,32,056,22*48

[1499552978566]$GPGLL,5357.23142,N,02741.20900,E,192938.00,A,A*68

[1499552979577]$GPRMC,192939.00,A,5357.23147,N,02741.20901,E,0.086,,080717,,,A*73

[1499552979577]$GPVTG,,T,,M,0.086,N,0.159,K,A*20

[1499552979577]$GPGGA,192939.00,5357.23147,N,02741.20901,E,1,09,1.17,224.9,M,24.7,M,,*5A

[1499552979577]$GPGSA,A,3,22,01,14,03,11,32,17,31,19,,,,2.20,1.17,1.87*01

[1499552979577]$GPGSV,4,1,13,01,75,212,35,03,50,270,33,04,15,130,10,08,01,192,*79

[1499552979577]$GPGSV,4,2,13,11,48,196,30,12,04,018,,14,51,067,39,17,29,307,33*71

[1499552979577]$GPGSV,4,3,13,19,16,326,27,22,78,264,32,23,14,215,09,31,28,110,19*74

[1499552979577]$GPGSV,4,4,13,32,32,056,21*4B

[1499552979577]$GPGLL,5357.23147,N,02741.20901,E,192939.00,A,A*6D

[1499552980567]$GPRMC,192940.00,A,5357.23147,N,02741.20900,E,0.154,,080717,,,A*72

[1499552980567]$GPVTG,,T,,M,0.154,N,0.285,K,A*2C

[1499552980567]$GPGGA,192940.00,5357.23147,N,02741.20900,E,1,09,1.17,224.8,M,24.7,M,,*54

[1499552980567]$GPGSA,A,3,22,01,14,03,11,32,17,31,19,,,,2.20,1.17,1.87*01

[1499552980567]$GPGSV,4,1,13,01,75,212,34,03,50,270,33,04,15,130,11,08,01,192,*79

[1499552980567]$GPGSV,4,2,13,11,48,196,30,12,04,018,,14,51,067,39,17,29,307,33*71

[1499552980567]$GPGSV,4,3,13,19,16,326,29,22,78,264,26,23,14,215,08,31,28,110,21*75

[1499552980567]$GPGSV,4,4,13,32,32,056,25*4F

[1499552980567]$GPGLL,5357.23147,N,02741.20900,E,192940.00,A,A*62

[1499552981576]$GPRMC,192941.00,A,5357.23149,N,02741.20898,E,0.335,,080717,,,A*78

[1499552981576]$GPVTG,,T,,M,0.335,N,0.620,K,A*22

[1499552981576]$GPGGA,192941.00,5357.23149,N,02741.20898,E,1,09,1.17,224.6,M,24.7,M,,*55

[1499552981576]$GPGSA,A,3,22,01,14,03,11,32,17,31,19,,,,2.20,1.17,1.87*01

[1499552981576]$GPGSV,4,1,13,01,75,212,34,03,50,270,34,04,15,130,11,08,01,192,*7E

[1499552981576]$GPGSV,4,2,13,11,48,196,29,12,04,018,,14,51,067,38,17,29,307,33*78

[1499552981576]$GPGSV,4,3,13,19,16,326,28,22,78,264,26,23,14,215,08,31,28,110,26*73

[1499552981576]$GPGSV,4,4,13,32,32,056,24*4E

[1499552981576]$GPGLL,5357.23149,N,02741.20898,E,192941.00,A,A*6D

[1499552982567]$GPRMC,192942.00,A,5357.23163,N,02741.20870,E,0.492,,080717,,,A*7F

[1499552982567]$GPVTG,,T,,M,0.492,N,0.911,K,A*25

[1499552982567]$GPGGA,192942.00,5357.23163,N,02741.20870,E,1,09,1.17,224.9,M,24.7,M,,*57

[1499552982567]$GPGSA,A,3,22,01,14,03,11,32,17,31,19,,,,2.20,1.17,1.87*01

[1499552982567]$GPGSV,4,1,13,01,75,212,34,03,50,270,33,04,15,130,11,08,01,192,*79

[1499552982567]$GPGSV,4,2,13,11,48,196,31,12,04,018,,14,51,067,39,17,29,307,32*71

[1499552982567]$GPGSV,4,3,13,19,16,326,28,22,78,264,27,23,14,215,08,31,28,110,27*73

[1499552982567]$GPGSV,4,4,13,32,32,056,23*49

[1499552982567]$GPGLL,5357.23163,N,02741.20870,E,192942.00,A,A*60

[1499552983586]$GPRMC,192943.00,A,5357.23171,N,02741.20839,E,0.775,,080717,,,A*7A

[1499552983586]$GPVTG,,T,,M,0.775,N,1.435,K,A*25

[1499552983586]$GPGGA,192943.00,5357.23171,N,02741.20839,E,1,09,1.16,224.7,M,24.7,M,,*57

[1499552983586]$GPGSA,A,3,22,01,14,03,11,32,17,31,19,,,,2.20,1.16,1.87*00

[1499552983586]$GPGSV,4,1,13,01,75,212,35,03,50,270,34,04,15,130,13,08,01,192,*7D

[1499552983586]$GPGSV,4,2,13,11,48,196,31,12,04,018,,14,51,067,39,17,29,307,33*70

[1499552983586]$GPGSV,4,3,13,19,16,326,28,22,78,264,30,23,14,215,08,31,28,110,32*71

[1499552983586]$GPGSV,4,4,13,32,32,056,23*49

[1499552983586]$GPGLL,5357.23171,N,02741.20839,E,192943.00,A,A*6F

[1499552984566]$GPRMC,192944.00,A,5357.23192,N,02741.20806,E,0.932,319.76,080717,,,A*65

[1499552984566]$GPVTG,319.76,T,,M,0.932,N,1.726,K,A*3D

[1499552984566]$GPGGA,192944.00,5357.23192,N,02741.20806,E,1,10,1.16,224.9,M,24.7,M,,*57

[1499552984566]$GPGSA,A,3,22,01,14,03,11,32,17,31,19,23,,,2.20,1.16,1.87*01

[1499552984566]$GPGSV,4,1,13,01,75,212,35,03,50,270,31,04,15,130,12,08,01,192,*79

[1499552984566]$GPGSV,4,2,13,11,48,196,33,12,04,018,,14,51,067,39,17,29,307,33*72

[1499552984566]$GPGSV,4,3,13,19,16,326,28,22,78,264,30,23,14,215,16,31,28,110,24*79

[1499552984566]$GPGSV,4,4,13,32,32,056,23*49

[1499552984566]$GPGLL,5357.23192,N,02741.20806,E,192944.00,A,A*69

[1499552985570]$GPRMC,192945.00,A,5357.23200,N,02741.20777,E,0.763,,080717,,,A*7B

[1499552985570]$GPVTG,,T,,M,0.763,N,1.413,K,A*26

[1499552985570]$GPGGA,192945.00,5357.23200,N,02741.20777,E,1,09,1.16,224.9,M,24.7,M,,*5F

[1499552985570]$GPGSA,A,3,22,01,14,03,11,32,17,31,19,,,,2.20,1.16,1.87*00

[1499552985570]$GPGSV,4,1,13,01,75,212,36,03,50,270,31,04,15,130,11,08,01,192,*79

[1499552985570]$GPGSV,4,2,13,11,48,196,32,12,04,018,,14,51,067,39,17,29,307,28*79

[1499552985570]$GPGSV,4,3,13,19,16,326,27,22,78,264,29,23,14,215,09,31,28,110,21*75

[1499552985570]$GPGSV,4,4,13,32,32,056,22*48

[1499552985570]$GPGLL,5357.23200,N,02741.20777,E,192945.00,A,A*69

[1499552986566]$GPRMC,192946.00,A,5357.23208,N,02741.20748,E,1.006,,080717,,,A*79

[1499552986566]$GPVTG,,T,,M,1.006,N,1.864,K,A*2F

[1499552986566]$GPGGA,192946.00,5357.23208,N,02741.20748,E,1,10,1.16,224.7,M,24.7,M,,*5E

[1499552986566]$GPGSA,A,3,22,01,14,03,11,32,17,31,19,23,,,2.20,1.16,1.87*01

[1499552986566]$GPGSV,4,1,13,01,75,212,36,03,50,270,33,04,15,130,11,08,01,192,*7B

[1499552986566]$GPGSV,4,2,13,11,48,196,27,12,04,018,,14,51,067,39,17,29,307,30*74

[1499552986566]$GPGSV,4,3,13,19,17,326,27,22,78,264,29,23,14,215,16,31,28,110,22*79

[1499552986566]$GPGSV,4,4,13,32,32,056,23*49

[1499552986566]$GPGLL,5357.23208,N,02741.20748,E,192946.00,A,A*6E

[1499552987597]$GPRMC,192947.00,A,5357.23224,N,02741.20707,E,1.055,305.44,080717,,,A*63

[1499552987597]$GPVTG,305.44,T,,M,1.055,N,1.955,K,A*32

[1499552987597]$GPGGA,192947.00,5357.23224,N,02741.20707,E,1,10,1.23,224.5,M,24.7,M,,*5E

[1499552987597]$GPGSA,A,3,22,01,14,03,11,32,17,31,19,23,,,2.46,1.23,2.14*0E

[1499552987597]$GPGSV,4,1,13,01,75,212,33,03,50,270,35,04,15,130,11,08,01,192,*78

[1499552987597]$GPGSV,4,2,13,11,48,196,33,12,04,018,,14,51,067,39,17,29,307,34*75

[1499552987597]$GPGSV,4,3,13,19,17,326,28,22,78,264,29,23,14,215,21,31,28,110,20*70

[1499552987597]$GPGSV,4,4,13,32,32,056,26*4C

[1499552987597]$GPGLL,5357.23224,N,02741.20707,E,192947.00,A,A*6A

[1499552988566]$GPRMC,192948.00,A,5357.23248,N,02741.20660,E,1.069,300.95,080717,,,A*60

[1499552988566]$GPVTG,300.95,T,,M,1.069,N,1.980,K,A*3C

[1499552988566]$GPGGA,192948.00,5357.23248,N,02741.20660,E,1,10,1.23,224.5,M,24.7,M,,*5B

[1499552988566]$GPGSA,A,3,22,01,14,03,11,32,17,31,19,23,,,2.46,1.23,2.14*0E

[1499552988566]$GPGSV,4,1,13,01,75,212,34,03,50,270,32,04,15,130,11,08,01,192,*78

[1499552988566]$GPGSV,4,2,13,11,48,196,36,12,04,018,,14,51,067,39,17,29,307,34*70

[1499552988566]$GPGSV,4,3,13,19,17,326,27,22,78,264,29,23,14,215,19,31,28,110,21*75

[1499552988566]$GPGSV,4,4,13,32,32,056,27*4D

[1499552988566]$GPGLL,5357.23248,N,02741.20660,E,192948.00,A,A*6F

[1499552989566]$GPRMC,192949.00,A,5357.23260,N,02741.20635,E,0.043,,080717,,,A*73

[1499552989566]$GPVTG,,T,,M,0.043,N,0.080,K,A*2C

[1499552989566]$GPGGA,192949.00,5357.23260,N,02741.20635,E,1,10,1.23,224.7,M,24.7,M,,*52

[1499552989566]$GPGSA,A,3,22,01,14,03,11,32,17,31,19,23,,,2.46,1.23,2.14*0E

[1499552989566]$GPGSV,4,1,13,01,75,212,34,03,50,270,34,04,15,130,11,08,01,192,*7E

[1499552989566]$GPGSV,4,2,13,11,48,196,34,12,04,018,,14,51,067,40,17,29,307,31*79

[1499552989566]$GPGSV,4,3,13,19,17,326,26,22,79,264,28,23,14,215,17,31,28,110,20*7B

[1499552989566]$GPGSV,4,4,13,32,32,056,27*4D

[1499552989566]$GPGLL,5357.23260,N,02741.20635,E,192949.00,A,A*64

[1499552990569]$GPRMC,192950.00,A,5357.23265,N,02741.20623,E,0.072,,080717,,,A*7B

[1499552990569]$GPVTG,,T,,M,0.072,N,0.134,K,A*20

[1499552990569]$GPGGA,192950.00,5357.23265,N,02741.20623,E,1,10,1.23,224.7,M,24.7,M,,*58

[1499552990569]$GPGSA,A,3,22,01,14,03,11,32,17,31,19,23,,,2.46,1.23,2.14*0E

[1499552990569]$GPGSV,4,1,13,01,75,212,34,03,50,270,34,04,15,130,07,08,01,192,*79

[1499552990569]$GPGSV,4,2,13,11,48,196,34,12,04,018,,14,51,067,40,17,29,307,32*7A

[1499552990569]$GPGSV,4,3,13,19,17,326,27,22,79,264,27,23,14,215,15,31,28,110,20*77

[1499552990569]$GPGSV,4,4,13,32,32,056,26*4C

[1499552990569]$GPGLL,5357.23265,N,02741.20623,E,192950.00,A,A*6E

[1499552991576]$GPRMC,192951.00,A,5357.23275,N,02741.20605,E,0.018,,080717,,,A*73

[1499552991576]$GPVTG,,T,,M,0.018,N,0.033,K,A*2A

[1499552991576]$GPGGA,192951.00,5357.23275,N,02741.20605,E,1,10,1.23,225.0,M,24.7,M,,*5A

[1499552991576]$GPGSA,A,3,22,01,14,03,11,32,17,31,19,23,,,2.46,1.23,2.14*0E

[1499552991576]$GPGSV,4,1,13,01,75,212,34,03,50,270,34,04,15,130,07,08,01,192,*79

[1499552991576]$GPGSV,4,2,13,11,48,196,35,12,04,018,,14,51,067,40,17,29,307,33*7A

[1499552991576]$GPGSV,4,3,13,19,17,326,28,22,79,264,27,23,14,215,12,31,28,110,28*77

[1499552991576]$GPGSV,4,4,13,32,32,056,25*4F

[1499552991576]$GPGLL,5357.23275,N,02741.20605,E,192951.00,A,A*6A

[1499552992566]$GPRMC,192952.00,A,5357.23279,N,02741.20617,E,0.358,,080717,,,A*78

[1499552992566]$GPVTG,,T,,M,0.358,N,0.664,K,A*29

[1499552992566]$GPGGA,192952.00,5357.23279,N,02741.20617,E,1,10,1.16,225.3,M,24.7,M,,*53

[1499552992566]$GPGSA,A,3,22,01,14,03,11,32,17,31,19,23,,,2.20,1.16,1.87*01

[1499552992566]$GPGSV,4,1,13,01,75,212,35,03,50,270,36,04,15,130,,08,01,192,*7D

[1499552992566]$GPGSV,4,2,13,11,48,196,31,12,04,018,,14,51,067,39,17,29,307,33*70

[1499552992566]$GPGSV,4,3,13,19,17,326,29,22,79,264,26,23,14,215,15,31,28,110,28*70

[1499552992566]$GPGSV,4,4,13,32,32,056,24*4E

[1499552992566]$GPGLL,5357.23279,N,02741.20617,E,192952.00,A,A*66

[1499552993566]$GPRMC,192953.00,A,5357.23275,N,02741.20669,E,1.432,14.56,080717,,,A*5E

[1499552993566]$GPVTG,14.56,T,,M,1.432,N,2.652,K,A*0C

[1499552993566]$GPGGA,192953.00,5357.23275,N,02741.20669,E,1,10,1.16,225.7,M,24.7,M,,*53

[1499552993566]$GPGSA,A,3,22,01,14,03,11,32,17,31,19,23,,,2.20,1.16,1.87*01

[1499552993566]$GPGSV,4,1,13,01,75,212,37,03,50,270,28,04,15,130,,08,01,192,*70

[1499552993566]$GPGSV,4,2,13,11,48,196,24,12,04,018,,14,51,067,35,17,29,307,35*7E

[1499552993566]$GPGSV,4,3,13,19,17,326,30,22,79,264,27,23,14,215,17,31,28,110,27*74

[1499552993566]$GPGSV,4,4,13,32,32,056,31*4A

[1499552993566]$GPGLL,5357.23275,N,02741.20669,E,192953.00,A,A*62

[1499552994566]$GPRMC,192954.00,A,5357.23282,N,02741.20723,E,0.916,,080717,,,A*7C

[1499552994566]$GPVTG,,T,,M,0.916,N,1.697,K,A*24

[1499552994566]$GPGGA,192954.00,5357.23282,N,02741.20723,E,1,10,1.16,225.5,M,24.7,M,,*51

[1499552994566]$GPGSA,A,3,22,01,14,03,11,32,17,31,19,23,,,2.20,1.16,1.87*01

[1499552994566]$GPGSV,4,1,13,01,75,212,24,03,50,270,35,04,15,130,,08,01,192,*7E

[1499552994566]$GPGSV,4,2,13,11,48,196,30,12,04,018,,14,51,067,37,17,29,307,26*7B

[1499552994566]$GPGSV,4,3,13,19,17,326,29,22,79,264,33,23,14,215,23,31,28,110,33*7B

[1499552994566]$GPGSV,4,4,13,32,32,056,31*4A

[1499552994566]$GPGLL,5357.23282,N,02741.20723,E,192954.00,A,A*62

[1499552995566]$GPRMC,192955.00,A,5357.23285,N,02741.20766,E,0.847,,080717,,,A*7E

[1499552995566]$GPVTG,,T,,M,0.847,N,1.569,K,A*23

[1499552995566]$GPGGA,192955.00,5357.23285,N,02741.20766,E,1,10,1.16,225.2,M,24.7,M,,*51

[1499552995566]$GPGSA,A,3,22,01,14,03,11,32,17,31,19,23,,,2.20,1.16,1.87*01

[1499552995566]$GPGSV,4,1,13,01,75,212,29,03,50,270,32,04,15,130,,08,01,192,*74

[1499552995566]$GPGSV,4,2,13,11,48,196,26,12,04,018,,14,51,067,37,17,29,307,35*7E

[1499552995566]$GPGSV,4,3,13,19,17,326,20,22,79,264,35,23,14,215,23,31,28,110,30*77

[1499552995566]$GPGSV,4,4,13,32,32,056,31*4A

[1499552995566]$GPGLL,5357.23285,N,02741.20766,E,192955.00,A,A*65

[1499552996585]$GPRMC,192956.00,A,5357.23293,N,02741.20812,E,0.973,,080717,,,A*70

[1499552996585]$GPVTG,,T,,M,0.973,N,1.802,K,A*25

[1499552996585]$GPGGA,192956.00,5357.23293,N,02741.20812,E,1,10,1.16,225.3,M,24.7,M,,*58

[1499552996585]$GPGSA,A,3,22,01,14,03,11,32,17,31,19,23,,,2.20,1.16,1.87*01

[1499552996585]$GPGSV,4,1,13,01,75,212,30,03,50,270,31,04,15,130,,08,01,192,*7F

[1499552996585]$GPGSV,4,2,13,11,48,196,26,12,04,018,,14,51,067,33,17,29,307,35*7A

[1499552996585]$GPGSV,4,3,13,19,17,326,29,22,79,264,37,23,14,215,20,31,28,110,31*7E

[1499552996585]$GPGSV,4,4,13,32,32,056,29*43

[1499552996585]$GPGLL,5357.23293,N,02741.20812,E,192956.00,A,A*6D

[1499552997566]$GPRMC,192957.00,A,5357.23295,N,02741.20901,E,1.722,50.38,080717,,,A*5F

[1499552997566]$GPVTG,50.38,T,,M,1.722,N,3.189,K,A*06

[1499552997566]$GPGGA,192957.00,5357.23295,N,02741.20901,E,1,10,1.16,224.5,M,24.7,M,,*5B

[1499552997566]$GPGSA,A,3,22,01,14,03,11,32,17,31,19,23,,,2.20,1.16,1.87*01

[1499552997566]$GPGSV,4,1,13,01,75,212,34,03,50,270,39,04,15,130,,08,01,192,*73

[1499552997566]$GPGSV,4,2,13,11,48,196,25,12,04,018,,14,51,067,29,17,29,307,26*70

[1499552997566]$GPGSV,4,3,13,19,17,326,29,22,79,264,39,23,14,215,15,31,28,110,39*7E

[1499552997566]$GPGSV,4,4,13,32,32,056,33*48

[1499552997566]$GPGLL,5357.23295,N,02741.20901,E,192957.00,A,A*69

[1499552998567]$GPRMC,192958.00,A,5357.23325,N,02741.21058,E,3.796,69.18,080717,,,A*5B

[1499552998567]$GPVTG,69.18,T,,M,3.796,N,7.030,K,A*04

[1499552998567]$GPGGA,192958.00,5357.23325,N,02741.21058,E,1,10,1.16,224.3,M,24.7,M,,*5C

[1499552998567]$GPGSA,A,3,22,01,14,03,11,32,17,31,19,23,,,2.20,1.16,1.87*01

[1499552998567]$GPGSV,4,1,13,01,75,212,29,03,50,270,38,04,15,130,,08,01,192,*7E

[1499552998567]$GPGSV,4,2,13,11,48,196,25,12,04,018,,14,51,067,28,17,29,307,34*72

[1499552998567]$GPGSV,4,3,13,19,17,326,32,22,79,264,38,23,14,215,16,31,28,109,37*70

[1499552998567]$GPGSV,4,4,13,32,32,056,33*48

[1499552998567]$GPGLL,5357.23325,N,02741.21058,E,192958.00,A,A*68

[1499552999566]$GPRMC,192959.00,A,5357.23380,N,02741.21291,E,5.474,70.86,080717,,,A*54

[1499552999566]$GPVTG,70.86,T,,M,5.474,N,10.138,K,A*3D

[1499552999566]$GPGGA,192959.00,5357.23380,N,02741.21291,E,1,10,1.16,224.3,M,24.7,M,,*55

[1499552999566]$GPGSA,A,3,22,01,14,03,11,32,17,31,19,23,,,2.21,1.16,1.87*00

[1499552999566]$GPGSV,4,1,13,01,75,212,28,03,50,270,40,04,15,130,,08,01,192,*70

[1499552999566]$GPGSV,4,2,13,11,48,196,27,12,04,018,,14,51,067,27,17,29,307,33*78

[1499552999566]$GPGSV,4,3,13,19,17,326,27,22,79,264,37,23,14,215,19,31,28,109,31*72

[1499552999566]$GPGSV,4,4,13,32,32,055,19*43

[1499552999566]$GPGLL,5357.23380,N,02741.21291,E,192959.00,A,A*61

[1499553000566]$GPRMC,193000.00,A,5357.23478,N,02741.21582,E,6.954,65.88,080717,,,A*53

[1499553000566]$GPVTG,65.88,T,,M,6.954,N,12.880,K,A*33

[1499553000566]$GPGGA,193000.00,5357.23478,N,02741.21582,E,1,10,1.16,224.4,M,24.7,M,,*53

[1499553000566]$GPGSA,A,3,22,01,14,03,11,32,17,31,19,23,,,2.21,1.16,1.87*00

[1499553000566]$GPGSV,4,1,13,01,75,212,27,03,50,270,35,04,15,130,,08,01,192,*7D

[1499553000566]$GPGSV,4,2,13,11,48,196,28,12,04,018,,14,51,067,26,17,29,307,38*7D

[1499553000566]$GPGSV,4,3,13,19,17,326,25,22,79,264,37,23,14,215,19,31,28,109,31*70

[1499553000566]$GPGSV,4,4,13,32,32,055,18*42

[1499553000566]$GPGLL,5357.23478,N,02741.21582,E,193000.00,A,A*60

[1499553001582]$GPRMC,193001.00,A,5357.23593,N,02741.21947,E,8.650,65.51,080717,,,A*52

[1499553001582]$GPVTG,65.51,T,,M,8.650,N,16.020,K,A*34

[1499553001582]$GPGGA,193001.00,5357.23593,N,02741.21947,E,1,10,1.16,224.3,M,24.7,M,,*54

[1499553001582]$GPGSA,A,3,22,01,14,03,11,32,17,31,19,23,,,2.21,1.16,1.87*00

[1499553001582]$GPGSV,4,1,13,01,75,212,28,03,50,270,34,04,15,130,17,08,01,192,*75

[1499553001582]$GPGSV,4,2,13,11,48,196,28,12,04,018,,14,51,067,25,17,29,307,36*70

[1499553001582]$GPGSV,4,3,13,19,17,326,26,22,79,264,37,23,14,215,18,31,28,109,34*77

[1499553001582]$GPGSV,4,4,13,32,32,055,21*48

[1499553001582]$GPGLL,5357.23593,N,02741.21947,E,193001.00,A,A*60

[1499553002576]$GPRMC,193002.00,A,5357.23721,N,02741.22382,E,10.255,66.43,080717,,,A*62

[1499553002576]$GPVTG,66.43,T,,M,10.255,N,18.993,K,A*03

[1499553002576]$GPGGA,193002.00,5357.23721,N,02741.22382,E,1,10,1.16,224.4,M,24.7,M,,*5B

[1499553002576]$GPGSA,A,3,22,01,14,03,11,32,17,31,19,23,,,2.21,1.16,1.87*00

[1499553002576]$GPGSV,4,1,13,01,75,212,29,03,50,270,39,04,15,130,33,08,01,192,*7F

[1499553002576]$GPGSV,4,2,13,11,48,196,28,12,04,018,,14,51,067,26,17,29,307,30*75

[1499553002576]$GPGSV,4,3,13,19,17,326,30,22,79,264,37,23,14,215,18,31,28,109,37*73

[1499553002576]$GPGSV,4,4,13,32,32,055,24*4D

[1499553002576]$GPGLL,5357.23721,N,02741.22382,E,193002.00,A,A*68

[1499553003577]$GPRMC,193003.00,A,5357.23828,N,02741.22898,E,11.688,70.60,080717,,,A*66

[1499553003577]$GPVTG,70.60,T,,M,11.688,N,21.647,K,A*0C

[1499553003577]$GPGGA,193003.00,5357.23828,N,02741.22898,E,1,10,1.16,224.2,M,24.7,M,,*5A

[1499553003577]$GPGSA,A,3,22,01,14,03,11,32,17,31,19,23,,,2.21,1.16,1.87*00

[1499553003577]$GPGSV,4,1,13,01,75,212,28,03,50,270,37,04,15,130,28,08,01,192,*7A

[1499553003577]$GPGSV,4,2,13,11,48,196,31,12,04,018,,14,51,067,32,17,29,307,30*78

[1499553003577]$GPGSV,4,3,13,19,17,326,32,22,79,264,37,23,14,215,17,31,28,109,36*7F

[1499553003577]$GPGSV,4,4,13,32,32,055,36*4E

[1499553003577]$GPGLL,5357.23828,N,02741.22898,E,193003.00,A,A*6F

[1499553004567]$GPRMC,193004.00,A,5357.23904,N,02741.23465,E,12.663,75.25,080717,,,A*63

[1499553004567]$GPVTG,75.25,T,,M,12.663,N,23.452,K,A*0A

[1499553004567]$GPGGA,193004.00,5357.23904,N,02741.23465,E,1,10,1.16,223.3,M,24.7,M,,*5B

[1499553004567]$GPGSA,A,3,22,01,14,03,11,32,17,31,19,23,,,2.21,1.16,1.87*00

[1499553004567]$GPGSV,4,1,13,01,75,212,30,03,50,270,36,04,15,130,28,08,01,192,*72

[1499553004567]$GPGSV,4,2,13,11,48,196,29,12,04,018,,14,51,067,27,17,29,307,29*7D

[1499553004567]$GPGSV,4,3,13,19,17,326,25,22,79,264,40,23,14,215,16,31,28,109,40*79

[1499553004567]$GPGSV,4,4,13,32,32,055,32*4A

[1499553004567]$GPGLL,5357.23904,N,02741.23465,E,193004.00,A,A*68

[1499553005581]$GPRMC,193005.00,A,5357.23975,N,02741.24074,E,13.196,77.28,080717,,,A*64

[1499553005581]$GPVTG,77.28,T,,M,13.196,N,24.439,K,A*03

[1499553005581]$GPGGA,193005.00,5357.23975,N,02741.24074,E,1,10,1.16,222.4,M,24.7,M,,*59

[1499553005581]$GPGSA,A,3,22,01,14,03,11,32,17,31,19,23,,,2.21,1.16,1.87*00

[1499553005581]$GPGSV,4,1,13,01,75,212,32,03,50,270,38,04,15,130,35,08,01,192,*72

[1499553005581]$GPGSV,4,2,13,11,48,196,30,12,04,018,,14,51,067,29,17,29,307,33*70

[1499553005581]$GPGSV,4,3,13,19,17,326,24,22,79,264,39,23,14,215,15,31,28,109,37*75

[1499553005581]$GPGSV,4,4,13,32,32,055,35*4D

[1499553005581]$GPGLL,5357.23975,N,02741.24074,E,193005.00,A,A*6C

[1499553006577]$GPRMC,193006.00,A,5357.24075,N,02741.24688,E,13.522,75.34,080717,,,A*68

[1499553006577]$GPVTG,75.34,T,,M,13.522,N,25.043,K,A*0F

[1499553006577]$GPGGA,193006.00,5357.24075,N,02741.24688,E,1,10,1.16,221.9,M,24.7,M,,*5F

[1499553006577]$GPGSA,A,3,22,01,14,03,11,32,17,31,19,23,,,2.21,1.16,1.87*00

[1499553006577]$GPGSV,4,1,13,01,75,212,32,03,50,270,36,04,15,130,26,08,01,192,*7E

[1499553006577]$GPGSV,4,2,13,11,48,196,30,12,04,018,,14,51,067,30,17,29,307,37*7C

[1499553006577]$GPGSV,4,3,13,19,17,326,23,22,79,264,39,23,14,215,27,31,28,109,25*70

[1499553006577]$GPGSV,4,4,13,32,32,055,26*4F

[1499553006577]$GPGLL,5357.24075,N,02741.24688,E,193006.00,A,A*64

[1499553007576]$GPRMC,193007.00,A,5357.24196,N,02741.25307,E,13.714,73.38,080717,,,A*6B

[1499553007576]$GPVTG,73.38,T,,M,13.714,N,25.399,K,A*06

[1499553007576]$GPGGA,193007.00,5357.24196,N,02741.25307,E,1,10,0.87,222.0,M,24.7,M,,*52

[1499553007576]$GPGSA,A,3,22,01,14,03,11,32,17,31,19,23,,,1.57,0.87,1.30*07

[1499553007576]$GPGSV,4,1,13,01,75,212,31,03,50,270,36,04,15,130,23,08,01,192,*78

[1499553007576]$GPGSV,4,2,13,11,48,196,29,12,04,018,,14,51,067,32,17,29,307,30*71

[1499553007576]$GPGSV,4,3,13,19,17,326,34,22,79,264,39,23,14,215,33,31,28,109,23*75

[1499553007576]$GPGSV,4,4,13,32,32,055,33*4B

[1499553007576]$GPGLL,5357.24196,N,02741.25307,E,193007.00,A,A*6A

[1499553008576]$GPRMC,193008.00,A,5357.24329,N,02741.25917,E,13.760,71.51,080717,,,A*67

[1499553008576]$GPVTG,71.51,T,,M,13.760,N,25.484,K,A*03

[1499553008576]$GPGGA,193008.00,5357.24329,N,02741.25917,E,1,10,0.87,222.1,M,24.7,M,,*51

[1499553008576]$GPGSA,A,3,22,01,14,03,11,32,17,31,19,23,,,1.57,0.87,1.30*07

[1499553008576]$GPGSV,4,1,13,01,75,212,29,03,50,270,37,04,15,130,19,08,01,192,*79

[1499553008576]$GPGSV,4,2,13,11,48,196,27,12,04,018,,14,51,067,32,17,29,307,31*7E

[1499553008576]$GPGSV,4,3,13,19,17,326,33,22,79,264,39,23,14,215,25,31,28,109,21*77

[1499553008576]$GPGSV,4,4,13,32,32,055,35*4D

[1499553008576]$GPGLL,5357.24329,N,02741.25917,E,193008.00,A,A*68

[1499553009581]$GPRMC,193009.00,A,5357.24466,N,02741.26532,E,13.899,70.15,080717,,,A*6A

[1499553009581]$GPVTG,70.15,T,,M,13.899,N,25.741,K,A*01

[1499553009581]$GPGGA,193009.00,5357.24466,N,02741.26532,E,1,10,1.01,221.9,M,24.7,M,,*50

[1499553009581]$GPGSA,A,3,22,01,14,03,11,32,17,31,19,23,,,1.73,1.01,1.40*09

[1499553009581]$GPGSV,4,1,13,01,75,212,28,03,50,270,38,04,15,130,16,08,01,192,*78

[1499553009581]$GPGSV,4,2,13,11,48,196,25,12,04,018,,14,51,067,32,17,29,307,35*78

[1499553009581]$GPGSV,4,3,13,19,17,326,32,22,79,264,39,23,14,215,21,31,28,109,33*71

[1499553009581]$GPGSV,4,4,13,32,32,055,33*4B

[1499553009581]$GPGLL,5357.24466,N,02741.26532,E,193009.00,A,A*6D

[1499553010566]$GPRMC,193010.00,A,5357.24600,N,02741.27135,E,13.642,69.51,080717,,,A*62

[1499553010566]$GPVTG,69.51,T,,M,13.642,N,25.266,K,A*01

[1499553010566]$GPGGA,193010.00,5357.24600,N,02741.27135,E,1,10,0.87,221.9,M,24.7,M,,*57

[1499553010566]$GPGSA,A,3,22,01,14,03,11,32,17,31,19,23,,,1.57,0.87,1.30*07

[1499553010566]$GPGSV,4,1,13,01,75,212,27,03,50,270,38,04,15,130,,08,01,192,*70

[1499553010566]$GPGSV,4,2,13,11,48,196,22,12,04,018,,14,51,067,31,17,29,307,38*71

[1499553010566]$GPGSV,4,3,13,19,17,326,32,22,79,264,38,23,14,215,16,31,28,109,36*71

[1499553010566]$GPGSV,4,4,13,32,32,055,34*4C

[1499553010566]$GPGLL,5357.24600,N,02741.27135,E,193010.00,A,A*65

[1499553011566]$GPRMC,193011.00,A,5357.24705,N,02741.27659,E,11.534,69.43,080717,,,A*69

[1499553011566]$GPVTG,69.43,T,,M,11.534,N,21.360,K,A*01

[1499553011566]$GPGGA,193011.00,5357.24705,N,02741.27659,E,1,10,1.16,221.7,M,24.7,M,,*58

[1499553011566]$GPGSA,A,3,22,01,14,03,11,32,17,31,19,23,,,2.21,1.16,1.87*00

[1499553011566]$GPGSV,4,1,13,01,75,212,26,03,50,270,38,04,15,130,18,08,01,192,*78

[1499553011566]$GPGSV,4,2,13,11,48,196,22,12,04,018,,14,51,067,31,17,29,307,38*71

[1499553011566]$GPGSV,4,3,13,19,17,326,31,22,79,264,39,23,14,215,13,31,28,109,36*76

[1499553011566]$GPGSV,4,4,13,32,32,055,33*4B

[1499553011566]$GPGLL,5357.24705,N,02741.27659,E,193011.00,A,A*6D

[1499553012585]$GPRMC,193012.00,A,5357.24800,N,02741.28076,E,8.992,68.46,080717,,,A*58

[1499553012585]$GPVTG,68.46,T,,M,8.992,N,16.652,K,A*3D

[1499553012585]$GPGGA,193012.00,5357.24800,N,02741.28076,E,1,10,1.16,221.8,M,24.7,M,,*5A

[1499553012585]$GPGSA,A,3,22,01,14,03,11,32,17,31,19,23,,,2.21,1.16,1.87*00

[1499553012585]$GPGSV,4,1,13,01,75,211,27,03,50,270,38,04,15,130,22,08,01,192,*73

[1499553012585]$GPGSV,4,2,13,11,48,196,22,12,04,018,,14,51,067,32,17,29,307,38*72

[1499553012585]$GPGSV,4,3,13,19,17,326,30,22,79,264,38,23,14,215,12,31,28,109,36*77

[1499553012585]$GPGSV,4,4,13,32,32,055,34*4C

[1499553012585]$GPGLL,5357.24800,N,02741.28076,E,193012.00,A,A*60

[1499553013576]$GPRMC,193013.00,A,5357.24867,N,02741.28365,E,6.003,67.75,080717,,,A*59

[1499553013576]$GPVTG,67.75,T,,M,6.003,N,11.117,K,A*3C

[1499553013576]$GPGGA,193013.00,5357.24867,N,02741.28365,E,1,10,1.16,221.8,M,24.7,M,,*5B

[1499553013576]$GPGSA,A,3,22,01,14,03,11,32,17,31,19,23,,,2.21,1.16,1.87*00

[1499553013576]$GPGSV,4,1,13,01,75,211,27,03,50,270,38,04,15,130,24,08,01,192,*75

[1499553013576]$GPGSV,4,2,13,11,48,196,24,12,04,018,,14,51,067,32,17,29,307,38*74

[1499553013576]$GPGSV,4,3,13,19,17,326,31,22,79,264,39,23,14,215,12,31,28,109,38*79

[1499553013576]$GPGSV,4,4,13,32,32,055,34*4C

[1499553013576]$GPGLL,5357.24867,N,02741.28365,E,193013.00,A,A*61

[1499553014577]$GPRMC,193014.00,A,5357.24914,N,02741.28567,E,4.064,67.76,080717,,,A*5F

[1499553014577]$GPVTG,67.76,T,,M,4.064,N,7.527,K,A*0C

[1499553014577]$GPGGA,193014.00,5357.24914,N,02741.28567,E,1,10,1.16,221.8,M,24.7,M,,*5D

[1499553014577]$GPGSA,A,3,22,01,14,03,11,32,17,31,19,23,,,2.21,1.16,1.88*0F

[1499553014577]$GPGSV,4,1,13,01,75,211,28,03,50,270,37,04,15,130,24,08,01,192,*75

[1499553014577]$GPGSV,4,2,13,11,48,196,25,12,04,018,,14,51,067,32,17,29,307,36*7B

[1499553014577]$GPGSV,4,3,13,19,17,326,32,22,79,264,38,23,14,215,13,31,28,109,38*7A

[1499553014577]$GPGSV,4,4,13,32,32,055,34*4C

[1499553014577]$GPGLL,5357.24914,N,02741.28567,E,193014.00,A,A*67

[1499553015576]$GPRMC,193015.00,A,5357.24919,N,02741.28611,E,0.369,,080717,,,A*75

[1499553015576]$GPVTG,,T,,M,0.369,N,0.683,K,A*22

[1499553015576]$GPGGA,193015.00,5357.24919,N,02741.28611,E,1,10,1.16,221.7,M,24.7,M,,*5C

[1499553015576]$GPGSA,A,3,22,01,14,03,11,32,17,31,19,23,,,2.21,1.16,1.88*0F

[1499553015576]$GPGSV,4,1,13,01,75,211,27,03,50,270,39,04,15,130,27,08,01,192,*77

[1499553015576]$GPGSV,4,2,13,11,48,196,25,12,04,018,,14,51,067,32,17,29,307,36*7B

[1499553015576]$GPGSV,4,3,13,19,17,326,32,22,79,264,38,23,14,215,15,31,28,109,35*71

[1499553015576]$GPGSV,4,4,13,32,32,055,35*4D

[1499553015576]$GPGLL,5357.24919,N,02741.28611,E,193015.00,A,A*69

[1499553016577]$GPRMC,193016.00,A,5357.24932,N,02741.28646,E,0.845,68.12,080717,,,A*5B

[1499553016577]$GPVTG,68.12,T,,M,0.845,N,1.564,K,A*0F

[1499553016577]$GPGGA,193016.00,5357.24932,N,02741.28646,E,1,10,1.16,222.0,M,24.7,M,,*50

[1499553016577]$GPGSA,A,3,22,01,14,03,11,32,17,31,19,23,,,2.21,1.16,1.88*0F

[1499553016577]$GPGSV,4,1,13,01,75,211,28,03,50,270,38,04,15,130,32,08,01,192,*7D

[1499553016577]$GPGSV,4,2,13,11,48,196,24,12,04,018,,14,51,067,32,17,29,307,38*74

[1499553016577]$GPGSV,4,3,13,19,17,326,32,22,79,264,38,23,14,215,15,31,28,109,36*72

[1499553016577]$GPGSV,4,4,13,32,32,055,34*4C

[1499553016577]$GPGLL,5357.24932,N,02741.28646,E,193016.00,A,A*61

[1499553017577]$GPRMC,193017.00,A,5357.24953,N,02741.28723,E,1.860,72.55,080717,,,A*51

[1499553017577]$GPVTG,72.55,T,,M,1.860,N,3.446,K,A*02

[1499553017577]$GPGGA,193017.00,5357.24953,N,02741.28723,E,1,10,1.16,222.2,M,24.7,M,,*56

[1499553017577]$GPGSA,A,3,22,01,14,03,11,32,17,31,19,23,,,2.21,1.16,1.88*0F

[1499553017577]$GPGSV,4,1,13,01,75,211,28,03,50,270,37,04,15,130,30,08,01,192,*70

[1499553017577]$GPGSV,4,2,13,11,48,196,25,12,04,018,,14,51,067,31,17,29,307,36*78

[1499553017577]$GPGSV,4,3,13,19,17,326,32,22,79,264,37,23,14,215,13,31,28,109,38*75

[1499553017577]$GPGSV,4,4,13,32,32,055,37*4F

[1499553017577]$GPGLL,5357.24953,N,02741.28723,E,193017.00,A,A*65

[1499553018582]$GPRMC,193018.00,A,5357.24975,N,02741.28835,E,2.544,74.17,080717,,,A*5A

[1499553018582]$GPVTG,74.17,T,,M,2.544,N,4.711,K,A*0C

[1499553018582]$GPGGA,193018.00,5357.24975,N,02741.28835,E,1,10,1.16,222.1,M,24.7,M,,*56

[1499553018582]$GPGSA,A,3,22,01,14,03,11,32,17,31,19,23,,,2.21,1.16,1.88*0F

[1499553018582]$GPGSV,4,1,13,01,75,211,30,03,50,270,37,04,15,130,21,08,01,192,*79

[1499553018582]$GPGSV,4,2,13,11,48,196,23,12,04,018,,14,51,067,31,17,29,307,30*78

[1499553018582]$GPGSV,4,3,13,19,17,326,31,22,79,264,38,23,14,215,13,31,28,109,28*78

[1499553018582]$GPGSV,4,4,13,32,32,055,34*4C

[1499553018582]$GPGLL,5357.24975,N,02741.28835,E,193018.00,A,A*66

[1499553019577]$GPRMC,193019.00,A,5357.24997,N,02741.28972,E,3.071,75.15,080717,,,A*54

[1499553019577]$GPVTG,75.15,T,,M,3.071,N,5.687,K,A*02

[1499553019577]$GPGGA,193019.00,5357.24997,N,02741.28972,E,1,10,1.16,221.9,M,24.7,M,,*52

[1499553019577]$GPGSA,A,3,22,01,14,03,11,32,17,31,19,23,,,2.21,1.16,1.88*0F

[1499553019577]$GPGSV,4,1,13,01,75,211,30,03,50,270,37,04,15,130,20,08,00,192,*79

[1499553019577]$GPGSV,4,2,13,11,48,196,22,12,04,018,,14,51,067,32,17,29,307,33*79

[1499553019577]$GPGSV,4,3,13,19,17,326,30,22,79,264,37,23,14,215,14,31,28,109,30*78

[1499553019577]$GPGSV,4,4,13,32,32,055,37*4F

[1499553019577]$GPGLL,5357.24997,N,02741.28972,E,193019.00,A,A*69

[1499553020584]$GPRMC,193020.00,A,5357.25027,N,02741.29102,E,2.755,74.75,080717,,,A*54

[1499553020584]$GPVTG,74.75,T,,M,2.755,N,5.102,K,A*0F

[1499553020584]$GPGGA,193020.00,5357.25027,N,02741.29102,E,1,10,1.16,221.9,M,24.7,M,,*55

[1499553020584]$GPGSA,A,3,22,01,14,03,11,32,17,31,19,23,,,2.21,1.16,1.88*0F

[1499553020584]$GPGSV,4,1,13,01,75,211,30,03,50,270,38,04,15,130,21,08,00,192,*77

[1499553020584]$GPGSV,4,2,13,11,48,196,22,12,04,018,,14,51,067,31,17,29,307,29*71

[1499553020584]$GPGSV,4,3,13,19,17,326,30,22,79,264,36,23,14,215,14,31,28,109,36*7F

[1499553020584]$GPGSV,4,4,13,32,32,055,37*4F

[1499553020584]$GPGLL,5357.25027,N,02741.29102,E,193020.00,A,A*6E

[1499553021577]$GPRMC,193021.00,A,5357.25038,N,02741.29141,E,0.351,,080717,,,A*71

[1499553021577]$GPVTG,,T,,M,0.351,N,0.650,K,A*27

[1499553021577]$GPGGA,193021.00,5357.25038,N,02741.29141,E,1,10,0.87,221.9,M,24.7,M,,*54

[1499553021577]$GPGSA,A,3,22,01,14,03,11,32,17,31,19,23,,,1.57,0.87,1.30*07

[1499553021577]$GPGSV,4,1,13,01,75,211,30,03,50,270,35,04,15,130,29,08,00,192,*72

[1499553021577]$GPGSV,4,2,13,11,48,196,21,12,04,018,,14,51,067,33,17,29,307,33*7B

[1499553021577]$GPGSV,4,3,13,19,17,326,30,22,79,264,37,23,14,215,14,31,28,109,35*7D

[1499553021577]$GPGSV,4,4,13,32,32,055,33*4B

[1499553021577]$GPGLL,5357.25038,N,02741.29141,E,193021.00,A,A*66

[1499553022569]$GPRMC,193022.00,A,5357.25044,N,02741.29149,E,0.011,,080717,,,A*76

[1499553022569]$GPVTG,,T,,M,0.011,N,0.021,K,A*20

[1499553022569]$GPGGA,193022.00,5357.25044,N,02741.29149,E,1,10,0.87,222.1,M,24.7,M,,*5F

[1499553022569]$GPGSA,A,3,22,01,14,03,11,32,17,31,19,23,,,1.57,0.87,1.30*07

[1499553022569]$GPGSV,4,1,13,01,75,211,28,03,50,270,36,04,15,130,29,08,00,192,*78

[1499553022569]$GPGSV,4,2,13,11,48,196,29,12,04,018,,14,51,067,32,17,29,307,36*77

[1499553022569]$GPGSV,4,3,13,19,17,326,29,22,79,264,37,23,14,215,13,31,28,109,35*72

[1499553022569]$GPGSV,4,4,13,32,32,055,34*4C

[1499553022569]$GPGLL,5357.25044,N,02741.29149,E,193022.00,A,A*66

[1499553023577]$GPRMC,193023.00,A,5357.25046,N,02741.29149,E,0.059,,080717,,,A*79

[1499553023577]$GPVTG,,T,,M,0.059,N,0.109,K,A*27

[1499553023577]$GPGGA,193023.00,5357.25046,N,02741.29149,E,1,10,0.87,222.1,M,24.7,M,,*5C

[1499553023577]$GPGSA,A,3,22,01,14,03,11,32,17,31,19,23,,,1.57,0.87,1.30*07

[1499553023577]$GPGSV,4,1,13,01,75,211,27,03,50,270,36,04,15,130,28,08,00,192,*76

[1499553023577]$GPGSV,4,2,13,11,48,196,29,12,04,017,,14,51,067,32,17,29,307,35*7B

[1499553023577]$GPGSV,4,3,13,19,17,326,29,22,79,264,38,23,14,215,15,31,28,109,35*7B

[1499553023577]$GPGSV,4,4,13,32,32,055,34*4C

[1499553023577]$GPGLL,5357.25046,N,02741.29149,E,193023.00,A,A*65

[1499553024576]$GPRMC,193024.00,A,5357.25057,N,02741.29148,E,0.016,,080717,,,A*74

[1499553024576]$GPVTG,,T,,M,0.016,N,0.029,K,A*2F

[1499553024576]$GPGGA,193024.00,5357.25057,N,02741.29148,E,1,10,0.87,222.4,M,24.7,M,,*5F

[1499553024576]$GPGSA,A,3,22,01,14,03,11,32,17,31,19,23,,,1.57,0.87,1.30*07

[1499553024576]$GPGSV,4,1,13,01,75,211,26,03,50,270,37,04,15,130,27,08,00,192,*79

[1499553024576]$GPGSV,4,2,13,11,48,196,29,12,04,017,,14,51,067,31,17,29,307,35*78

[1499553024576]$GPGSV,4,3,13,19,17,326,29,22,79,264,37,23,14,215,16,31,28,109,35*77

[1499553024576]$GPGSV,4,4,13,32,32,055,34*4C

[1499553024576]$GPGLL,5357.25057,N,02741.29148,E,193024.00,A,A*63

[1499553025576]$GPRMC,193025.00,A,5357.25066,N,02741.29147,E,0.045,,080717,,,A*7E

[1499553025576]$GPVTG,,T,,M,0.045,N,0.083,K,A*29

[1499553025576]$GPGGA,193025.00,5357.25066,N,02741.29147,E,1,10,0.87,222.4,M,24.7,M,,*53

[1499553025576]$GPGSA,A,3,22,01,14,03,11,32,17,31,19,23,,,1.57,0.87,1.30*07

[1499553025576]$GPGSV,4,1,13,01,75,211,24,03,50,270,34,04,15,130,26,08,00,192,*79

[1499553025576]$GPGSV,4,2,13,11,48,196,28,12,04,017,,14,51,067,29,17,29,307,32*77

[1499553025576]$GPGSV,4,3,13,19,17,326,27,22,79,264,34,23,14,215,15,31,28,109,32*7E

[1499553025576]$GPGSV,4,4,13,32,32,055,31*49

[1499553025576]$GPGLL,5357.25066,N,02741.29147,E,193025.00,A,A*6F

[1499553026580]$GPRMC,193026.00,A,5357.25067,N,02741.29149,E,0.067,,080717,,,A*72

[1499553026580]$GPVTG,,T,,M,0.067,N,0.125,K,A*24

[1499553026580]$GPGGA,193026.00,5357.25067,N,02741.29149,E,1,10,0.87,222.6,M,24.7,M,,*5D

[1499553026580]$GPGSA,A,3,22,01,14,03,11,32,17,31,19,23,,,1.57,0.87,1.30*07

[1499553026580]$GPGSV,4,1,13,01,75,211,25,03,50,270,36,04,15,130,26,08,00,192,*7A

[1499553026580]$GPGSV,4,2,13,11,48,196,27,12,04,017,,14,51,067,29,17,29,307,35*7F

[1499553026580]$GPGSV,4,3,13,19,17,326,27,22,79,264,37,23,14,215,14,31,28,109,35*7B

[1499553026580]$GPGSV,4,4,13,32,32,055,31*49

[1499553026580]$GPGLL,5357.25067,N,02741.29149,E,193026.00,A,A*63

[1499553027581]$GPRMC,193027.00,A,5357.25070,N,02741.29148,E,0.067,,080717,,,A*74

[1499553027581]$GPVTG,,T,,M,0.067,N,0.124,K,A*25

[1499553027581]$GPGGA,193027.00,5357.25070,N,02741.29148,E,1,10,0.87,222.7,M,24.7,M,,*5A

[1499553027581]$GPGSA,A,3,22,01,14,03,11,32,17,31,19,23,,,1.57,0.87,1.30*07

[1499553027581]$GPGSV,4,1,13,01,75,211,26,03,50,270,37,04,15,130,27,08,00,192,*79

[1499553027581]$GPGSV,4,2,13,11,48,196,28,12,04,017,,14,51,067,31,17,29,307,35*79

[1499553027581]$GPGSV,4,3,13,19,17,326,28,22,79,264,37,23,14,215,12,31,28,109,35*72

[1499553027581]$GPGSV,4,4,13,32,32,055,33*4B

[1499553027581]$GPGLL,5357.25070,N,02741.29148,E,193027.00,A,A*65

[1499553028583]$GPRMC,193028.00,A,5357.25069,N,02741.29151,E,0.121,,080717,,,A*78

[1499553028583]$GPVTG,,T,,M,0.121,N,0.223,K,A*22

[1499553028583]$GPGGA,193028.00,5357.25069,N,02741.29151,E,1,10,0.87,222.9,M,24.7,M,,*5B

[1499553028583]$GPGSA,A,3,22,01,14,03,11,32,17,31,19,23,,,1.57,0.87,1.31*06

[1499553028583]$GPGSV,4,1,13,01,75,211,27,03,50,270,37,04,15,130,27,08,00,192,*78

[1499553028583]$GPGSV,4,2,13,11,48,196,28,12,04,017,,14,51,067,31,17,29,307,36*7A

[1499553028583]$GPGSV,4,3,13,19,17,326,29,22,79,264,37,23,14,215,10,31,28,109,35*71

[1499553028583]$GPGSV,4,4,13,32,32,055,33*4B

[1499553028583]$GPGLL,5357.25069,N,02741.29151,E,193028.00,A,A*6A

[1499553029581]$GPRMC,193029.00,A,5357.25067,N,02741.29157,E,0.070,,080717,,,A*74

[1499553029581]$GPVTG,,T,,M,0.070,N,0.129,K,A*2E

[1499553029581]$GPGGA,193029.00,5357.25067,N,02741.29157,E,1,10,0.87,222.9,M,24.7,M,,*52

[1499553029581]$GPGSA,A,3,22,01,14,03,11,32,17,31,19,23,,,1.57,0.87,1.31*06

[1499553029581]$GPGSV,4,1,13,01,75,211,28,03,50,270,37,04,15,130,27,08,00,192,*77

[1499553029581]$GPGSV,4,2,13,11,48,196,28,12,04,017,,14,51,067,32,17,29,307,36*79

[1499553029581]$GPGSV,4,3,13,19,17,326,30,22,79,264,38,23,14,215,11,31,28,109,35*77

[1499553029581]$GPGSV,4,4,13,32,32,055,32*4A

[1499553029581]$GPGLL,5357.25067,N,02741.29157,E,193029.00,A,A*63

[1499553030577]$GPRMC,193030.00,A,5357.25071,N,02741.29157,E,0.039,,080717,,,A*76

[1499553030577]$GPVTG,,T,,M,0.039,N,0.072,K,A*2C

[1499553030577]$GPGGA,193030.00,5357.25071,N,02741.29157,E,1,10,0.87,223.1,M,24.7,M,,*54

[1499553030577]$GPGSA,A,3,22,01,14,03,11,32,17,31,19,23,,,1.57,0.87,1.31*06

[1499553030577]$GPGSV,4,1,13,01,75,211,28,03,50,270,36,04,15,130,28,08,00,192,*79

[1499553030577]$GPGSV,4,2,13,11,48,196,28,12,04,017,,14,51,067,32,17,29,307,36*79

[1499553030577]$GPGSV,4,3,13,19,17,326,30,22,79,264,38,23,14,215,13,31,28,109,36*76

[1499553030577]$GPGSV,4,4,13,32,32,055,32*4A

[1499553030577]$GPGLL,5357.25071,N,02741.29157,E,193030.00,A,A*6C

[1499553031576]$GPRMC,193031.00,A,5357.25072,N,02741.29158,E,0.056,,080717,,,A*72

[1499553031576]$GPVTG,,T,,M,0.056,N,0.104,K,A*25

[1499553031576]$GPGGA,193031.00,5357.25072,N,02741.29158,E,1,10,0.87,223.2,M,24.7,M,,*5A

[1499553031576]$GPGSA,A,3,22,01,14,03,11,32,17,31,19,23,,,1.57,0.87,1.31*06

[1499553031576]$GPGSV,4,1,13,01,75,211,28,03,50,270,37,04,15,130,27,08,00,192,*77

[1499553031576]$GPGSV,4,2,13,11,48,196,29,12,04,017,,14,51,067,33,17,29,307,36*79

[1499553031576]$GPGSV,4,3,13,19,17,326,30,22,79,264,38,23,14,215,13,31,28,109,36*76

[1499553031576]$GPGSV,4,4,13,32,32,055,33*4B

[1499553031576]$GPGLL,5357.25072,N,02741.29158,E,193031.00,A,A*61

[1499553032569]$GPRMC,193032.00,A,5357.25072,N,02741.29162,E,0.061,,080717,,,A*7C

[1499553032569]$GPVTG,,T,,M,0.061,N,0.114,K,A*20

[1499553032569]$GPGGA,193032.00,5357.25072,N,02741.29162,E,1,10,0.87,223.3,M,24.7,M,,*51

[1499553032569]$GPGSA,A,3,22,01,14,03,11,32,17,31,19,23,,,1.57,0.87,1.31*06

[1499553032569]$GPGSV,4,1,13,01,75,211,27,03,50,270,37,04,15,130,28,08,00,192,*77

[1499553032569]$GPGSV,4,2,13,11,48,196,29,12,04,017,,14,51,067,33,17,29,307,36*79

[1499553032569]$GPGSV,4,3,13,19,17,326,29,22,79,264,38,23,14,215,13,31,28,109,35*7D

[1499553032569]$GPGSV,4,4,13,32,32,055,33*4B

[1499553032569]$GPGLL,5357.25072,N,02741.29162,E,193032.00,A,A*6B

[1499553033566]$GPRMC,193033.00,A,5357.25072,N,02741.29166,E,0.038,,080717,,,A*75

[1499553033566]$GPVTG,,T,,M,0.038,N,0.070,K,A*2F

[1499553033566]$GPGGA,193033.00,5357.25072,N,02741.29166,E,1,10,0.87,223.3,M,24.7,M,,*54

[1499553033566]$GPGSA,A,3,22,01,14,03,11,32,17,31,19,23,,,1.57,0.87,1.31*06

[1499553033566]$GPGSV,4,1,13,01,75,211,27,03,50,270,37,04,15,130,28,08,00,192,*77

[1499553033566]$GPGSV,4,2,13,11,48,196,28,12,04,017,,14,51,067,33,17,29,307,36*78

[1499553033566]$GPGSV,4,3,13,19,17,326,29,22,79,264,38,23,14,215,14,31,28,109,35*7A

[1499553033566]$GPGSV,4,4,13,32,32,055,33*4B

[1499553033566]$GPGLL,5357.25072,N,02741.29166,E,193033.00,A,A*6E

[1499553034580]$GPRMC,193034.00,A,5357.25074,N,02741.29170,E,0.023,,080717,,,A*79

[1499553034580]$GPVTG,,T,,M,0.023,N,0.043,K,A*25

[1499553034580]$GPGGA,193034.00,5357.25074,N,02741.29170,E,1,10,0.87,223.4,M,24.7,M,,*55

[1499553034580]$GPGSA,A,3,22,01,14,03,11,32,17,31,19,23,,,1.57,0.87,1.31*06

[1499553034580]$GPGSV,4,1,13,01,75,211,27,03,50,270,37,04,15,130,28,08,00,192,*77

[1499553034580]$GPGSV,4,2,13,11,48,196,28,12,04,017,,14,51,067,33,17,29,307,36*78

[1499553034580]$GPGSV,4,3,13,19,17,326,30,22,79,264,38,23,14,215,15,31,28,109,35*73

[1499553034580]$GPGSV,4,4,13,32,32,055,33*4B

[1499553034580]$GPGLL,5357.25074,N,02741.29170,E,193034.00,A,A*68

[1499553035577]$GPRMC,193035.00,A,5357.25077,N,02741.29173,E,0.010,,080717,,,A*78

[1499553035577]$GPVTG,,T,,M,0.010,N,0.019,K,A*2A

[1499553035577]$GPGGA,193035.00,5357.25077,N,02741.29173,E,1,10,0.87,223.5,M,24.7,M,,*55

[1499553035577]$GPGSA,A,3,22,01,14,03,11,32,17,31,19,23,,,1.57,0.87,1.31*06

[1499553035577]$GPGSV,4,1,13,01,75,211,27,03,50,270,37,04,15,130,27,08,00,192,*78

[1499553035577]$GPGSV,4,2,13,11,48,196,29,12,04,017,,14,51,067,33,17,29,307,35*7A

[1499553035577]$GPGSV,4,3,13,19,17,326,30,22,79,264,38,23,14,215,14,31,28,109,35*72

[1499553035577]$GPGSV,4,4,13,32,32,055,34*4C

[1499553035577]$GPGLL,5357.25077,N,02741.29173,E,193035.00,A,A*69

[1499553036580]$GPRMC,193036.00,A,5357.25079,N,02741.29175,E,0.014,,080717,,,A*77

[1499553036580]$GPVTG,,T,,M,0.014,N,0.026,K,A*22

[1499553036580]$GPGGA,193036.00,5357.25079,N,02741.29175,E,1,10,0.87,223.5,M,24.7,M,,*5E

[1499553036580]$GPGSA,A,3,22,01,14,03,11,32,17,31,19,23,,,1.57,0.87,1.31*06

[1499553036580]$GPGSV,4,1,13,01,75,211,27,03,50,270,38,04,15,130,27,08,00,192,*77

[1499553036580]$GPGSV,4,2,13,11,48,196,29,12,04,017,,14,51,067,33,17,29,307,35*7A

[1499553036580]$GPGSV,4,3,13,19,17,326,30,22,79,264,38,23,14,215,10,31,28,109,34*77

[1499553036580]$GPGSV,4,4,13,32,32,055,34*4C

[1499553036580]$GPGLL,5357.25079,N,02741.29175,E,193036.00,A,A*62

[1499553037577]$GPRMC,193037.00,A,5357.25080,N,02741.29176,E,0.022,,080717,,,A*76

[1499553037577]$GPVTG,,T,,M,0.022,N,0.041,K,A*26

[1499553037577]$GPGGA,193037.00,5357.25080,N,02741.29176,E,1,09,1.16,223.5,M,24.7,M,,*5B

[1499553037577]$GPGSA,A,3,22,01,14,03,11,32,17,31,19,,,,2.21,1.16,1.88*0E

[1499553037577]$GPGSV,4,1,13,01,75,211,27,03,50,270,38,04,15,130,27,08,00,192,*77

[1499553037577]$GPGSV,4,2,13,11,48,196,29,12,04,017,,14,51,067,32,17,29,307,35*7B

[1499553037577]$GPGSV,4,3,13,19,17,326,30,22,79,264,38,23,14,215,,31,28,109,34*76

[1499553037577]$GPGSV,4,4,13,32,32,055,35*4D

[1499553037577]$GPGLL,5357.25080,N,02741.29176,E,193037.00,A,A*66

[1499553038577]$GPRMC,193038.00,A,5357.25079,N,02741.29176,E,0.037,,080717,,,A*7B

[1499553038577]$GPVTG,,T,,M,0.037,N,0.068,K,A*29

[1499553038577]$GPGGA,193038.00,5357.25079,N,02741.29176,E,1,09,1.16,223.5,M,24.7,M,,*52

[1499553038577]$GPGSA,A,3,22,01,14,03,11,32,17,31,19,,,,2.21,1.16,1.88*0E

[1499553038577]$GPGSV,4,1,13,01,75,211,28,03,50,270,38,04,15,130,27,08,00,192,*78

[1499553038577]$GPGSV,4,2,13,11,48,196,28,12,04,017,,14,51,067,32,17,29,307,35*7A

[1499553038577]$GPGSV,4,3,13,19,17,326,30,22,79,264,38,23,14,215,,31,28,109,34*76

[1499553038577]$GPGSV,4,4,13,32,32,055,35*4D

[1499553038577]$GPGLL,5357.25079,N,02741.29176,E,193038.00,A,A*6F

[1499553039577]$GPRMC,193039.00,A,5357.25079,N,02741.29178,E,0.072,,080717,,,A*75

[1499553039577]$GPVTG,,T,,M,0.072,N,0.133,K,A*27

[1499553039577]$GPGGA,193039.00,5357.25079,N,02741.29178,E,1,09,1.16,223.5,M,24.7,M,,*5D

[1499553039577]$GPGSA,A,3,22,01,14,03,11,32,17,31,19,,,,2.21,1.16,1.88*0E

[1499553039577]$GPGSV,4,1,13,01,75,211,28,03,50,270,38,04,15,130,27,08,00,192,*78

[1499553039577]$GPGSV,4,2,13,11,48,196,28,12,04,017,,14,51,067,32,17,29,307,34*7B

[1499553039577]$GPGSV,4,3,13,19,17,326,31,22,79,264,37,23,14,215,,31,28,109,33*7F

[1499553039577]$GPGSV,4,4,13,32,32,055,36*4E

