[1499589199690]$GPRMC,053319.00,A,5356.98342,N,02726.59772,E,19.886,266.06,090717,,,A*5F

[1499589199690]$GPVTG,266.06,T,,M,19.886,N,36.830,K,A*39

[1499589199690]$GPGGA,053319.00,5356.98342,N,02726.59772,E,1,12,0.75,212.0,M,25.0,M,,*58

[1499589199690]$GPGSA,A,3,10,24,01,30,17,13,19,11,18,28,15,12,1.52,0.75,1.33*0A

[1499589199690]$GPGSV,3,1,12,01,13,044,29,10,13,321,29,11,09,030,31,12,18,240,25*7B

[1499589199690]$GPGSV,3,2,12,13,39,182,31,15,50,236,41,17,53,105,39,18,13,295,32*73

[1499589199690]$GPGSV,3,3,12,19,43,143,34,24,45,289,23,28,32,063,32,30,06,111,13*78

[1499589199690]$GPGLL,5356.98342,N,02726.59772,E,053319.00,A,A*6A

[1499589200686]$GPRMC,053320.00,A,5356.98344,N,02726.58813,E,20.164,274.00,090717,,,A*50

[1499589200686]$GPVTG,274.00,T,,M,20.164,N,37.344,K,A*3A

[1499589200686]$GPGGA,053320.00,5356.98344,N,02726.58813,E,1,11,0.85,211.8,M,25.0,M,,*5A

[1499589200686]$GPGSA,A,3,10,24,01,30,17,13,19,11,18,28,15,,1.70,0.85,1.47*05

[1499589200686]$GPGSV,3,1,12,01,13,044,30,10,13,321,36,11,09,030,34,12,18,240,*7F

[1499589200686]$GPGSV,3,2,12,13,39,182,33,15,50,236,41,17,53,105,40,18,13,295,33*7E

[1499589200686]$GPGSV,3,3,12,19,43,143,29,24,45,289,31,28,32,063,26,30,06,111,11*70

[1499589200686]$GPGLL,5356.98344,N,02726.58813,E,053320.00,A,A*6F

[1499589201687]$GPRMC,053321.00,A,5356.98440,N,02726.57865,E,20.543,282.35,090717,,,A*52

[1499589201687]$GPVTG,282.35,T,,M,20.543,N,38.045,K,A*39

[1499589201687]$GPGGA,053321.00,5356.98440,N,02726.57865,E,1,12,0.75,211.7,M,25.0,M,,*55

[1499589201687]$GPGSA,A,3,10,24,01,30,17,13,19,11,18,28,15,12,1.52,0.75,1.33*0A

[1499589201687]$GPGSV,3,1,12,01,13,044,35,10,13,321,35,11,09,030,27,12,18,240,30*78

[1499589201687]$GPGSV,3,2,12,13,39,182,33,15,50,236,38,17,53,105,33,18,13,295,15*70

[1499589201687]$GPGSV,3,3,12,19,43,143,36,24,45,289,35,28,32,063,27,30,06,111,17*7D

[1499589201687]$GPGLL,5356.98440,N,02726.57865,E,053321.00,A,A*63

[1499589202687]$GPRMC,053322.00,A,5356.98587,N,02726.56980,E,20.727,291.78,090717,,,A*5B

[1499589202687]$GPVTG,291.78,T,,M,20.727,N,38.387,K,A*3F

[1499589202687]$GPGGA,053322.00,5356.98587,N,02726.56980,E,1,11,0.85,210.5,M,25.0,M,,*58

[1499589202687]$GPGSA,A,3,10,24,01,30,17,13,19,11,18,28,15,,1.70,0.85,1.47*05

[1499589202687]$GPGSV,3,1,12,01,13,044,34,10,13,321,33,11,09,030,26,12,18,240,23*7C

[1499589202687]$GPGSV,3,2,12,13,39,182,33,15,50,236,42,17,53,105,28,18,13,295,21*70

[1499589202687]$GPGSV,3,3,12,19,43,143,29,24,45,289,40,28,32,063,38,30,06,111,20*7B

[1499589202687]$GPGLL,5356.98587,N,02726.56980,E,053322.00,A,A*61

[1499589203686]$GPRMC,053323.00,A,5356.98847,N,02726.56108,E,21.263,300.21,090717,,,A*52

[1499589203686]$GPVTG,300.21,T,,M,21.263,N,39.379,K,A*3E

[1499589203686]$GPGGA,053323.00,5356.98847,N,02726.56108,E,1,12,0.75,209.9,M,25.0,M,,*58

[1499589203686]$GPGSA,A,3,10,24,01,30,17,13,19,11,18,28,15,12,1.52,0.75,1.32*0B

[1499589203686]$GPGSV,3,1,12,01,13,044,31,10,13,321,33,11,09,030,32,12,18,240,31*7F

[1499589203686]$GPGSV,3,2,12,13,39,182,37,15,50,236,35,17,53,105,28,18,13,295,30*74

[1499589203686]$GPGSV,3,3,12,19,43,143,34,24,45,289,38,28,32,063,37,30,06,111,24*73

[1499589203686]$GPGLL,5356.98847,N,02726.56108,E,053323.00,A,A*69

[1499589204690]$GPRMC,053324.00,A,5356.99175,N,02726.55288,E,21.619,306.65,090717,,,A*5B

[1499589204690]$GPVTG,306.65,T,,M,21.619,N,40.038,K,A*39

[1499589204690]$GPGGA,053324.00,5356.99175,N,02726.55288,E,1,12,0.75,209.1,M,25.0,M,,*56

[1499589204690]$GPGSA,A,3,10,24,01,30,17,13,19,11,18,28,15,12,1.52,0.75,1.32*0B

[1499589204690]$GPGSV,3,1,12,01,13,044,25,10,13,321,27,11,09,030,26,12,18,240,25*7F

[1499589204690]$GPGSV,3,2,12,13,39,182,33,15,50,236,31,17,53,105,34,18,13,295,35*7C

[1499589204690]$GPGSV,3,3,12,19,43,143,30,24,45,289,39,28,32,063,34,30,06,111,24*75

[1499589204690]$GPGLL,5356.99175,N,02726.55288,E,053324.00,A,A*6F

[1499589205686]$GPRMC,053325.00,A,5356.99608,N,02726.54545,E,21.933,317.09,090717,,,A*5D

[1499589205686]$GPVTG,317.09,T,,M,21.933,N,40.620,K,A*3B

[1499589205686]$GPGGA,053325.00,5356.99608,N,02726.54545,E,1,12,0.75,209.2,M,25.0,M,,*5E

[1499589205686]$GPGSA,A,3,10,24,01,30,17,13,19,11,18,28,15,12,1.52,0.75,1.32*0B

[1499589205686]$GPGSV,3,1,12,01,13,044,25,10,13,321,27,11,09,030,26,12,18,240,30*7B

[1499589205686]$GPGSV,3,2,12,13,39,182,35,15,50,236,39,17,53,105,34,18,13,295,31*76

[1499589205686]$GPGSV,3,3,12,19,43,143,33,24,45,289,39,28,32,063,23,30,06,111,23*77

[1499589205686]$GPGLL,5356.99608,N,02726.54545,E,053325.00,A,A*64

[1499589206687]$GPRMC,053326.00,A,5357.00109,N,02726.53943,E,21.752,327.89,090717,,,A*56

[1499589206687]$GPVTG,327.89,T,,M,21.752,N,40.285,K,A*32

[1499589206687]$GPGGA,053326.00,5357.00109,N,02726.53943,E,1,12,0.75,209.1,M,25.0,M,,*54

[1499589206687]$GPGSA,A,3,10,24,01,30,17,13,19,11,18,28,15,12,1.52,0.75,1.32*0B

[1499589206687]$GPGSV,3,1,12,01,13,044,27,10,13,321,28,11,09,030,25,12,18,240,34*71

[1499589206687]$GPGSV,3,2,12,13,39,182,36,15,50,236,37,17,53,105,36,18,13,295,30*78

[1499589206687]$GPGSV,3,3,12,19,43,143,34,24,45,289,37,28,32,063,36,30,06,111,30*78

[1499589206687]$GPGLL,5357.00109,N,02726.53943,E,053326.00,A,A*6D

[1499589207687]$GPRMC,053327.00,A,5357.00667,N,02726.53520,E,21.614,339.13,090717,,,A*5E

[1499589207687]$GPVTG,339.13,T,,M,21.614,N,40.030,K,A*31

[1499589207687]$GPGGA,053327.00,5357.00667,N,02726.53520,E,1,12,0.75,208.9,M,25.0,M,,*5A

[1499589207687]$GPGSA,A,3,10,24,01,30,17,13,19,11,18,28,15,12,1.52,0.75,1.32*0B

[1499589207687]$GPGSV,3,1,12,01,13,044,30,10,13,321,36,11,09,030,35,12,18,240,30*7D

[1499589207687]$GPGSV,3,2,12,13,39,182,35,15,50,236,30,17,53,105,19,18,13,295,31*70

[1499589207687]$GPGSV,3,3,12,19,43,143,30,24,45,289,36,28,32,063,33,30,06,111,37*7F

[1499589207687]$GPGLL,5357.00667,N,02726.53520,E,053327.00,A,A*6A

[1499589208687]$GPRMC,053328.00,A,5357.01241,N,02726.53276,E,21.290,348.85,090717,,,A*55

[1499589208687]$GPVTG,348.85,T,,M,21.290,N,39.428,K,A*33

[1499589208687]$GPGGA,053328.00,5357.01241,N,02726.53276,E,1,12,0.75,208.5,M,25.0,M,,*5C

[1499589208687]$GPGSA,A,3,10,24,01,30,17,13,19,11,18,28,15,12,1.52,0.75,1.32*0B

[1499589208687]$GPGSV,3,1,12,01,13,043,30,10,13,321,33,11,09,030,31,12,18,240,34*7F

[1499589208687]$GPGSV,3,2,12,13,39,182,36,15,50,236,29,17,53,105,20,18,13,295,30*70

[1499589208687]$GPGSV,3,3,12,19,43,143,29,24,45,289,33,28,32,063,32,30,06,111,31*75

[1499589208687]$GPGLL,5357.01241,N,02726.53276,E,053328.00,A,A*60

[1499589209688]$GPRMC,053329.00,A,5357.01831,N,02726.53221,E,21.027,359.80,090717,,,A*50

[1499589209688]$GPVTG,359.80,T,,M,21.027,N,38.942,K,A*38

[1499589209688]$GPGGA,053329.00,5357.01831,N,02726.53221,E,1,12,0.75,208.4,M,25.0,M,,*53

[1499589209688]$GPGSA,A,3,10,24,01,30,17,13,19,11,18,28,15,12,1.52,0.75,1.32*0B

[1499589209688]$GPGSV,3,1,12,01,13,043,35,10,13,321,27,11,09,030,31,12,18,240,38*73

[1499589209688]$GPGSV,3,2,12,13,39,182,33,15,50,236,38,17,53,105,20,18,13,295,21*75

[1499589209688]$GPGSV,3,3,12,19,43,143,30,24,45,289,37,28,32,063,32,30,06,111,25*7C

[1499589209688]$GPGLL,5357.01831,N,02726.53221,E,053329.00,A,A*6E

[1499589210687]$GPRMC,053330.00,A,5357.02401,N,02726.53377,E,20.761,12.73,090717,,,A*62

[1499589210687]$GPVTG,12.73,T,,M,20.761,N,38.450,K,A*02

[1499589210687]$GPGGA,053330.00,5357.02401,N,02726.53377,E,1,12,0.75,208.1,M,25.0,M,,*50

[1499589210687]$GPGSA,A,3,10,24,01,30,17,13,19,11,18,28,15,12,1.52,0.75,1.32*0B

[1499589210687]$GPGSV,3,1,12,01,13,043,35,10,13,321,29,11,09,030,22,12,18,240,21*77

[1499589210687]$GPGSV,3,2,12,13,39,182,30,15,50,236,38,17,53,105,34,18,13,295,22*70

[1499589210687]$GPGSV,3,3,12,19,43,143,20,24,45,289,30,28,32,063,35,30,06,111,25*7D

[1499589210687]$GPGLL,5357.02401,N,02726.53377,E,053330.00,A,A*68

[1499589211689]$GPRMC,053331.00,A,5357.02915,N,02726.53747,E,20.479,25.66,090717,,,A*66

[1499589211689]$GPVTG,25.66,T,,M,20.479,N,37.927,K,A*0A

[1499589211689]$GPGGA,053331.00,5357.02915,N,02726.53747,E,1,12,0.75,207.5,M,25.0,M,,*55

[1499589211689]$GPGSA,A,3,10,24,01,30,17,13,19,11,18,28,15,12,1.52,0.75,1.32*0B

[1499589211689]$GPGSV,3,1,12,01,13,043,26,10,13,321,20,11,09,030,20,12,18,240,35*7B

[1499589211689]$GPGSV,3,2,12,13,39,182,31,15,50,236,36,17,53,105,28,18,13,295,30*71

[1499589211689]$GPGSV,3,3,12,19,43,143,34,24,45,289,39,28,32,063,31,30,06,111,26*76

[1499589211689]$GPGLL,5357.02915,N,02726.53747,E,053331.00,A,A*66

[1499589212690]$GPRMC,053332.00,A,5357.03386,N,02726.54265,E,20.037,35.67,090717,,,A*68

[1499589212690]$GPVTG,35.67,T,,M,20.037,N,37.109,K,A*00

[1499589212690]$GPGGA,053332.00,5357.03386,N,02726.54265,E,1,12,0.75,207.1,M,25.0,M,,*51

[1499589212690]$GPGSA,A,3,10,24,01,30,17,13,19,11,18,28,15,12,1.52,0.75,1.32*0B

[1499589212690]$GPGSV,3,1,12,01,13,043,27,10,13,321,23,11,09,030,17,12,18,240,28*71

[1499589212690]$GPGSV,3,2,12,13,39,182,30,15,50,236,38,17,53,105,35,18,13,295,22*71

[1499589212690]$GPGSV,3,3,12,19,43,143,34,24,45,289,37,28,32,063,35,30,06,111,25*7F

[1499589212690]$GPGLL,5357.03386,N,02726.54265,E,053332.00,A,A*66

[1499589213677]$GPRMC,053333.00,A,5357.03807,N,02726.54875,E,19.846,42.54,090717,,,A*64

[1499589213677]$GPVTG,42.54,T,,M,19.846,N,36.755,K,A*0A

[1499589213677]$GPGGA,053333.00,5357.03807,N,02726.54875,E,1,12,0.75,206.6,M,25.0,M,,*5F

[1499589213677]$GPGSA,A,3,10,24,01,30,17,13,19,11,18,28,15,12,1.52,0.75,1.32*0B

[1499589213677]$GPGSV,3,1,12,01,13,043,26,10,13,321,34,11,09,030,15,12,18,240,26*7A

[1499589213677]$GPGSV,3,2,12,13,39,182,22,15,50,236,38,17,53,105,38,18,13,295,33*7F

[1499589213677]$GPGSV,3,3,12,19,43,143,34,24,45,289,29,28,32,063,32,30,06,111,31*72

[1499589213677]$GPGLL,5357.03807,N,02726.54875,E,053333.00,A,A*6E

[1499589214687]$GPRMC,053334.00,A,5357.04178,N,02726.55558,E,19.558,49.36,090717,,,A*6B

[1499589214687]$GPVTG,49.36,T,,M,19.558,N,36.222,K,A*02

[1499589214687]$GPGGA,053334.00,5357.04178,N,02726.55558,E,1,12,0.75,206.3,M,25.0,M,,*58

[1499589214687]$GPGSA,A,3,10,24,01,30,17,13,19,11,18,28,15,12,1.52,0.75,1.32*0B

[1499589214687]$GPGSV,3,1,12,01,13,043,31,10,13,321,30,11,09,030,11,12,18,240,33*78

[1499589214687]$GPGSV,3,2,12,13,39,182,34,15,50,236,37,17,53,105,36,18,13,295,27*7C

[1499589214687]$GPGSV,3,3,12,19,43,143,29,24,45,289,32,28,32,063,31,30,06,111,25*72

[1499589214687]$GPGLL,5357.04178,N,02726.55558,E,053334.00,A,A*6C

[1499589215687]$GPRMC,053335.00,A,5357.04488,N,02726.56312,E,19.221,58.71,090717,,,A*61

[1499589215687]$GPVTG,58.71,T,,M,19.221,N,35.598,K,A*0D

[1499589215687]$GPGGA,053335.00,5357.04488,N,02726.56312,E,1,12,0.75,205.7,M,25.0,M,,*5F

[1499589215687]$GPGSA,A,3,10,24,01,30,17,13,19,11,18,28,15,12,1.52,0.75,1.32*0B

[1499589215687]$GPGSV,3,1,12,01,13,043,37,10,13,321,23,11,09,030,10,12,18,240,27*78

[1499589215687]$GPGSV,3,2,12,13,39,182,34,15,50,236,26,17,53,105,35,18,13,295,26*7E

[1499589215687]$GPGSV,3,3,12,19,43,143,30,24,45,289,33,28,32,063,29,30,06,111,27*70

[1499589215687]$GPGLL,5357.04488,N,02726.56312,E,053335.00,A,A*6C

[1499589216687]$GPRMC,053336.00,A,5357.04707,N,02726.57133,E,19.076,69.09,090717,,,A*6B

[1499589216687]$GPVTG,69.09,T,,M,19.076,N,35.328,K,A*0D

[1499589216687]$GPGGA,053336.00,5357.04707,N,02726.57133,E,1,12,0.75,205.5,M,25.0,M,,*5A

[1499589216687]$GPGSA,A,3,10,24,01,30,17,13,19,11,18,28,15,12,1.52,0.75,1.32*0B

[1499589216687]$GPGSV,3,1,12,01,13,043,24,10,13,321,24,11,09,030,10,12,18,240,32*79

[1499589216687]$GPGSV,3,2,12,13,39,182,34,15,50,236,34,17,53,105,38,18,13,295,26*70

[1499589216687]$GPGSV,3,3,12,19,43,143,35,24,45,289,33,28,32,063,20,30,06,111,18*70

[1499589216687]$GPGLL,5357.04707,N,02726.57133,E,053336.00,A,A*6B

[1499589217677]$GPRMC,053337.00,A,5357.04814,N,02726.58005,E,19.009,82.01,090717,,,A*69

[1499589217677]$GPVTG,82.01,T,,M,19.009,N,35.204,K,A*07

[1499589217677]$GPGGA,053337.00,5357.04814,N,02726.58005,E,1,12,0.75,205.2,M,25.0,M,,*5A

[1499589217677]$GPGSA,A,3,10,24,01,30,17,13,19,11,18,28,15,12,1.52,0.75,1.32*0B

[1499589217677]$GPGSV,3,1,12,01,13,043,25,10,13,321,22,11,09,030,10,12,18,240,30*7C

[1499589217677]$GPGSV,3,2,12,13,39,182,29,15,50,236,32,17,53,105,41,18,13,295,31*72

[1499589217677]$GPGSV,3,3,12,19,43,143,38,24,45,289,36,28,32,063,33,30,06,111,38*78

[1499589217677]$GPGLL,5357.04814,N,02726.58005,E,053337.00,A,A*6C

[1499589218686]$GPRMC,053338.00,A,5357.04789,N,02726.58908,E,19.022,95.95,090717,,,A*6B

[1499589218686]$GPVTG,95.95,T,,M,19.022,N,35.229,K,A*0A

[1499589218686]$GPGGA,053338.00,5357.04789,N,02726.58908,E,1,11,0.79,204.7,M,25.0,M,,*51

[1499589218686]$GPGSA,A,3,10,24,01,30,17,13,19,18,28,15,12,,1.55,0.79,1.34*06

[1499589218686]$GPGSV,3,1,12,01,13,043,25,10,13,321,23,11,09,030,06,12,18,240,31*7B

[1499589218686]$GPGSV,3,2,12,13,39,182,37,15,50,236,35,17,53,105,37,18,13,295,24*7F

[1499589218686]$GPGSV,3,3,12,19,43,143,34,24,45,289,37,28,32,063,28,30,06,111,37*70

[1499589218686]$GPGLL,5357.04789,N,02726.58908,E,053338.00,A,A*6C

[1499589219687]$GPRMC,053339.00,A,5357.04687,N,02726.59823,E,19.701,100.59,090717,,,A*57

[1499589219687]$GPVTG,100.59,T,,M,19.701,N,36.486,K,A*31

[1499589219687]$GPGGA,053339.00,5357.04687,N,02726.59823,E,1,11,0.79,204.7,M,25.0,M,,*56

[1499589219687]$GPGSA,A,3,10,24,01,30,17,13,19,18,28,15,12,,1.55,0.79,1.34*06

[1499589219687]$GPGSV,3,1,12,01,13,043,33,10,13,321,21,11,09,030,06,12,18,240,35*7A

[1499589219687]$GPGSV,3,2,12,13,39,182,39,15,50,236,37,17,53,105,35,18,13,295,25*70

[1499589219687]$GPGSV,3,3,12,19,43,143,29,24,45,289,40,28,32,063,26,30,06,111,43*71

[1499589219687]$GPGLL,5357.04687,N,02726.59823,E,053339.00,A,A*6B

[1499589220692]$GPRMC,053340.00,A,5357.04588,N,02726.60763,E,20.746,101.96,090717,,,A*5F

[1499589220692]$GPVTG,101.96,T,,M,20.746,N,38.422,K,A*3A

[1499589220692]$GPGGA,053340.00,5357.04588,N,02726.60763,E,1,11,0.79,204.8,M,25.0,M,,*5A

[1499589220692]$GPGSA,A,3,10,24,01,30,17,13,19,18,28,15,12,,1.55,0.79,1.34*06

[1499589220692]$GPGSV,3,1,12,01,13,043,32,10,13,321,23,11,09,030,06,12,18,240,30*7C

[1499589220692]$GPGSV,3,2,12,13,39,182,37,15,50,236,36,17,53,105,35,18,13,295,24*7E

[1499589220692]$GPGSV,3,3,12,19,43,143,28,24,45,289,40,28,32,063,27,30,06,111,43*71

[1499589220692]$GPGLL,5357.04588,N,02726.60763,E,053340.00,A,A*68

[1499589221687]$GPRMC,053341.00,A,5357.04450,N,02726.61769,E,22.144,103.78,090717,,,A*55

[1499589221687]$GPVTG,103.78,T,,M,22.144,N,41.011,K,A*34

[1499589221687]$GPGGA,053341.00,5357.04450,N,02726.61769,E,1,11,0.79,204.6,M,25.0,M,,*5A

[1499589221687]$GPGSA,A,3,10,24,01,30,17,13,19,18,28,15,12,,1.55,0.79,1.34*06

[1499589221687]$GPGSV,3,1,12,01,13,043,31,10,13,321,22,11,09,030,06,12,18,240,30*7E

[1499589221687]$GPGSV,3,2,12,13,39,182,35,15,50,236,34,17,53,105,34,18,13,295,26*7D

[1499589221687]$GPGSV,3,3,12,19,43,143,28,24,45,289,38,28,32,063,26,30,06,111,42*7E

[1499589221687]$GPGLL,5357.04450,N,02726.61769,E,053341.00,A,A*66

[1499589222687]$GPRMC,053342.00,A,5357.04306,N,02726.62826,E,23.368,103.29,090717,,,A*5C

[1499589222687]$GPVTG,103.29,T,,M,23.368,N,43.277,K,A*3D

[1499589222687]$GPGGA,053342.00,5357.04306,N,02726.62826,E,1,11,0.79,204.5,M,25.0,M,,*59

[1499589222687]$GPGSA,A,3,10,24,01,30,17,13,19,18,28,15,12,,1.55,0.79,1.34*06

[1499589222687]$GPGSV,3,1,12,01,13,043,31,10,13,321,22,11,09,030,06,12,18,240,29*76

[1499589222687]$GPGSV,3,2,12,13,39,182,36,15,50,236,34,17,53,105,35,18,13,295,27*7E

[1499589222687]$GPGSV,3,3,12,19,43,143,28,24,45,289,37,28,32,063,24,30,06,111,37*71

[1499589222687]$GPGLL,5357.04306,N,02726.62826,E,053342.00,A,A*66

[1499589223692]$GPRMC,053343.00,A,5357.04151,N,02726.63942,E,24.586,103.62,090717,,,A*51

[1499589223692]$GPVTG,103.62,T,,M,24.586,N,45.534,K,A*35

[1499589223692]$GPGGA,053343.00,5357.04151,N,02726.63942,E,1,11,0.79,204.4,M,25.0,M,,*5B

[1499589223692]$GPGSA,A,3,10,24,01,30,17,13,19,18,28,15,12,,1.55,0.79,1.34*06

[1499589223692]$GPGSV,3,1,12,01,13,043,31,10,13,321,25,11,09,030,06,12,18,240,28*70

[1499589223692]$GPGSV,3,2,12,13,39,182,35,15,50,236,35,17,53,104,35,18,13,295,27*7D

[1499589223692]$GPGSV,3,3,12,19,43,143,28,24,45,289,37,28,32,063,24,30,06,111,28*7F

[1499589223692]$GPGLL,5357.04151,N,02726.63942,E,053343.00,A,A*65

[1499589224677]$GPRMC,053344.00,A,5357.03996,N,02726.65109,E,25.560,101.59,090717,,,A*50

[1499589224677]$GPVTG,101.59,T,,M,25.560,N,47.337,K,A*31

[1499589224677]$GPGGA,053344.00,5357.03996,N,02726.65109,E,1,11,0.79,204.1,M,25.0,M,,*5C

[1499589224677]$GPGSA,A,3,10,24,01,30,17,13,19,18,28,15,12,,1.55,0.79,1.34*06

[1499589224677]$GPGSV,3,1,12,01,13,043,32,10,13,321,28,11,09,030,09,12,18,240,36*7E

[1499589224677]$GPGSV,3,2,12,13,39,182,38,15,50,236,36,17,53,104,34,18,13,295,27*72

[1499589224677]$GPGSV,3,3,12,19,43,143,28,24,45,289,40,28,32,063,23,30,06,111,28*78

[1499589224677]$GPGLL,5357.03996,N,02726.65109,E,053344.00,A,A*67

[1499589225687]$GPRMC,053345.00,A,5357.03866,N,02726.66336,E,26.651,99.97,090717,,,A*62

[1499589225687]$GPVTG,99.97,T,,M,26.651,N,49.357,K,A*09

[1499589225687]$GPGGA,053345.00,5357.03866,N,02726.66336,E,1,11,0.79,203.7,M,25.0,M,,*5F

[1499589225687]$GPGSA,A,3,10,24,01,30,17,13,19,18,28,15,12,,1.55,0.79,1.34*06

[1499589225687]$GPGSV,3,1,12,01,13,043,32,10,13,321,27,11,09,030,09,12,18,240,36*71

[1499589225687]$GPGSV,3,2,12,13,39,182,40,15,50,236,38,17,53,104,34,18,13,295,26*72

[1499589225687]$GPGSV,3,3,12,19,44,143,27,24,45,289,40,28,32,063,25,30,06,111,19*74

[1499589225687]$GPGLL,5357.03866,N,02726.66336,E,053345.00,A,A*65

[1499589226687]$GPRMC,053346.00,A,5357.03714,N,02726.67609,E,27.900,102.51,090717,,,A*50

[1499589226687]$GPVTG,102.51,T,,M,27.900,N,51.671,K,A*32

[1499589226687]$GPGGA,053346.00,5357.03714,N,02726.67609,E,1,12,0.75,203.6,M,25.0,M,,*50

[1499589226687]$GPGSA,A,3,10,24,01,30,17,13,19,11,18,28,15,12,1.52,0.75,1.32*0B

[1499589226687]$GPGSV,3,1,12,01,13,043,32,10,13,321,29,11,09,030,09,12,18,240,27*7F

[1499589226687]$GPGSV,3,2,12,13,39,182,36,15,50,236,36,17,53,104,37,18,13,295,26*7E

[1499589226687]$GPGSV,3,3,12,19,44,143,27,24,45,289,39,28,32,063,26,30,06,111,21*72

[1499589226687]$GPGLL,5357.03714,N,02726.67609,E,053346.00,A,A*64

[1499589227678]$GPRMC,053347.00,A,5357.03529,N,02726.68919,E,28.840,104.42,090717,,,A*52

[1499589227678]$GPVTG,104.42,T,,M,28.840,N,53.411,K,A*3A

[1499589227678]$GPGGA,053347.00,5357.03529,N,02726.68919,E,1,12,0.79,203.6,M,25.0,M,,*50

[1499589227678]$GPGSA,A,3,10,24,01,30,17,13,19,11,18,28,15,12,1.55,0.79,1.34*06

[1499589227678]$GPGSV,3,1,12,01,13,043,27,10,13,321,31,11,09,030,09,12,18,240,27*72

[1499589227678]$GPGSV,3,2,12,13,39,182,35,15,50,236,36,17,53,104,38,18,13,295,27*73

[1499589227678]$GPGSV,3,3,12,19,44,143,28,24,45,289,36,28,32,063,26,30,06,111,37*75

[1499589227678]$GPGLL,5357.03529,N,02726.68919,E,053347.00,A,A*68

[1499589228686]$GPRMC,053348.00,A,5357.03324,N,02726.70254,E,29.683,104.96,090717,,,A*54

[1499589228686]$GPVTG,104.96,T,,M,29.683,N,54.973,K,A*3D

[1499589228686]$GPGGA,053348.00,5357.03324,N,02726.70254,E,1,09,0.88,203.7,M,25.0,M,,*5A

[1499589228686]$GPGSA,A,3,10,24,01,30,11,18,28,15,12,,,,1.80,0.88,1.57*09

[1499589228686]$GPGSV,3,1,12,01,13,043,11,10,13,321,32,11,09,030,09,12,18,240,26*75

[1499589228686]$GPGSV,3,2,12,13,39,182,09,15,50,236,19,17,53,104,,18,13,295,26*7B

[1499589228686]$GPGSV,3,3,12,19,44,143,,24,45,289,28,28,32,063,22,30,06,111,40*74

[1499589228686]$GPGLL,5357.03324,N,02726.70254,E,053348.00,A,A*67

[1499589229677]$GPRMC,053349.00,A,5357.03100,N,02726.71624,E,30.452,105.76,090717,,,A*5A

[1499589229677]$GPVTG,105.76,T,,M,30.452,N,56.398,K,A*39

[1499589229677]$GPGGA,053349.00,5357.03100,N,02726.71624,E,1,08,0.92,203.4,M,25.0,M,,*54

[1499589229677]$GPGSA,A,3,10,24,30,11,18,28,15,12,,,,,1.82,0.92,1.57*01

[1499589229677]$GPGSV,3,1,12,01,13,043,09,10,13,321,26,11,09,030,09,12,18,240,22*7D

[1499589229677]$GPGSV,3,2,12,13,39,182,08,15,50,236,18,17,53,104,,18,13,295,24*79

[1499589229677]$GPGSV,3,3,12,19,44,143,,24,45,289,24,28,32,063,18,30,06,111,37*71

[1499589229677]$GPGLL,5357.03100,N,02726.71624,E,053349.00,A,A*60

[1499589230686]$GPRMC,053350.00,A,5357.02882,N,02726.73046,E,31.177,104.46,090717,,,A*51

[1499589230686]$GPVTG,104.46,T,,M,31.177,N,57.739,K,A*36

[1499589230686]$GPGGA,053350.00,5357.02882,N,02726.73046,E,1,07,1.11,202.7,M,25.0,M,,*59

[1499589230686]$GPGSA,A,3,10,24,30,11,18,28,15,,,,,,2.06,1.11,1.74*06

[1499589230686]$GPGSV,3,1,12,01,13,043,08,10,13,321,23,11,09,030,07,12,18,240,*77

[1499589230686]$GPGSV,3,2,12,13,39,182,08,15,50,236,16,17,53,104,22,18,13,295,21*72

[1499589230686]$GPGSV,3,3,12,19,44,143,,24,46,289,17,28,32,063,12,30,06,111,40*78

[1499589230686]$GPGLL,5357.02882,N,02726.73046,E,053350.00,A,A*6A

[1499589231677]$GPRMC,053351.00,A,5357.02621,N,02726.74436,E,31.277,106.96,090717,,,A*5F

[1499589231677]$GPVTG,106.96,T,,M,31.277,N,57.926,K,A*3A

[1499589231677]$GPGGA,053351.00,5357.02621,N,02726.74436,E,1,09,0.92,202.9,M,25.0,M,,*51

[1499589231677]$GPGSA,A,3,10,24,30,17,13,11,18,28,15,,,,1.73,0.92,1.47*09

[1499589231677]$GPGSV,3,1,12,01,13,043,08,10,13,321,18,11,09,030,07,12,18,240,30*7C

[1499589231677]$GPGSV,3,2,12,13,39,182,33,15,50,236,29,17,53,104,34,18,13,295,18*7B

[1499589231677]$GPGSV,3,3,12,19,44,143,25,24,46,289,16,28,32,063,28,30,06,111,38*78

[1499589231677]$GPGLL,5357.02621,N,02726.74436,E,053351.00,A,A*68

[1499589232677]$GPRMC,053352.00,A,5357.02344,N,02726.75854,E,31.716,108.99,090717,,,A*50

[1499589232677]$GPVTG,108.99,T,,M,31.716,N,58.737,K,A*38

[1499589232677]$GPGGA,053352.00,5357.02344,N,02726.75854,E,1,10,0.81,203.0,M,25.0,M,,*5F

[1499589232677]$GPGSA,A,3,10,24,30,17,13,11,18,28,15,12,,,1.57,0.81,1.34*0A

[1499589232677]$GPGSV,3,1,12,01,13,043,08,10,13,321,16,11,09,030,07,12,18,240,31*73

[1499589232677]$GPGSV,3,2,12,13,39,182,34,15,50,236,29,17,53,104,34,18,13,295,14*70

[1499589232677]$GPGSV,3,3,12,19,44,143,21,24,46,289,18,28,32,063,29,30,06,111,38*73

[1499589232677]$GPGLL,5357.02344,N,02726.75854,E,053352.00,A,A*64

[1499589233679]$GPRMC,053353.00,A,5357.02065,N,02726.77258,E,31.208,109.40,090717,,,A*5A

[1499589233679]$GPVTG,109.40,T,,M,31.208,N,57.796,K,A*33

[1499589233679]$GPGGA,053353.00,5357.02065,N,02726.77258,E,1,09,0.89,203.1,M,25.0,M,,*5B

[1499589233679]$GPGSA,A,3,10,24,30,17,13,18,28,15,12,,,,1.64,0.89,1.37*01

[1499589233679]$GPGSV,3,1,12,01,13,043,08,10,13,321,29,11,09,030,06,12,18,240,30*7F

[1499589233679]$GPGSV,3,2,12,13,39,182,35,15,50,236,28,17,53,104,35,18,13,295,14*71

[1499589233679]$GPGSV,3,3,12,19,44,143,15,24,46,289,19,28,32,063,30,30,06,111,39*7C

[1499589233679]$GPGLL,5357.02065,N,02726.77258,E,053353.00,A,A*61

[1499589234687]$GPRMC,053354.00,A,5357.01786,N,02726.78639,E,30.670,109.66,090717,,,A*56

[1499589234687]$GPVTG,109.66,T,,M,30.670,N,56.800,K,A*3C

[1499589234687]$GPGGA,053354.00,5357.01786,N,02726.78639,E,1,10,0.81,203.2,M,25.0,M,,*5A

[1499589234687]$GPGSA,A,3,10,24,30,17,13,11,18,28,15,12,,,1.57,0.81,1.34*0A

[1499589234687]$GPGSV,3,1,12,01,13,043,08,10,13,321,31,11,09,030,17,12,18,240,30*76

[1499589234687]$GPGSV,3,2,12,13,39,182,35,15,50,236,27,17,53,104,35,18,13,295,18*72

[1499589234687]$GPGSV,3,3,12,19,44,143,10,24,46,289,19,28,32,063,30,30,06,111,37*77

[1499589234687]$GPGLL,5357.01786,N,02726.78639,E,053354.00,A,A*63

[1499589235677]$GPRMC,053355.00,A,5357.01513,N,02726.80013,E,30.384,111.08,090717,,,A*5F

[1499589235677]$GPVTG,111.08,T,,M,30.384,N,56.271,K,A*3F

[1499589235677]$GPGGA,053355.00,5357.01513,N,02726.80013,E,1,10,0.81,203.1,M,25.0,M,,*5F

[1499589235677]$GPGSA,A,3,10,24,30,17,13,11,18,28,15,12,,,1.57,0.81,1.34*0A

[1499589235677]$GPGSV,3,1,12,01,13,043,08,10,13,321,31,11,09,030,25,12,18,240,30*77

[1499589235677]$GPGSV,3,2,12,13,39,182,36,15,50,236,27,17,53,104,34,18,13,295,22*79

[1499589235677]$GPGSV,3,3,12,19,44,143,12,24,46,289,21,28,32,063,30,30,06,111,37*7E

[1499589235677]$GPGLL,5357.01513,N,02726.80013,E,053355.00,A,A*65

[1499589236691]$GPRMC,053356.00,A,5357.01207,N,02726.81349,E,30.170,112.07,090717,,,A*56

[1499589236691]$GPVTG,112.07,T,,M,30.170,N,55.874,K,A*36

[1499589236691]$GPGGA,053356.00,5357.01207,N,02726.81349,E,1,12,0.77,203.2,M,25.0,M,,*5B

[1499589236691]$GPGSA,A,3,10,24,01,30,17,13,19,11,18,28,15,12,1.55,0.77,1.34*08

[1499589236691]$GPGSV,3,1,12,01,13,043,16,10,13,321,30,11,09,030,32,12,18,240,30*7F

[1499589236691]$GPGSV,3,2,12,13,39,182,35,15,50,236,28,17,53,104,34,18,13,295,25*72

[1499589236691]$GPGSV,3,3,12,19,44,143,12,24,46,289,24,28,32,063,31,30,06,111,37*7A

[1499589236691]$GPGLL,5357.01207,N,02726.81349,E,053356.00,A,A*69

[1499589237687]$GPRMC,053357.00,A,5357.00889,N,02726.82667,E,30.014,112.95,090717,,,A*58

[1499589237687]$GPVTG,112.95,T,,M,30.014,N,55.585,K,A*3D

[1499589237687]$GPGGA,053357.00,5357.00889,N,02726.82667,E,1,11,0.77,203.5,M,25.0,M,,*59

[1499589237687]$GPGSA,A,3,10,24,01,30,17,13,11,18,28,15,12,,1.55,0.77,1.34*00

[1499589237687]$GPGSV,3,1,12,01,13,043,23,10,13,321,29,11,09,030,33,12,18,240,29*78

[1499589237687]$GPGSV,3,2,12,13,39,182,35,15,50,236,29,17,53,104,34,18,13,295,25*73

[1499589237687]$GPGSV,3,3,12,19,44,143,,24,46,289,27,28,32,063,31,30,06,111,36*7B

[1499589237687]$GPGLL,5357.00889,N,02726.82667,E,053357.00,A,A*6F

[1499589238686]$GPRMC,053358.00,A,5357.00557,N,02726.83967,E,29.889,113.80,090717,,,A*56

[1499589238686]$GPVTG,113.80,T,,M,29.889,N,55.355,K,A*37

[1499589238686]$GPGGA,053358.00,5357.00557,N,02726.83967,E,1,12,0.75,203.6,M,25.0,M,,*54

[1499589238686]$GPGSA,A,3,10,24,01,30,17,13,19,11,18,28,15,12,1.52,0.75,1.32*0B

[1499589238686]$GPGSV,3,1,12,01,13,043,25,10,13,321,29,11,09,030,28,12,18,240,30*7C

[1499589238686]$GPGSV,3,2,12,13,39,182,36,15,50,236,30,17,53,104,33,18,13,295,25*7F

[1499589238686]$GPGSV,3,3,12,19,44,143,30,24,46,289,27,28,32,063,31,30,06,111,33*7D

[1499589238686]$GPGLL,5357.00557,N,02726.83967,E,053358.00,A,A*60

[1499589239687]$GPRMC,053359.00,A,5357.00214,N,02726.85253,E,29.646,114.72,090717,,,A*5A

[1499589239687]$GPVTG,114.72,T,,M,29.646,N,54.904,K,A*3F

[1499589239687]$GPGGA,053359.00,5357.00214,N,02726.85253,E,1,12,0.75,203.7,M,25.0,M,,*5E

[1499589239687]$GPGSA,A,3,10,24,01,30,17,13,19,11,18,28,15,12,1.52,0.75,1.32*0B

[1499589239687]$GPGSV,3,1,12,01,13,043,26,10,13,321,29,11,09,030,28,12,18,240,29*77

[1499589239687]$GPGSV,3,2,12,13,39,182,37,15,50,236,30,17,53,104,32,18,13,295,25*7F

[1499589239687]$GPGSV,3,3,12,19,44,143,34,24,46,289,27,28,32,063,31,30,06,111,36*7C

[1499589239687]$GPGLL,5357.00214,N,02726.85253,E,053359.00,A,A*6B

[1499589240686]$GPRMC,053400.00,A,5356.99866,N,02726.86524,E,29.546,114.67,090717,,,A*5C

[1499589240686]$GPVTG,114.67,T,,M,29.546,N,54.720,K,A*30

[1499589240686]$GPGGA,053400.00,5356.99866,N,02726.86524,E,1,12,0.75,203.7,M,25.0,M,,*5F

[1499589240686]$GPGSA,A,3,10,24,01,30,17,13,19,11,18,28,15,12,1.52,0.75,1.32*0B

[1499589240686]$GPGSV,3,1,12,01,13,043,27,10,13,321,29,11,09,030,32,12,18,240,29*7D

[1499589240686]$GPGSV,3,2,12,13,39,182,37,15,50,236,29,17,53,104,32,18,13,295,25*77

[1499589240686]$GPGSV,3,3,12,19,44,143,33,24,46,289,27,28,32,063,31,30,06,111,36*7B

[1499589240686]$GPGLL,5356.99866,N,02726.86524,E,053400.00,A,A*6A

[1499589241687]$GPRMC,053401.00,A,5356.99519,N,02726.87800,E,29.736,114.54,090717,,,A*57

[1499589241687]$GPVTG,114.54,T,,M,29.736,N,55.070,K,A*36

[1499589241687]$GPGGA,053401.00,5356.99519,N,02726.87800,E,1,12,0.75,203.7,M,25.0,M,,*51

[1499589241687]$GPGSA,A,3,10,24,01,30,17,13,19,11,18,28,15,12,1.52,0.75,1.32*0B

[1499589241687]$GPGSV,3,1,12,01,13,043,27,10,13,321,28,11,09,030,31,12,18,240,28*7E

[1499589241687]$GPGSV,3,2,12,13,39,182,37,15,50,236,29,17,53,104,32,18,13,295,25*77

[1499589241687]$GPGSV,3,3,12,19,44,143,33,24,46,289,27,28,32,063,31,30,06,111,35*78

[1499589241687]$GPGLL,5356.99519,N,02726.87800,E,053401.00,A,A*64

[1499589242686]$GPRMC,053402.00,A,5356.99164,N,02726.89078,E,29.898,115.08,090717,,,A*50

[1499589242686]$GPVTG,115.08,T,,M,29.898,N,55.371,K,A*37

[1499589242686]$GPGGA,053402.00,5356.99164,N,02726.89078,E,1,12,0.75,203.9,M,25.0,M,,*5B

[1499589242686]$GPGSA,A,3,10,24,01,30,17,13,19,11,18,28,15,12,1.52,0.75,1.32*0B

[1499589242686]$GPGSV,3,1,12,01,13,043,28,10,13,321,28,11,09,030,30,12,18,240,28*70

[1499589242686]$GPGSV,3,2,12,13,39,182,38,15,50,236,27,17,53,104,33,18,13,295,25*77

[1499589242686]$GPGSV,3,3,12,19,44,143,33,24,46,289,27,28,32,063,31,30,06,111,35*78

[1499589242686]$GPGLL,5356.99164,N,02726.89078,E,053402.00,A,A*60

[1499589243688]$GPRMC,053403.00,A,5356.98800,N,02726.90355,E,30.110,115.96,090717,,,A*59

[1499589243688]$GPVTG,115.96,T,,M,30.110,N,55.763,K,A*36

[1499589243688]$GPGGA,053403.00,5356.98800,N,02726.90355,E,1,12,0.75,204.0,M,25.0,M,,*5A

[1499589243688]$GPGSA,A,3,10,24,01,30,17,13,19,11,18,28,15,12,1.52,0.75,1.32*0B

[1499589243688]$GPGSV,3,1,12,01,13,043,29,10,13,321,27,11,09,030,28,12,18,240,27*78

[1499589243688]$GPGSV,3,2,12,13,39,182,38,15,50,236,26,17,53,104,32,18,13,295,24*76

[1499589243688]$GPGSV,3,3,12,19,44,143,34,24,46,289,27,28,32,063,31,30,06,111,35*7F

[1499589243688]$GPGLL,5356.98800,N,02726.90355,E,053403.00,A,A*6F

[1499589244690]$GPRMC,053404.00,A,5356.98418,N,02726.91646,E,30.836,116.56,090717,,,A*5F

[1499589244690]$GPVTG,116.56,T,,M,30.836,N,57.109,K,A*3C

[1499589244690]$GPGGA,053404.00,5356.98418,N,02726.91646,E,1,12,0.75,203.9,M,25.0,M,,*50

[1499589244690]$GPGSA,A,3,10,24,01,30,17,13,19,11,18,28,15,12,1.52,0.75,1.32*0B

[1499589244690]$GPGSV,3,1,12,01,13,043,29,10,13,321,26,11,09,030,26,12,18,240,26*76

[1499589244690]$GPGSV,3,2,12,13,39,182,38,15,50,236,26,17,53,104,32,18,13,295,23*71

[1499589244690]$GPGSV,3,3,12,19,44,143,35,24,46,289,26,28,32,063,31,30,06,111,36*7C

[1499589244690]$GPGLL,5356.98418,N,02726.91646,E,053404.00,A,A*6B

[1499589245687]$GPRMC,053405.00,A,5356.98026,N,02726.92973,E,31.777,116.75,090717,,,A*57

[1499589245687]$GPVTG,116.75,T,,M,31.777,N,58.852,K,A*3E

[1499589245687]$GPGGA,053405.00,5356.98026,N,02726.92973,E,1,12,0.75,203.9,M,25.0,M,,*52

[1499589245687]$GPGSA,A,3,10,24,01,30,17,13,19,11,18,28,15,12,1.52,0.75,1.32*0B

[1499589245687]$GPGSV,3,1,12,01,13,043,27,10,13,321,25,11,09,030,25,12,18,240,24*7A

[1499589245687]$GPGSV,3,2,12,13,39,182,38,15,50,236,26,17,53,104,32,18,13,295,23*71

[1499589245687]$GPGSV,3,3,12,19,44,143,36,24,46,289,24,28,32,063,32,30,06,111,35*7D

[1499589245687]$GPGLL,5356.98026,N,02726.92973,E,053405.00,A,A*69

[1499589246687]$GPRMC,053406.00,A,5356.97598,N,02726.94338,E,33.138,117.70,090717,,,A*53

[1499589246687]$GPVTG,117.70,T,,M,33.138,N,61.372,K,A*36

[1499589246687]$GPGGA,053406.00,5356.97598,N,02726.94338,E,1,12,0.75,204.1,M,25.0,M,,*52

[1499589246687]$GPGSA,A,3,10,24,01,30,17,13,19,11,18,28,15,12,1.52,0.75,1.32*0B

[1499589246687]$GPGSV,3,1,12,01,13,043,26,10,13,321,23,11,09,030,24,12,18,240,26*7E

[1499589246687]$GPGSV,3,2,12,13,39,182,37,15,50,236,27,17,53,104,32,18,13,295,23*7F

[1499589246687]$GPGSV,3,3,12,19,44,143,36,24,46,289,26,28,32,063,31,30,06,111,32*7B

[1499589246687]$GPGLL,5356.97598,N,02726.94338,E,053406.00,A,A*66

[1499589247691]$GPRMC,053407.00,A,5356.97148,N,02726.95752,E,34.539,117.98,090717,,,A*56

[1499589247691]$GPVTG,117.98,T,,M,34.539,N,63.965,K,A*3C

[1499589247691]$GPGGA,053407.00,5356.97148,N,02726.95752,E,1,12,0.75,204.2,M,25.0,M,,*50

[1499589247691]$GPGSA,A,3,10,24,01,30,17,13,19,11,18,28,15,12,1.52,0.75,1.32*0B

[1499589247691]$GPGSV,3,1,12,01,13,043,23,10,13,321,21,11,09,030,25,12,18,240,29*77

[1499589247691]$GPGSV,3,2,12,13,39,182,36,15,50,236,29,17,53,104,31,18,13,295,23*73

[1499589247691]$GPGSV,3,3,12,19,44,143,37,24,46,289,27,28,32,063,30,30,06,111,32*7A

[1499589247691]$GPGLL,5356.97148,N,02726.95752,E,053407.00,A,A*67

[1499589248687]$GPRMC,053408.00,A,5356.96675,N,02726.97223,E,36.141,118.74,090717,,,A*54

[1499589248687]$GPVTG,118.74,T,,M,36.141,N,66.934,K,A*39

[1499589248687]$GPGGA,053408.00,5356.96675,N,02726.97223,E,1,12,0.79,204.2,M,25.0,M,,*5A

[1499589248687]$GPGSA,A,3,10,24,01,30,17,13,19,11,18,28,15,12,1.54,0.79,1.32*01

[1499589248687]$GPGSV,3,1,12,01,13,043,20,10,13,321,18,11,09,030,27,12,18,240,30*74

[1499589248687]$GPGSV,3,2,12,13,39,182,36,15,50,236,30,17,53,104,31,18,13,295,23*7B

[1499589248687]$GPGSV,3,3,12,19,44,143,37,24,46,289,29,28,32,063,30,30,06,111,35*73

[1499589248687]$GPGLL,5356.96675,N,02726.97223,E,053408.00,A,A*61

[1499589249687]$GPRMC,053409.00,A,5356.96163,N,02726.98747,E,37.725,119.48,090717,,,A*56

[1499589249687]$GPVTG,119.48,T,,M,37.725,N,69.867,K,A*3A

[1499589249687]$GPGGA,053409.00,5356.96163,N,02726.98747,E,1,12,0.75,204.3,M,25.0,M,,*5E

[1499589249687]$GPGSA,A,3,10,24,01,30,17,13,19,11,18,28,15,12,1.52,0.75,1.32*0B

[1499589249687]$GPGSV,3,1,12,01,13,043,17,10,13,321,17,11,09,030,30,12,18,240,29*71

[1499589249687]$GPGSV,3,2,12,13,39,182,37,15,50,236,32,17,53,104,32,18,13,295,23*7B

[1499589249687]$GPGSV,3,3,12,19,44,143,37,24,46,289,31,28,32,063,30,30,06,111,32*7D

[1499589249687]$GPGLL,5356.96163,N,02726.98747,E,053409.00,A,A*68

[1499589250687]$GPRMC,053410.00,A,5356.95596,N,02727.00308,E,39.372,120.69,090717,,,A*5D

[1499589250687]$GPVTG,120.69,T,,M,39.372,N,72.918,K,A*38

[1499589250687]$GPGGA,053410.00,5356.95596,N,02727.00308,E,1,12,0.75,204.3,M,25.0,M,,*54

[1499589250687]$GPGSA,A,3,10,24,01,30,17,13,19,11,18,28,15,12,1.52,0.75,1.32*0B

[1499589250687]$GPGSV,3,1,12,01,13,043,20,10,13,321,17,11,09,030,30,12,18,240,29*75

[1499589250687]$GPGSV,3,2,12,13,39,182,40,15,50,236,34,17,53,104,32,18,13,295,25*7B

[1499589250687]$GPGSV,3,3,12,19,44,143,37,24,46,289,30,28,32,063,30,30,06,111,34*7A

[1499589250687]$GPGLL,5356.95596,N,02727.00308,E,053410.00,A,A*62

[1499589251689]$GPRMC,053411.00,A,5356.95004,N,02727.01907,E,40.601,121.99,090717,,,A*57

[1499589251689]$GPVTG,121.99,T,,M,40.601,N,75.193,K,A*35

[1499589251689]$GPGGA,053411.00,5356.95004,N,02727.01907,E,1,12,0.75,204.3,M,25.0,M,,*5F

[1499589251689]$GPGSA,A,3,10,24,01,30,17,13,19,11,18,28,15,12,1.52,0.75,1.32*0B

[1499589251689]$GPGSV,3,1,12,01,14,043,21,10,13,321,19,11,09,030,20,12,18,240,20*75

[1499589251689]$GPGSV,3,2,12,13,39,182,40,15,50,236,35,17,53,104,33,18,13,295,26*78

[1499589251689]$GPGSV,3,3,12,19,44,143,37,24,46,289,30,28,32,063,29,30,06,111,34*72

[1499589251689]$GPGLL,5356.95004,N,02727.01907,E,053411.00,A,A*69

[1499589252687]$GPRMC,053412.00,A,5356.94381,N,02727.03539,E,41.743,122.71,090717,,,A*5B

[1499589252687]$GPVTG,122.71,T,,M,41.743,N,77.307,K,A*3B

[1499589252687]$GPGGA,053412.00,5356.94381,N,02727.03539,E,1,12,0.75,204.3,M,25.0,M,,*50

[1499589252687]$GPGSA,A,3,10,24,01,30,17,13,19,11,18,28,15,12,1.52,0.75,1.32*0B

[1499589252687]$GPGSV,3,1,12,01,14,043,26,10,13,321,20,11,09,030,20,12,18,240,22*7A

[1499589252687]$GPGSV,3,2,12,13,39,182,41,15,50,236,35,17,53,104,34,18,13,295,27*7F

[1499589252687]$GPGSV,3,3,12,19,44,143,37,24,46,289,30,28,32,063,28,30,06,111,33*74

[1499589252687]$GPGLL,5356.94381,N,02727.03539,E,053412.00,A,A*66

[1499589253687]$GPRMC,053413.00,A,5356.93740,N,02727.05220,E,42.858,122.92,090717,,,A*56

[1499589253687]$GPVTG,122.92,T,,M,42.858,N,79.373,K,A*3D

[1499589253687]$GPGGA,053413.00,5356.93740,N,02727.05220,E,1,12,0.75,204.5,M,25.0,M,,*50

[1499589253687]$GPGSA,A,3,10,24,01,30,17,13,19,11,18,28,15,12,1.52,0.75,1.32*0B

[1499589253687]$GPGSV,3,1,12,01,14,043,30,10,13,321,21,11,09,030,21,12,18,240,31*7F

[1499589253687]$GPGSV,3,2,12,13,39,182,40,15,50,236,33,17,53,104,35,18,13,295,28*76

[1499589253687]$GPGSV,3,3,12,19,44,143,36,24,46,289,29,28,32,063,28,30,06,111,33*7D

[1499589253687]$GPGLL,5356.93740,N,02727.05220,E,053413.00,A,A*60

[1499589254687]$GPRMC,053414.00,A,5356.93073,N,02727.06929,E,43.743,123.30,090717,,,A*5A

[1499589254687]$GPVTG,123.30,T,,M,43.743,N,81.013,K,A*32

[1499589254687]$GPGGA,053414.00,5356.93073,N,02727.06929,E,1,12,0.75,204.6,M,25.0,M,,*52

[1499589254687]$GPGSA,A,3,10,24,01,30,17,13,19,11,18,28,15,12,1.52,0.75,1.32*0B

[1499589254687]$GPGSV,3,1,12,01,14,043,30,10,13,321,22,11,09,030,20,12,18,240,27*7A

[1499589254687]$GPGSV,3,2,12,13,39,182,40,15,50,236,33,17,53,104,37,18,13,295,29*75

[1499589254687]$GPGSV,3,3,12,19,44,143,36,24,46,289,29,28,32,063,30,30,06,111,32*75

[1499589254687]$GPGLL,5356.93073,N,02727.06929,E,053414.00,A,A*61

[1499589255691]$GPRMC,053415.00,A,5356.92391,N,02727.08619,E,43.546,124.65,090717,,,A*57

[1499589255691]$GPVTG,124.65,T,,M,43.546,N,80.647,K,A*34

[1499589255691]$GPGGA,053415.00,5356.92391,N,02727.08619,E,1,12,0.75,204.9,M,25.0,M,,*50

[1499589255691]$GPGSA,A,3,10,24,01,30,17,13,19,11,18,28,15,12,1.52,0.75,1.32*0B

[1499589255691]$GPGSV,3,1,12,01,14,043,35,10,13,321,25,11,09,030,20,12,18,240,37*79

[1499589255691]$GPGSV,3,2,12,13,39,182,39,15,50,236,31,17,53,104,37,18,13,295,32*73

[1499589255691]$GPGSV,3,3,12,19,44,143,36,24,46,289,29,28,32,063,31,30,06,111,34*72

[1499589255691]$GPGLL,5356.92391,N,02727.08619,E,053415.00,A,A*6C

[1499589256687]$GPRMC,053416.00,A,5356.91697,N,02727.10292,E,43.361,125.55,090717,,,A*5B

[1499589256687]$GPVTG,125.55,T,,M,43.361,N,80.305,K,A*36

[1499589256687]$GPGGA,053416.00,5356.91697,N,02727.10292,E,1,12,0.75,205.2,M,25.0,M,,*57

[1499589256687]$GPGSA,A,3,10,24,01,30,17,13,19,11,18,28,15,12,1.52,0.75,1.32*0B

[1499589256687]$GPGSV,3,1,12,01,14,043,35,10,13,321,26,11,09,030,20,12,18,240,36*7B

[1499589256687]$GPGSV,3,2,12,13,39,182,38,15,50,236,23,17,53,104,38,18,13,295,32*7E

[1499589256687]$GPGSV,3,3,12,19,44,143,36,24,46,289,28,28,32,063,32,30,06,111,31*75

[1499589256687]$GPGLL,5356.91697,N,02727.10292,E,053416.00,A,A*61

[1499589257687]$GPRMC,053417.00,A,5356.90986,N,02727.11930,E,43.201,126.91,090717,,,A*5A

[1499589257687]$GPVTG,126.91,T,,M,43.201,N,80.008,K,A*34

[1499589257687]$GPGGA,053417.00,5356.90986,N,02727.11930,E,1,12,0.75,205.5,M,25.0,M,,*5D

[1499589257687]$GPGSA,A,3,10,24,01,30,17,13,19,11,18,28,15,12,1.52,0.75,1.32*0B

[1499589257687]$GPGSV,3,1,12,01,14,043,35,10,13,321,27,11,09,030,19,12,18,240,36*70

[1499589257687]$GPGSV,3,2,12,13,39,182,37,15,50,236,20,17,53,104,39,18,13,295,32*73

[1499589257687]$GPGSV,3,3,12,19,44,143,35,24,46,289,27,28,32,063,30,30,06,111,32*78

[1499589257687]$GPGLL,5356.90986,N,02727.11930,E,053417.00,A,A*6C

[1499589258687]$GPRMC,053418.00,A,5356.90261,N,02727.13546,E,43.200,127.61,090717,,,A*57

[1499589258687]$GPVTG,127.61,T,,M,43.200,N,80.006,K,A*35

[1499589258687]$GPGGA,053418.00,5356.90261,N,02727.13546,E,1,12,0.75,205.6,M,25.0,M,,*5C

[1499589258687]$GPGSA,A,3,10,24,01,30,17,13,19,11,18,28,15,12,1.52,0.75,1.32*0B

[1499589258687]$GPGSV,4,1,13,01,14,043,35,10,13,321,28,11,09,030,17,12,18,240,36*77

[1499589258687]$GPGSV,4,2,13,13,39,182,38,15,50,236,17,17,53,104,39,18,13,295,33*7F

[1499589258687]$GPGSV,4,3,13,19,44,143,35,24,46,289,26,28,32,063,30,30,06,111,35*78

[1499589258687]$GPGSV,4,4,13,40,23,147,32*4D

[1499589258687]$GPGLL,5356.90261,N,02727.13546,E,053418.00,A,A*6E

[1499589259686]$GPRMC,053419.00,A,5356.89523,N,02727.15156,E,43.221,128.13,090717,,,A*55

[1499589259686]$GPVTG,128.13,T,,M,43.221,N,80.046,K,A*38

[1499589259686]$GPGGA,053419.00,5356.89523,N,02727.15156,E,1,12,0.75,205.7,M,25.0,M,,*56

[1499589259686]$GPGSA,A,3,10,24,01,30,17,13,19,11,18,28,15,12,1.52,0.75,1.32*0B

[1499589259686]$GPGSV,4,1,13,01,14,043,33,10,13,321,28,11,09,030,15,12,18,240,36*73

[1499589259686]$GPGSV,4,2,13,13,39,182,38,15,50,236,15,17,53,104,40,18,13,295,32*72

[1499589259686]$GPGSV,4,3,13,19,44,143,34,24,46,289,26,28,32,063,28,30,06,111,36*73

[1499589259686]$GPGSV,4,4,13,40,23,147,30*4F

[1499589259686]$GPGLL,5356.89523,N,02727.15156,E,053419.00,A,A*65

[1499589260686]$GPRMC,053420.00,A,5356.88776,N,02727.16741,E,43.148,128.54,090717,,,A*50

[1499589260686]$GPVTG,128.54,T,,M,43.148,N,79.910,K,A*3B

[1499589260686]$GPGGA,053420.00,5356.88776,N,02727.16741,E,1,12,0.75,205.7,M,25.0,M,,*5C

[1499589260686]$GPGSA,A,3,10,24,01,30,17,13,19,11,18,28,15,12,1.52,0.75,1.32*0B

[1499589260686]$GPGSV,4,1,13,01,14,043,32,10,13,321,28,11,09,030,13,12,18,240,37*75

[1499589260686]$GPGSV,4,2,13,13,39,182,38,15,50,236,13,17,53,104,40,18,13,295,32*74

[1499589260686]$GPGSV,4,3,13,19,44,143,34,24,46,289,26,28,32,063,29,30,06,111,35*71

[1499589260686]$GPGSV,4,4,13,40,23,147,29*47

[1499589260686]$GPGLL,5356.88776,N,02727.16741,E,053420.00,A,A*6F

[1499589261687]$GPRMC,053421.00,A,5356.88020,N,02727.18335,E,43.218,129.17,090717,,,A*5C

[1499589261687]$GPVTG,129.17,T,,M,43.218,N,80.040,K,A*31

[1499589261687]$GPGGA,053421.00,5356.88020,N,02727.18335,E,1,12,0.75,205.9,M,25.0,M,,*5E

[1499589261687]$GPGSA,A,3,10,24,01,30,17,13,19,11,18,28,15,12,1.52,0.75,1.32*0B

[1499589261687]$GPGSV,4,1,13,01,14,043,32,10,13,321,28,11,09,030,15,12,19,240,39*7C

[1499589261687]$GPGSV,4,2,13,13,39,182,38,15,50,236,16,17,53,104,40,18,13,295,32*71

[1499589261687]$GPGSV,4,3,13,19,44,143,34,24,46,289,28,28,32,063,29,30,06,111,35*7F

[1499589261687]$GPGSV,4,4,13,40,23,147,28*46

[1499589261687]$GPGLL,5356.88020,N,02727.18335,E,053421.00,A,A*63

[1499589262689]$GPRMC,053422.00,A,5356.87253,N,02727.19888,E,43.180,129.89,090717,,,A*5F

[1499589262689]$GPVTG,129.89,T,,M,43.180,N,79.969,K,A*30

[1499589262689]$GPGGA,053422.00,5356.87253,N,02727.19888,E,1,12,0.75,205.7,M,25.0,M,,*56

[1499589262689]$GPGSA,A,3,10,24,01,30,17,13,19,11,18,28,15,12,1.52,0.75,1.32*0B

[1499589262689]$GPGSV,4,1,13,01,14,043,31,10,13,321,29,11,09,030,16,12,19,240,39*7D

[1499589262689]$GPGSV,4,2,13,13,38,182,37,15,50,236,20,17,53,104,40,18,13,295,32*7A

[1499589262689]$GPGSV,4,3,13,19,44,143,34,24,46,289,29,28,32,063,30,30,06,111,33*70

[1499589262689]$GPGSV,4,4,13,40,23,147,28*46

[1499589262689]$GPGLL,5356.87253,N,02727.19888,E,053422.00,A,A*65

[1499589263687]$GPRMC,053423.00,A,5356.86479,N,02727.21438,E,43.169,130.58,090717,,,A*5E

[1499589263687]$GPVTG,130.58,T,,M,43.169,N,79.948,K,A*30

[1499589263687]$GPGGA,053423.00,5356.86479,N,02727.21438,E,1,12,0.75,205.8,M,25.0,M,,*5B

[1499589263687]$GPGSA,A,3,10,24,01,30,17,13,19,11,18,28,15,12,1.52,0.75,1.32*0B

[1499589263687]$GPGSV,4,1,13,01,14,043,30,10,13,321,28,11,09,030,17,12,19,240,40*72

[1499589263687]$GPGSV,4,2,13,13,38,182,37,15,50,236,22,17,53,104,41,18,13,295,32*79

[1499589263687]$GPGSV,4,3,13,19,44,143,35,24,46,289,30,28,32,063,30,30,06,111,37*7D

[1499589263687]$GPGSV,4,4,13,40,23,147,27*49

[1499589263687]$GPGLL,5356.86479,N,02727.21438,E,053423.00,A,A*67

[1499589264687]$GPRMC,053424.00,A,5356.85716,N,02727.23009,E,43.165,129.10,090717,,,A*5C

[1499589264687]$GPVTG,129.10,T,,M,43.165,N,79.941,K,A*31

[1499589264687]$GPGGA,053424.00,5356.85716,N,02727.23009,E,1,12,0.75,205.9,M,25.0,M,,*50

[1499589264687]$GPGSA,A,3,10,24,01,30,17,13,19,11,18,28,15,12,1.52,0.75,1.32*0B

[1499589264687]$GPGSV,4,1,13,01,14,043,25,10,13,321,28,11,09,030,16,12,19,240,38*78

[1499589264687]$GPGSV,4,2,13,13,38,182,38,15,50,235,22,17,53,104,41,18,13,295,32*75

[1499589264687]$GPGSV,4,3,13,19,44,143,34,24,46,289,28,28,32,063,29,30,06,111,35*7F

[1499589264687]$GPGSV,4,4,13,40,23,147,28*46

[1499589264687]$GPGLL,5356.85716,N,02727.23009,E,053424.00,A,A*6D

[1499589265687]$GPRMC,053425.00,A,5356.84969,N,02727.24597,E,43.209,128.15,090717,,,A*52

[1499589265687]$GPVTG,128.15,T,,M,43.209,N,80.023,K,A*37

[1499589265687]$GPGGA,053425.00,5356.84969,N,02727.24597,E,1,12,0.75,205.8,M,25.0,M,,*52

[1499589265687]$GPGSA,A,3,10,24,01,30,17,13,19,11,18,28,15,12,1.52,0.75,1.32*0B

[1499589265687]$GPGSV,4,1,13,01,14,043,33,10,13,321,28,11,09,030,13,12,19,240,36*74

[1499589265687]$GPGSV,4,2,13,13,38,182,38,15,50,235,20,17,53,104,41,18,13,295,32*77

[1499589265687]$GPGSV,4,3,13,19,44,143,35,24,46,289,26,28,32,063,29,30,06,111,36*73

[1499589265687]$GPGSV,4,4,13,40,23,147,29*47

[1499589265687]$GPGLL,5356.84969,N,02727.24597,E,053425.00,A,A*6E

[1499589266687]$GPRMC,053426.00,A,5356.84230,N,02727.26189,E,43.130,127.92,090717,,,A*56

[1499589266687]$GPVTG,127.92,T,,M,43.130,N,79.877,K,A*31

[1499589266687]$GPGGA,053426.00,5356.84230,N,02727.26189,E,1,12,0.75,205.6,M,25.0,M,,*51

[1499589266687]$GPGSA,A,3,10,24,01,30,17,13,19,11,18,28,15,12,1.52,0.75,1.32*0B

[1499589266687]$GPGSV,4,1,13,01,14,043,33,10,13,321,28,11,09,030,10,12,19,240,32*73

[1499589266687]$GPGSV,4,2,13,13,38,182,38,15,50,235,18,17,53,104,41,18,13,295,32*7C

[1499589266687]$GPGSV,4,3,13,19,44,143,35,24,46,289,24,28,32,063,28,30,06,111,34*72

[1499589266687]$GPGSV,4,4,13,40,23,147,30*4F

[1499589266687]$GPGLL,5356.84230,N,02727.26189,E,053426.00,A,A*63

[1499589267687]$GPRMC,053427.00,A,5356.83496,N,02727.27786,E,43.125,127.75,090717,,,A*5F

[1499589267687]$GPVTG,127.75,T,,M,43.125,N,79.868,K,A*32

[1499589267687]$GPGGA,053427.00,5356.83496,N,02727.27786,E,1,12,0.75,205.5,M,25.0,M,,*56

[1499589267687]$GPGSA,A,3,10,24,01,30,17,13,19,11,18,28,15,12,1.52,0.75,1.32*0B

[1499589267687]$GPGSV,4,1,13,01,14,043,35,10,13,321,28,11,09,030,11,12,19,240,35*73

[1499589267687]$GPGSV,4,2,13,13,38,182,38,15,50,235,16,17,53,104,40,18,12,295,32*72

[1499589267687]$GPGSV,4,3,13,19,44,143,35,24,46,289,22,28,32,063,28,30,06,111,36*76

[1499589267687]$GPGSV,4,4,13,40,23,147,30*4F

[1499589267687]$GPGLL,5356.83496,N,02727.27786,E,053427.00,A,A*67

[1499589268692]$GPRMC,053428.00,A,5356.82763,N,02727.29389,E,43.111,127.60,090717,,,A*5E

[1499589268692]$GPVTG,127.60,T,,M,43.111,N,79.842,K,A*39

[1499589268692]$GPGGA,053428.00,5356.82763,N,02727.29389,E,1,12,0.75,205.4,M,25.0,M,,*55

[1499589268692]$GPGSA,A,3,10,24,01,30,17,13,19,11,18,28,15,12,1.52,0.75,1.32*0B

[1499589268692]$GPGSV,4,1,13,01,14,043,35,10,13,321,28,11,09,030,12,12,19,240,35*70

[1499589268692]$GPGSV,4,2,13,13,38,182,38,15,50,235,15,17,53,104,40,18,12,295,33*70

[1499589268692]$GPGSV,4,3,13,19,44,142,35,24,46,289,21,28,32,063,29,30,06,111,35*76

[1499589268692]$GPGSV,4,4,13,40,23,147,30*4F

[1499589268692]$GPGLL,5356.82763,N,02727.29389,E,053428.00,A,A*65

[1499589269697]$GPRMC,053429.00,A,5356.82025,N,02727.30984,E,43.121,127.97,090717,,,A*5E

[1499589269697]$GPVTG,127.97,T,,M,43.121,N,79.860,K,A*32

[1499589269697]$GPGGA,053429.00,5356.82025,N,02727.30984,E,1,12,0.75,205.2,M,25.0,M,,*58

[1499589269697]$GPGSA,A,3,10,24,01,30,17,13,19,11,18,28,15,12,1.52,0.75,1.32*0B

[1499589269697]$GPGSV,4,1,13,01,14,043,32,10,13,321,28,11,09,030,13,12,19,240,36*75

[1499589269697]$GPGSV,4,2,13,13,38,182,38,15,50,235,14,17,53,104,40,18,12,295,32*70

[1499589269697]$GPGSV,4,3,13,19,44,142,34,24,46,289,23,28,32,063,28,30,06,111,37*76

[1499589269697]$GPGSV,4,4,13,40,23,147,30*4F

[1499589269697]$GPGLL,5356.82025,N,02727.30984,E,053429.00,A,A*6E

[1499589270686]$GPRMC,053430.00,A,5356.81282,N,02727.32581,E,43.173,128.33,090717,,,A*57

[1499589270686]$GPVTG,128.33,T,,M,43.173,N,79.956,K,A*30

[1499589270686]$GPGGA,053430.00,5356.81282,N,02727.32581,E,1,12,0.75,205.3,M,25.0,M,,*56

[1499589270686]$GPGSA,A,3,10,24,01,30,17,13,19,11,18,28,15,12,1.51,0.75,1.32*08

[1499589270686]$GPGSV,4,1,13,01,14,043,34,10,13,321,28,11,09,030,13,12,19,240,37*72

[1499589270686]$GPGSV,4,2,13,13,38,182,38,15,50,235,17,17,53,104,40,18,12,295,32*73

[1499589270686]$GPGSV,4,3,13,19,44,142,34,24,46,289,24,28,32,063,28,30,06,111,33*75

[1499589270686]$GPGSV,4,4,13,40,23,147,29*47

[1499589270686]$GPGLL,5356.81282,N,02727.32581,E,053430.00,A,A*61

[1499589271688]$GPRMC,053431.00,A,5356.80537,N,02727.34168,E,43.084,128.34,090717,,,A*55

[1499589271688]$GPVTG,128.34,T,,M,43.084,N,79.791,K,A*3B

[1499589271688]$GPGGA,053431.00,5356.80537,N,02727.34168,E,1,12,0.75,205.3,M,25.0,M,,*5A

[1499589271688]$GPGSA,A,3,10,24,01,30,17,13,19,11,18,28,15,12,1.51,0.75,1.32*08

[1499589271688]$GPGSV,4,1,13,01,14,043,33,10,13,321,28,11,09,030,14,12,19,240,38*7D

[1499589271688]$GPGSV,4,2,13,13,38,182,38,15,50,235,18,17,53,104,41,18,12,295,32*7D

[1499589271688]$GPGSV,4,3,13,19,44,142,34,24,46,289,25,28,32,063,28,30,06,111,35*72

[1499589271688]$GPGSV,4,4,13,40,23,147,29*47

[1499589271688]$GPGLL,5356.80537,N,02727.34168,E,053431.00,A,A*6D

[1499589272687]$GPRMC,053432.00,A,5356.79791,N,02727.35753,E,43.154,128.43,090717,,,A*5D

[1499589272687]$GPVTG,128.43,T,,M,43.154,N,79.921,K,A*32

[1499589272687]$GPGGA,053432.00,5356.79791,N,02727.35753,E,1,12,0.75,205.1,M,25.0,M,,*5C

[1499589272687]$GPGSA,A,3,10,24,01,30,17,13,19,11,18,28,15,12,1.51,0.75,1.32*08

[1499589272687]$GPGSV,4,1,13,01,14,043,28,10,13,321,28,11,09,030,15,12,19,240,35*7B

[1499589272687]$GPGSV,4,2,13,13,38,182,38,15,50,235,19,17,53,104,41,18,12,295,32*7C

[1499589272687]$GPGSV,4,3,13,19,44,142,34,24,46,289,25,28,32,063,28,30,06,111,35*72

[1499589272687]$GPGSV,4,4,13,40,23,147,29*47

[1499589272687]$GPGLL,5356.79791,N,02727.35753,E,053432.00,A,A*69

[1499589273687]$GPRMC,053433.00,A,5356.79047,N,02727.37342,E,43.147,128.41,090717,,,A*56

[1499589273687]$GPVTG,128.41,T,,M,43.147,N,79.908,K,A*39

[1499589273687]$GPGGA,053433.00,5356.79047,N,02727.37342,E,1,12,0.75,205.1,M,25.0,M,,*57

[1499589273687]$GPGSA,A,3,10,24,01,30,17,13,19,11,18,28,15,12,1.51,0.75,1.32*08

[1499589273687]$GPGSV,4,1,13,01,14,043,28,10,13,321,28,11,09,030,14,12,19,240,38*77

[1499589273687]$GPGSV,4,2,13,13,38,182,38,15,50,235,19,17,53,104,41,18,12,295,32*7C

[1499589273687]$GPGSV,4,3,13,19,44,142,34,24,46,289,25,28,32,063,28,30,06,111,36*71

[1499589273687]$GPGSV,4,4,13,40,23,147,30*4F

[1499589273687]$GPGLL,5356.79047,N,02727.37342,E,053433.00,A,A*62

[1499589274687]$GPRMC,053434.00,A,5356.78302,N,02727.38929,E,43.099,128.37,090717,,,A*59

[1499589274687]$GPVTG,128.37,T,,M,43.099,N,79.818,K,A*3A

[1499589274687]$GPGGA,053434.00,5356.78302,N,02727.38929,E,1,12,0.79,205.1,M,25.0,M,,*57

[1499589274687]$GPGSA,A,3,10,24,01,30,17,13,19,11,18,28,15,12,1.55,0.79,1.33*01

[1499589274687]$GPGSV,4,1,13,01,14,043,33,10,13,321,28,11,09,030,13,12,19,240,37*75

[1499589274687]$GPGSV,4,2,13,13,38,182,38,15,50,235,20,17,53,104,41,18,12,295,32*76

[1499589274687]$GPGSV,4,3,13,19,44,142,35,24,46,289,24,28,32,063,29,30,06,111,33*75

[1499589274687]$GPGSV,4,4,13,40,23,147,29*47

[1499589274687]$GPGLL,5356.78302,N,02727.38929,E,053434.00,A,A*6E

[1499589275677]$GPRMC,053435.00,A,5356.77558,N,02727.40518,E,43.134,128.22,090717,,,A*5D

[1499589275677]$GPVTG,128.22,T,,M,43.134,N,79.884,K,A*3D

[1499589275677]$GPGGA,053435.00,5356.77558,N,02727.40518,E,1,12,0.79,205.0,M,25.0,M,,*50

[1499589275677]$GPGSA,A,3,10,24,01,30,17,13,19,11,18,28,15,12,1.55,0.79,1.33*01

[1499589275677]$GPGSV,4,1,13,01,14,043,33,10,13,321,28,11,09,030,13,12,19,240,35*77

[1499589275677]$GPGSV,4,2,13,13,38,182,38,15,50,235,20,17,53,104,41,18,12,295,32*76

[1499589275677]$GPGSV,4,3,13,19,44,142,34,24,46,289,24,28,32,063,28,30,06,111,33*75

[1499589275677]$GPGSV,4,4,13,40,23,147,30*4F

[1499589275677]$GPGLL,5356.77558,N,02727.40518,E,053435.00,A,A*68

[1499589276687]$GPRMC,053436.00,A,5356.76818,N,02727.42116,E,43.159,128.30,090717,,,A*56

[1499589276687]$GPVTG,128.30,T,,M,43.159,N,79.931,K,A*3A

[1499589276687]$GPGGA,053436.00,5356.76818,N,02727.42116,E,1,12,0.79,205.1,M,25.0,M,,*52

[1499589276687]$GPGSA,A,3,10,24,01,30,17,13,19,11,18,28,15,12,1.55,0.79,1.33*01

[1499589276687]$GPGSV,4,1,13,01,14,043,33,10,13,321,28,11,09,030,15,12,19,240,38*7C

[1499589276687]$GPGSV,4,2,13,13,38,182,38,15,50,235,21,17,53,104,41,18,12,295,32*77

[1499589276687]$GPGSV,4,3,13,19,44,142,34,24,46,289,25,28,32,063,29,30,06,111,33*75

[1499589276687]$GPGSV,4,4,13,40,23,147,29*47

[1499589276687]$GPGLL,5356.76818,N,02727.42116,E,053436.00,A,A*6B

[1499589277687]$GPRMC,053437.00,A,5356.76075,N,02727.43695,E,43.045,128.49,090717,,,A*5B

[1499589277687]$GPVTG,128.49,T,,M,43.045,N,79.719,K,A*3C

[1499589277687]$GPGGA,053437.00,5356.76075,N,02727.43695,E,1,12,0.75,205.2,M,25.0,M,,*52

[1499589277687]$GPGSA,A,3,10,24,01,30,17,13,19,11,18,28,15,12,1.51,0.75,1.32*08

[1499589277687]$GPGSV,4,1,13,01,14,043,33,10,13,321,28,11,09,030,16,12,19,240,38*7F

[1499589277687]$GPGSV,4,2,13,13,38,182,38,15,50,235,22,17,53,104,41,18,12,295,31*77

[1499589277687]$GPGSV,4,3,13,19,44,142,34,24,46,289,25,28,32,063,29,30,06,111,33*75

[1499589277687]$GPGSV,4,4,13,40,23,147,29*47

[1499589277687]$GPGLL,5356.76075,N,02727.43695,E,053437.00,A,A*64

[1499589278687]$GPRMC,053438.00,A,5356.75341,N,02727.45282,E,42.926,128.02,090717,,,A*55

[1499589278687]$GPVTG,128.02,T,,M,42.926,N,79.499,K,A*35

[1499589278687]$GPGGA,053438.00,5356.75341,N,02727.45282,E,1,12,0.79,205.3,M,25.0,M,,*53

[1499589278687]$GPGSA,A,3,10,24,01,30,17,13,19,11,18,28,15,12,1.55,0.79,1.33*01

[1499589278687]$GPGSV,4,1,13,01,14,043,34,10,13,321,28,11,09,030,16,12,19,240,37*77

[1499589278687]$GPGSV,4,2,13,13,38,182,38,15,50,235,23,17,53,104,41,18,12,295,30*77

[1499589278687]$GPGSV,4,3,13,19,44,142,34,24,46,289,26,28,32,063,28,30,06,111,33*77

[1499589278687]$GPGSV,4,4,13,40,23,147,29*47

[1499589278687]$GPGLL,5356.75341,N,02727.45282,E,053438.00,A,A*68

[1499589279692]$GPRMC,053439.00,A,5356.74618,N,02727.46885,E,42.980,127.03,090717,,,A*50

[1499589279692]$GPVTG,127.03,T,,M,42.980,N,79.598,K,A*37

[1499589279692]$GPGGA,053439.00,5356.74618,N,02727.46885,E,1,12,0.79,205.4,M,25.0,M,,*53

[1499589279692]$GPGSA,A,3,10,24,01,30,17,13,19,11,18,28,15,12,1.55,0.79,1.33*01

[1499589279692]$GPGSV,4,1,13,01,14,043,35,10,13,321,28,11,09,030,16,12,19,240,31*70

[1499589279692]$GPGSV,4,2,13,13,38,182,38,15,50,235,22,17,53,104,41,18,12,295,32*74

[1499589279692]$GPGSV,4,3,13,19,44,142,35,24,46,289,26,28,32,063,30,30,05,111,36*79

[1499589279692]$GPGSV,4,4,13,40,23,147,30*4F

[1499589279692]$GPGLL,5356.74618,N,02727.46885,E,053439.00,A,A*6F

[1499589280687]$GPRMC,053440.00,A,5356.73897,N,02727.48491,E,43.017,127.23,090717,,,A*53

[1499589280687]$GPVTG,127.23,T,,M,43.017,N,79.668,K,A*3F

[1499589280687]$GPGGA,053440.00,5356.73897,N,02727.48491,E,1,12,0.79,205.4,M,25.0,M,,*54

[1499589280687]$GPGSA,A,3,10,24,01,30,17,13,19,11,18,28,15,12,1.55,0.79,1.33*01

[1499589280687]$GPGSV,4,1,13,01,14,043,35,10,13,321,28,11,09,030,16,12,19,240,35*74

[1499589280687]$GPGSV,4,2,13,13,38,182,38,15,50,235,21,17,53,104,40,18,12,295,32*76

[1499589280687]$GPGSV,4,3,13,19,44,142,35,24,46,289,26,28,32,063,31,30,05,111,34*7A

[1499589280687]$GPGSV,4,4,13,40,23,147,31*4E

[1499589280687]$GPGLL,5356.73897,N,02727.48491,E,053440.00,A,A*68

[1499589281687]$GPRMC,053441.00,A,5356.73172,N,02727.50093,E,43.011,127.43,090717,,,A*5F

[1499589281687]$GPVTG,127.43,T,,M,43.011,N,79.656,K,A*32

[1499589281687]$GPGGA,053441.00,5356.73172,N,02727.50093,E,1,12,0.79,205.6,M,25.0,M,,*5A

[1499589281687]$GPGSA,A,3,10,24,01,30,17,13,19,11,18,28,15,12,1.55,0.79,1.33*01

[1499589281687]$GPGSV,4,1,13,01,14,043,34,10,13,321,28,11,09,030,16,12,19,240,37*77

[1499589281687]$GPGSV,4,2,13,13,38,182,38,15,50,235,19,17,53,104,40,18,12,295,32*7D

[1499589281687]$GPGSV,4,3,13,19,44,142,34,24,46,289,26,28,32,063,31,30,05,111,31*7E

[1499589281687]$GPGSV,4,4,13,40,23,147,31*4E

[1499589281687]$GPGLL,5356.73172,N,02727.50093,E,053441.00,A,A*64

[1499589282687]$GPRMC,053442.00,A,5356.72440,N,02727.51685,E,42.904,128.07,090717,,,A*5A

[1499589282687]$GPVTG,128.07,T,,M,42.904,N,79.458,K,A*3D

[1499589282687]$GPGGA,053442.00,5356.72440,N,02727.51685,E,1,12,0.75,205.7,M,25.0,M,,*51

[1499589282687]$GPGSA,A,3,10,24,01,30,17,13,19,11,18,28,15,12,1.51,0.75,1.31*0B

[1499589282687]$GPGSV,4,1,13,01,14,043,33,10,13,321,28,11,09,030,17,12,19,240,36*70

[1499589282687]$GPGSV,4,2,13,13,38,182,38,15,50,235,18,17,53,104,40,18,12,295,32*7C

[1499589282687]$GPGSV,4,3,13,19,44,142,34,24,46,289,25,28,32,063,30,30,05,111,34*79

[1499589282687]$GPGSV,4,4,13,40,23,147,31*4E

[1499589282687]$GPGLL,5356.72440,N,02727.51685,E,053442.00,A,A*62

[1499589283688]$GPRMC,053443.00,A,5356.71704,N,02727.53273,E,43.038,127.99,090717,,,A*5B

[1499589283688]$GPVTG,127.99,T,,M,43.038,N,79.707,K,A*3B

[1499589283688]$GPGGA,053443.00,5356.71704,N,02727.53273,E,1,12,0.75,205.9,M,25.0,M,,*51

[1499589283688]$GPGSA,A,3,10,24,01,30,17,13,19,11,18,28,15,12,1.51,0.75,1.31*0B

[1499589283688]$GPGSV,4,1,13,01,14,043,30,10,13,321,28,11,09,030,18,12,19,240,28*73

[1499589283688]$GPGSV,4,2,13,13,38,182,38,15,50,235,15,17,53,104,40,18,12,295,32*71

[1499589283688]$GPGSV,4,3,13,19,44,142,34,24,46,289,24,28,32,063,30,30,05,111,32*7E

[1499589283688]$GPGSV,4,4,13,40,23,147,31*4E

[1499589283688]$GPGLL,5356.71704,N,02727.53273,E,053443.00,A,A*6C

[1499589284687]$GPRMC,053444.00,A,5356.70967,N,02727.54867,E,43.117,127.98,090717,,,A*53

[1499589284687]$GPVTG,127.98,T,,M,43.117,N,79.853,K,A*38

[1499589284687]$GPGGA,053444.00,5356.70967,N,02727.54867,E,1,12,0.75,206.0,M,25.0,M,,*5E

[1499589284687]$GPGSA,A,3,10,24,01,30,17,13,19,11,18,28,15,12,1.51,0.75,1.31*0B

[1499589284687]$GPGSV,4,1,13,01,14,043,34,10,13,321,28,11,09,030,18,12,19,240,29*76

[1499589284687]$GPGSV,4,2,13,13,38,182,38,15,50,235,17,17,53,104,40,18,12,295,32*73

[1499589284687]$GPGSV,4,3,13,19,44,142,34,24,46,289,23,28,32,063,29,30,05,111,32*71

[1499589284687]$GPGSV,4,4,13,40,23,147,30*4F

[1499589284687]$GPGLL,5356.70967,N,02727.54867,E,053444.00,A,A*69

[1499589285688]$GPRMC,053445.00,A,5356.70233,N,02727.56465,E,43.031,127.70,090717,,,A*57

[1499589285688]$GPVTG,127.70,T,,M,43.031,N,79.694,K,A*3E

[1499589285688]$GPGGA,053445.00,5356.70233,N,02727.56465,E,1,12,0.75,206.2,M,25.0,M,,*5B

[1499589285688]$GPGSA,A,3,10,24,01,30,17,13,19,11,18,28,15,12,1.51,0.75,1.31*0B

[1499589285688]$GPGSV,4,1,13,01,14,043,34,10,13,321,28,11,09,030,18,12,19,240,36*78

[1499589285688]$GPGSV,4,2,13,13,38,182,38,15,50,235,18,17,53,104,40,18,12,295,31*7F

[1499589285688]$GPGSV,4,3,13,19,44,142,34,24,46,289,24,28,32,063,30,30,05,111,34*78

[1499589285688]$GPGSV,4,4,13,40,23,147,31*4E

[1499589285688]$GPGLL,5356.70233,N,02727.56465,E,053445.00,A,A*6E

[1499589286686]$GPRMC,053446.00,A,5356.69496,N,02727.58055,E,43.040,128.12,090717,,,A*51

[1499589286686]$GPVTG,128.12,T,,M,43.040,N,79.711,K,A*3F

[1499589286686]$GPGGA,053446.00,5356.69496,N,02727.58055,E,1,12,0.75,206.5,M,25.0,M,,*57

[1499589286686]$GPGSA,A,3,10,24,01,30,17,13,19,11,18,28,15,12,1.51,0.75,1.31*0B

[1499589286686]$GPGSV,4,1,13,01,14,043,30,10,13,321,28,11,09,030,17,12,19,240,33*76

[1499589286686]$GPGSV,4,2,13,13,38,182,38,15,50,235,19,17,53,104,40,18,12,295,31*7E

[1499589286686]$GPGSV,4,3,13,19,44,142,34,24,46,289,23,28,32,063,29,30,05,111,34*77

[1499589286686]$GPGSV,4,4,13,40,23,147,30*4F

[1499589286686]$GPGLL,5356.69496,N,02727.58055,E,053446.00,A,A*65

[1499589287688]$GPRMC,053447.00,A,5356.68760,N,02727.59647,E,42.983,127.84,090717,,,A*58

[1499589287688]$GPVTG,127.84,T,,M,42.983,N,79.605,K,A*3C

[1499589287688]$GPGGA,053447.00,5356.68760,N,02727.59647,E,1,12,0.75,206.6,M,25.0,M,,*5A

[1499589287688]$GPGSA,A,3,10,24,01,30,17,13,19,11,18,28,15,12,1.51,0.75,1.31*0B

[1499589287688]$GPGSV,4,1,13,01,14,043,35,10,13,321,28,11,09,030,17,12,19,240,29*78

[1499589287688]$GPGSV,4,2,13,13,38,182,38,15,50,235,20,17,53,104,40,18,12,295,32*77

[1499589287688]$GPGSV,4,3,13,19,44,142,34,24,46,289,24,28,32,063,29,30,05,111,34*70

[1499589287688]$GPGSV,4,4,13,40,23,147,31*4E

[1499589287688]$GPGLL,5356.68760,N,02727.59647,E,053447.00,A,A*6B

[1499589288687]$GPRMC,053448.00,A,5356.68026,N,02727.61245,E,43.155,127.77,090717,,,A*51

[1499589288687]$GPVTG,127.77,T,,M,43.155,N,79.923,K,A*39

[1499589288687]$GPGGA,053448.00,5356.68026,N,02727.61245,E,1,12,0.75,206.7,M,25.0,M,,*5C

[1499589288687]$GPGSA,A,3,10,24,01,30,17,13,19,11,18,28,15,12,1.51,0.75,1.31*0B

[1499589288687]$GPGSV,4,1,13,01,14,043,32,10,13,321,28,11,09,030,18,12,19,240,28*71

[1499589288687]$GPGSV,4,2,13,13,38,182,38,15,50,235,22,17,53,104,40,18,12,295,33*74

[1499589288687]$GPGSV,4,3,13,19,44,142,34,24,46,289,24,28,32,063,29,30,05,111,33*77

[1499589288687]$GPGSV,4,4,13,40,23,147,31*4E

[1499589288687]$GPGLL,5356.68026,N,02727.61245,E,053448.00,A,A*6C

[1499589289687]$GPRMC,053449.00,A,5356.67291,N,02727.62843,E,43.141,128.07,090717,,,A*53

[1499589289687]$GPVTG,128.07,T,,M,43.141,N,79.898,K,A*35

[1499589289687]$GPGGA,053449.00,5356.67291,N,02727.62843,E,1,12,0.75,206.9,M,25.0,M,,*5D

[1499589289687]$GPGSA,A,3,10,24,01,30,17,13,19,11,18,28,15,12,1.51,0.75,1.31*0B

[1499589289687]$GPGSV,4,1,13,01,14,043,34,10,13,321,28,11,09,030,17,12,19,240,38*79

[1499589289687]$GPGSV,4,2,13,13,38,182,38,15,50,235,23,17,53,104,41,18,12,295,33*74

[1499589289687]$GPGSV,4,3,13,19,44,142,34,24,46,289,25,28,32,063,28,30,05,111,33*77

[1499589289687]$GPGSV,4,4,13,40,23,147,31*4E

[1499589289687]$GPGLL,5356.67291,N,02727.62843,E,053449.00,A,A*63

[1499589290687]$GPRMC,053450.00,A,5356.66565,N,02727.64452,E,43.113,127.43,090717,,,A*54

[1499589290687]$GPVTG,127.43,T,,M,43.113,N,79.845,K,A*3D

[1499589290687]$GPGGA,053450.00,5356.66565,N,02727.64452,E,1,12,0.75,207.1,M,25.0,M,,*5B

