[1499553501585]$GPRMC,193821.00,A,5356.81216,N,02741.14231,E,1.497,,080717,,,A*7E

[1499553501585]$GPVTG,,T,,M,1.497,N,2.772,K,A*28

[1499553501585]$GPGGA,193821.00,5356.81216,N,02741.14231,E,1,08,1.25,311.1,M,24.8,M,,*52

[1499553501585]$GPGSA,A,3,22,01,14,03,11,17,31,19,,,,,2.30,1.25,1.93*05

[1499553501585]$GPGSV,3,1,12,01,72,200,16,03,54,272,15,04,18,128,14,11,45,194,13*74

[1499553501585]$GPGSV,3,2,12,12,05,015,,14,48,064,16,17,30,303,13,19,19,323,12*73

[1499553501585]$GPGSV,3,3,12,22,82,262,08,23,17,216,09,31,31,106,13,32,28,055,11*7B

[1499553501585]$GPGLL,5356.81216,N,02741.14231,E,193821.00,A,A*65

[1499553502577]$GPRMC,193822.00,A,5356.81152,N,02741.14203,E,1.661,,080717,,,A*74

[1499553502577]$GPVTG,,T,,M,1.661,N,3.077,K,A*20

[1499553502577]$GPGGA,193822.00,5356.81152,N,02741.14203,E,1,10,0.88,310.8,M,24.8,M,,*54

[1499553502577]$GPGSA,A,3,22,01,14,03,11,32,17,31,19,23,,,1.64,0.88,1.39*01

[1499553502577]$GPGSV,3,1,12,01,72,200,15,03,54,272,13,04,18,128,14,11,45,194,13*71

[1499553502577]$GPGSV,3,2,12,12,05,015,,14,48,064,16,17,30,303,13,19,19,323,12*73

[1499553502577]$GPGSV,3,3,12,22,82,262,08,23,17,216,09,31,31,106,13,32,28,055,11*7B

[1499553502577]$GPGLL,5356.81152,N,02741.14203,E,193822.00,A,A*64

[1499553503577]$GPRMC,193823.00,A,5356.81131,N,02741.14179,E,1.463,,080717,,,A*7E

[1499553503577]$GPVTG,,T,,M,1.463,N,2.709,K,A*2F

[1499553503577]$GPGGA,193823.00,5356.81131,N,02741.14179,E,1,10,0.88,310.5,M,24.8,M,,*53

[1499553503577]$GPGSA,A,3,22,01,14,03,11,32,17,31,19,23,,,1.64,0.88,1.39*01

[1499553503577]$GPGSV,3,1,12,01,72,200,16,03,54,272,14,04,18,128,13,11,45,194,13*72

[1499553503577]$GPGSV,3,2,12,12,05,015,,14,48,064,16,17,30,303,13,19,19,323,12*73

[1499553503577]$GPGSV,3,3,12,22,82,262,08,23,17,216,09,31,31,106,13,32,28,055,11*7B

[1499553503577]$GPGLL,5356.81131,N,02741.14179,E,193823.00,A,A*6E

[1499553504577]$GPRMC,193824.00,A,5356.81111,N,02741.14094,E,1.587,,080717,,,A*72

[1499553504577]$GPVTG,,T,,M,1.587,N,2.939,K,A*29

[1499553504577]$GPGGA,193824.00,5356.81111,N,02741.14094,E,1,10,0.88,310.2,M,24.8,M,,*53

[1499553504577]$GPGSA,A,3,22,01,14,03,11,32,17,31,19,23,,,1.65,0.88,1.39*00

[1499553504577]$GPGSV,3,1,12,01,72,200,15,03,54,272,14,04,18,128,14,11,45,194,13*76

[1499553504577]$GPGSV,3,2,12,12,05,015,,14,48,064,16,17,30,303,13,19,19,323,12*73

[1499553504577]$GPGSV,3,3,12,22,82,262,08,23,17,216,09,31,31,106,13,32,28,055,11*7B

[1499553504577]$GPGLL,5356.81111,N,02741.14094,E,193824.00,A,A*69

[1499553505570]$GPRMC,193825.00,A,5356.81117,N,02741.14028,E,1.416,,080717,,,A*7B

[1499553505570]$GPVTG,,T,,M,1.416,N,2.623,K,A*24

[1499553505570]$GPGGA,193825.00,5356.81117,N,02741.14028,E,1,09,0.88,310.7,M,24.8,M,,*5E

[1499553505570]$GPGSA,A,3,01,14,03,11,32,17,31,19,23,,,,1.86,0.88,1.64*05

[1499553505570]$GPGSV,3,1,12,01,72,200,16,03,54,272,13,04,18,128,13,11,45,194,13*75

[1499553505570]$GPGSV,3,2,12,12,05,015,,14,48,064,16,17,30,303,13,19,19,323,12*73

[1499553505570]$GPGSV,3,3,12,22,82,262,,23,17,216,09,31,31,106,13,32,28,055,11*73

[1499553505570]$GPGLL,5356.81117,N,02741.14028,E,193825.00,A,A*69

[1499553506576]$GPRMC,193826.00,A,5356.81146,N,02741.13969,E,1.293,,080717,,,A*7C

[1499553506576]$GPVTG,,T,,M,1.293,N,2.394,K,A*26

[1499553506576]$GPGGA,193826.00,5356.81146,N,02741.13969,E,1,09,0.88,311.2,M,24.8,M,,*56

[1499553506576]$GPGSA,A,3,01,14,03,11,32,17,31,19,23,,,,1.86,0.88,1.64*05

[1499553506576]$GPGSV,3,1,12,01,72,200,15,03,54,272,14,04,18,128,12,11,45,194,13*70

[1499553506576]$GPGSV,3,2,12,12,05,015,,14,48,064,15,17,30,303,15,19,19,323,17*73

[1499553506576]$GPGSV,3,3,12,22,82,262,,23,17,216,12,31,31,106,13,32,28,055,15*7D

[1499553506576]$GPGLL,5356.81146,N,02741.13969,E,193826.00,A,A*65

[1499553507577]$GPRMC,193827.00,A,5356.81126,N,02741.13929,E,1.235,,080717,,,A*73

[1499553507577]$GPVTG,,T,,M,1.235,N,2.288,K,A*26

[1499553507577]$GPGGA,193827.00,5356.81126,N,02741.13929,E,1,09,0.88,312.1,M,24.8,M,,*55

[1499553507577]$GPGSA,A,3,01,14,03,11,32,17,31,19,23,,,,1.86,0.88,1.64*05

[1499553507577]$GPGSV,3,1,12,01,72,200,15,03,54,272,12,04,18,128,11,11,45,194,13*75

[1499553507577]$GPGSV,3,2,12,12,05,014,,14,48,064,15,17,30,303,18,19,19,323,15*7D

[1499553507577]$GPGSV,3,3,12,22,82,262,,23,17,216,12,31,31,106,13,32,28,055,15*7D

[1499553507577]$GPGLL,5356.81126,N,02741.13929,E,193827.00,A,A*66

[1499553508566]$GPRMC,193828.00,A,5356.81072,N,02741.13867,E,1.207,,080717,,,A*76

[1499553508566]$GPVTG,,T,,M,1.207,N,2.236,K,A*22

[1499553508566]$GPGGA,193828.00,5356.81072,N,02741.13867,E,1,08,1.18,312.2,M,24.8,M,,*5B

[1499553508566]$GPGSA,A,3,01,14,03,11,32,17,31,19,,,,,2.66,1.18,2.38*0B

[1499553508566]$GPGSV,3,1,12,01,72,200,14,03,54,272,11,04,18,128,11,11,45,194,13*77

[1499553508566]$GPGSV,3,2,12,12,05,014,,14,48,064,15,17,30,303,19,19,19,323,18*71

[1499553508566]$GPGSV,3,3,12,22,82,262,,23,17,216,,31,31,106,13,32,28,055,15*7E

[1499553508566]$GPGLL,5356.81072,N,02741.13867,E,193828.00,A,A*62

[1499553509577]$GPRMC,193829.00,A,5356.81027,N,02741.13820,E,1.053,,080717,,,A*77

[1499553509577]$GPVTG,,T,,M,1.053,N,1.949,K,A*21

[1499553509577]$GPGGA,193829.00,5356.81027,N,02741.13820,E,1,07,1.22,311.9,M,24.8,M,,*57

[1499553509577]$GPGSA,A,3,01,14,11,32,17,31,19,,,,,,2.84,1.22,2.57*04

[1499553509577]$GPGSV,3,1,12,01,72,200,14,03,54,272,09,04,18,128,11,11,45,194,13*7E

[1499553509577]$GPGSV,3,2,12,12,05,014,,14,48,064,15,17,30,303,19,19,19,323,19*70

[1499553509577]$GPGSV,3,3,12,22,82,262,,23,17,216,,31,31,106,13,32,28,055,15*7E

[1499553509577]$GPGLL,5356.81027,N,02741.13820,E,193829.00,A,A*60

[1499553510567]$GPRMC,193830.00,A,5356.81007,N,02741.13679,E,1.334,,080717,,,A*7D

[1499553510567]$GPVTG,,T,,M,1.334,N,2.470,K,A*27

[1499553510567]$GPGGA,193830.00,5356.81007,N,02741.13679,E,1,07,1.19,311.8,M,24.8,M,,*56

[1499553510567]$GPGSA,A,3,14,03,11,32,17,31,19,,,,,,3.16,1.19,2.92*0D

[1499553510567]$GPGSV,3,1,12,01,72,200,,03,54,272,10,04,18,128,09,11,45,194,13*7A

[1499553510567]$GPGSV,3,2,12,12,05,014,,14,48,064,15,17,30,303,18,19,19,323,19*71

[1499553510567]$GPGSV,3,3,12,22,82,262,14,23,17,216,05,31,31,106,13,32,28,055,15*7E

[1499553510567]$GPGLL,5356.81007,N,02741.13679,E,193830.00,A,A*68

[1499553511567]$GPRMC,193831.00,A,5356.80952,N,02741.13639,E,1.061,,080717,,,A*73

[1499553511567]$GPVTG,,T,,M,1.061,N,1.965,K,A*2E

[1499553511567]$GPGGA,193831.00,5356.80952,N,02741.13639,E,1,06,1.26,311.4,M,24.8,M,,*5A

[1499553511567]$GPGSA,A,3,14,11,32,17,31,19,,,,,,,4.06,1.26,3.86*00

[1499553511567]$GPGSV,3,1,12,01,72,200,,03,54,272,09,04,18,128,09,11,45,194,13*72

[1499553511567]$GPGSV,3,2,12,12,05,014,,14,48,064,15,17,30,303,17,19,19,323,19*7E

[1499553511567]$GPGSV,3,3,12,22,82,262,12,23,17,216,08,31,31,106,13,32,28,055,15*75

[1499553511567]$GPGLL,5356.80952,N,02741.13639,E,193831.00,A,A*65

[1499553512566]$GPRMC,193832.00,A,5356.80924,N,02741.13530,E,1.162,,080717,,,A*79

[1499553512566]$GPVTG,,T,,M,1.162,N,2.152,K,A*23

[1499553512566]$GPGGA,193832.00,5356.80924,N,02741.13530,E,1,06,1.26,310.9,M,24.8,M,,*5E

[1499553512566]$GPGSA,A,3,14,11,32,17,31,19,,,,,,,4.06,1.26,3.86*00

[1499553512566]$GPGSV,3,1,12,01,72,200,07,03,54,272,09,04,18,128,08,11,45,194,11*76

[1499553512566]$GPGSV,3,2,12,12,05,014,,14,48,064,17,17,30,303,15,19,19,323,19*7E

[1499553512566]$GPGSV,3,3,12,22,82,262,14,23,17,216,11,31,31,106,14,32,28,055,15*7C

[1499553512566]$GPGLL,5356.80924,N,02741.13530,E,193832.00,A,A*6D

[1499553513577]$GPRMC,193833.00,A,5356.80902,N,02741.13391,E,1.388,,080717,,,A*77

[1499553513577]$GPVTG,,T,,M,1.388,N,2.571,K,A*20

[1499553513577]$GPGGA,193833.00,5356.80902,N,02741.13391,E,1,06,1.26,310.5,M,24.8,M,,*5A

[1499553513577]$GPGSA,A,3,14,11,32,17,31,19,,,,,,,4.06,1.26,3.86*00

[1499553513577]$GPGSV,3,1,12,01,72,200,10,03,54,272,08,04,18,128,08,11,45,194,11*71

[1499553513577]$GPGSV,3,2,12,12,05,014,,14,48,064,17,17,30,303,12,19,19,323,19*79

[1499553513577]$GPGSV,3,3,12,22,82,262,15,23,17,216,13,31,31,106,14,32,28,055,15*7F

[1499553513577]$GPGLL,5356.80902,N,02741.13391,E,193833.00,A,A*65

[1499553514566]$GPRMC,193834.00,A,5356.81005,N,02741.13376,E,1.335,,080717,,,A*70

[1499553514566]$GPVTG,,T,,M,1.335,N,2.472,K,A*24

[1499553514566]$GPGGA,193834.00,5356.81005,N,02741.13376,E,1,07,1.02,310.6,M,24.8,M,,*5F

[1499553514566]$GPGSA,A,3,22,14,11,32,31,19,23,,,,,,1.99,1.02,1.71*08

[1499553514566]$GPGSV,3,1,12,01,72,200,15,03,54,272,08,04,18,128,08,11,45,194,11*74

[1499553514566]$GPGSV,3,2,12,12,05,014,,14,48,064,17,17,30,303,09,19,19,323,17*7D

[1499553514566]$GPGSV,3,3,12,22,82,262,16,23,17,216,14,31,31,106,14,32,28,055,15*7B

[1499553514566]$GPGLL,5356.81005,N,02741.13376,E,193834.00,A,A*64

[1499553515577]$GPRMC,193835.00,A,5356.81117,N,02741.13387,E,1.085,,080717,,,A*75

[1499553515577]$GPVTG,,T,,M,1.085,N,2.010,K,A*2C

[1499553515577]$GPGGA,193835.00,5356.81117,N,02741.13387,E,1,07,1.02,310.2,M,24.8,M,,*56

[1499553515577]$GPGSA,A,3,22,14,11,32,31,19,23,,,,,,1.99,1.02,1.71*08

[1499553515577]$GPGSV,3,1,12,01,72,200,16,03,54,272,08,04,18,128,08,11,45,194,11*77

[1499553515577]$GPGSV,3,2,12,12,05,014,,14,48,064,17,17,30,303,08,19,19,323,17*7C

[1499553515577]$GPGSV,3,3,12,22,82,262,17,23,17,216,13,31,31,106,14,32,28,055,15*7D

[1499553515577]$GPGLL,5356.81117,N,02741.13387,E,193835.00,A,A*69

[1499553516566]$GPRMC,193836.00,A,5356.81236,N,02741.13380,E,1.227,,080717,,,A*7B

[1499553516566]$GPVTG,,T,,M,1.227,N,2.272,K,A*20

[1499553516566]$GPGGA,193836.00,5356.81236,N,02741.13380,E,1,08,1.01,309.7,M,24.8,M,,*53

[1499553516566]$GPGSA,A,3,22,01,14,11,32,31,19,23,,,,,1.78,1.01,1.47*00

[1499553516566]$GPGSV,3,1,12,01,72,200,17,03,54,272,08,04,18,128,08,11,45,194,11*76

[1499553516566]$GPGSV,3,2,12,12,05,014,,14,48,064,17,17,30,303,08,19,19,323,17*7C

[1499553516566]$GPGSV,3,3,12,22,82,262,17,23,17,216,12,31,31,106,14,32,28,055,15*7C

[1499553516566]$GPGLL,5356.81236,N,02741.13380,E,193836.00,A,A*6D

[1499553517577]$GPRMC,193837.00,A,5356.81437,N,02741.13408,E,1.630,,080717,,,A*78

[1499553517577]$GPVTG,,T,,M,1.630,N,3.018,K,A*2D

[1499553517577]$GPGGA,193837.00,5356.81437,N,02741.13408,E,1,07,1.07,308.8,M,24.8,M,,*55

[1499553517577]$GPGSA,A,3,22,01,14,32,31,19,23,,,,,,1.82,1.07,1.47*03

[1499553517577]$GPGSV,3,1,12,01,72,200,18,03,54,272,08,04,18,128,,11,45,194,*71

[1499553517577]$GPGSV,3,2,12,12,05,014,,14,48,064,17,17,30,303,08,19,19,323,17*7C

[1499553517577]$GPGSV,3,3,12,22,83,262,17,23,17,216,13,31,31,106,14,32,28,055,15*7C

[1499553517577]$GPGLL,5356.81437,N,02741.13408,E,193837.00,A,A*6C

[1499553518567]$GPRMC,193838.00,A,5356.81509,N,02741.13393,E,0.995,,080717,,,A*7F

[1499553518567]$GPVTG,,T,,M,0.995,N,1.842,K,A*29

[1499553518567]$GPGGA,193838.00,5356.81509,N,02741.13393,E,1,08,1.02,308.5,M,24.8,M,,*54

[1499553518567]$GPGSA,A,3,22,01,14,03,32,31,19,23,,,,,1.73,1.02,1.40*0C

[1499553518567]$GPGSV,3,1,12,01,72,200,18,03,54,272,15,04,18,128,,11,45,194,*7D

[1499553518567]$GPGSV,3,2,12,12,05,014,,14,48,064,17,17,30,303,08,19,19,323,18*73

[1499553518567]$GPGSV,3,3,12,22,83,262,16,23,18,216,13,31,31,106,14,32,28,055,18*7F

[1499553518567]$GPGLL,5356.81509,N,02741.13393,E,193838.00,A,A*6A

[1499553519577]$GPRMC,193839.00,A,5356.81614,N,02741.13250,E,1.627,,080717,,,A*78

[1499553519577]$GPVTG,,T,,M,1.627,N,3.013,K,A*20

[1499553519577]$GPGGA,193839.00,5356.81614,N,02741.13250,E,1,08,1.02,308.8,M,24.8,M,,*59

[1499553519577]$GPGSA,A,3,22,01,14,03,32,31,19,23,,,,,1.73,1.02,1.40*0C

[1499553519577]$GPGSV,3,1,12,01,72,200,17,03,54,272,15,04,18,128,,11,45,194,*72

[1499553519577]$GPGSV,3,2,12,12,05,014,,14,48,064,20,17,30,303,08,19,19,323,17*78

[1499553519577]$GPGSV,3,3,12,22,83,262,15,23,18,216,14,31,31,106,14,32,28,055,18*7B

[1499553519577]$GPGLL,5356.81614,N,02741.13250,E,193839.00,A,A*6A

[1499553520568]$GPRMC,193840.00,A,5356.81758,N,02741.13204,E,1.643,,080717,,,A*7C

[1499553520568]$GPVTG,,T,,M,1.643,N,3.043,K,A*27

[1499553520568]$GPGGA,193840.00,5356.81758,N,02741.13204,E,1,08,1.02,309.3,M,24.8,M,,*55

[1499553520568]$GPGSA,A,3,22,01,14,03,32,31,19,23,,,,,1.73,1.02,1.40*0C

[1499553520568]$GPGSV,3,1,12,01,72,200,18,03,54,272,15,04,18,128,,11,45,194,*7D

[1499553520568]$GPGSV,3,2,12,12,05,014,,14,48,064,21,17,30,303,08,19,19,323,17*79

[1499553520568]$GPGSV,3,3,12,22,83,262,14,23,18,216,14,31,31,106,14,32,28,055,14*76

[1499553520568]$GPGLL,5356.81758,N,02741.13204,E,193840.00,A,A*6C

[1499553521577]$GPRMC,193841.00,A,5356.81898,N,02741.13171,E,1.765,,080717,,,A*7A

[1499553521577]$GPVTG,,T,,M,1.765,N,3.269,K,A*28

[1499553521577]$GPGGA,193841.00,5356.81898,N,02741.13171,E,1,08,1.02,309.8,M,24.8,M,,*5D

[1499553521577]$GPGSA,A,3,22,01,14,03,32,31,19,23,,,,,1.73,1.02,1.40*0C

[1499553521577]$GPGSV,3,1,12,01,72,200,18,03,54,272,15,04,18,128,,11,45,194,*7D

[1499553521577]$GPGSV,3,2,12,12,05,014,,14,48,064,21,17,30,303,08,19,19,323,16*78

[1499553521577]$GPGSV,3,3,12,22,83,262,13,23,18,216,14,31,31,106,14,32,28,055,15*70

[1499553521577]$GPGLL,5356.81898,N,02741.13171,E,193841.00,A,A*6F

[1499553522566]$GPRMC,193842.00,A,5356.81879,N,02741.13160,E,0.889,,080717,,,A*7A

[1499553522566]$GPVTG,,T,,M,0.889,N,1.647,K,A*2E

[1499553522566]$GPGGA,193842.00,5356.81879,N,02741.13160,E,1,08,1.73,308.8,M,24.8,M,,*56

[1499553522566]$GPGSA,A,3,22,01,14,03,32,31,19,23,,,,,2.98,1.73,2.43*0C

[1499553522566]$GPGSV,3,1,12,01,72,200,18,03,54,272,15,04,18,128,,11,45,194,07*7A

[1499553522566]$GPGSV,3,2,12,12,05,014,,14,48,064,21,17,30,303,08,19,19,323,16*78

[1499553522566]$GPGSV,3,3,12,22,83,262,14,23,18,216,13,31,31,106,14,32,28,055,15*70

[1499553522566]$GPGLL,5356.81879,N,02741.13160,E,193842.00,A,A*63

[1499553523577]$GPRMC,193843.00,A,5356.81898,N,02741.13141,E,0.661,,080717,,,A*7F

[1499553523577]$GPVTG,,T,,M,0.661,N,1.223,K,A*20

[1499553523577]$GPGGA,193843.00,5356.81898,N,02741.13141,E,1,08,1.73,307.5,M,24.8,M,,*59

[1499553523577]$GPGSA,A,3,22,01,14,03,32,31,19,23,,,,,2.98,1.73,2.43*0C

[1499553523577]$GPGSV,3,1,12,01,72,200,17,03,54,272,15,04,18,128,,11,45,194,08*7A

[1499553523577]$GPGSV,3,2,12,12,05,014,,14,48,064,21,17,30,303,08,19,19,323,16*78

[1499553523577]$GPGSV,3,3,12,22,83,262,15,23,18,216,12,31,31,106,14,32,28,055,14*71

[1499553523577]$GPGLL,5356.81898,N,02741.13141,E,193843.00,A,A*6E

[1499553524577]$GPRMC,193844.00,A,5356.81891,N,02741.13145,E,0.456,,080717,,,A*73

[1499553524577]$GPVTG,,T,,M,0.456,N,0.845,K,A*2D

[1499553524577]$GPGGA,193844.00,5356.81891,N,02741.13145,E,1,09,1.69,306.5,M,24.8,M,,*58

[1499553524577]$GPGSA,A,3,22,01,14,03,32,17,31,19,23,,,,2.89,1.69,2.34*01

[1499553524577]$GPGSV,3,1,12,01,72,200,16,03,54,272,17,04,18,128,,11,45,194,10*70

[1499553524577]$GPGSV,3,2,12,12,05,014,,14,48,064,21,17,30,303,07,19,19,323,16*77

[1499553524577]$GPGSV,3,3,12,22,83,262,14,23,18,216,12,31,31,106,17,32,28,055,16*71

[1499553524577]$GPGLL,5356.81891,N,02741.13145,E,193844.00,A,A*64

[1499553525577]$GPRMC,193845.00,A,5356.81994,N,02741.13163,E,0.735,,080717,,,A*74

[1499553525577]$GPVTG,,T,,M,0.735,N,1.360,K,A*26

[1499553525577]$GPGGA,193845.00,5356.81994,N,02741.13163,E,1,09,0.95,307.3,M,24.8,M,,*5C

[1499553525577]$GPGSA,A,3,22,01,14,03,32,17,31,19,23,,,,1.91,0.95,1.66*0D

[1499553525577]$GPGSV,3,1,12,01,72,200,16,03,54,272,10,04,18,128,,11,45,194,12*75

[1499553525577]$GPGSV,3,2,12,12,05,014,,14,48,064,21,17,30,303,07,19,19,323,14*75

[1499553525577]$GPGSV,3,3,12,22,83,262,12,23,18,216,13,31,31,106,17,32,28,055,17*77

[1499553525577]$GPGLL,5356.81994,N,02741.13163,E,193845.00,A,A*65

[1499553526583]$GPRMC,193846.00,A,5356.82087,N,02741.13140,E,1.028,,080717,,,A*74

[1499553526583]$GPVTG,,T,,M,1.028,N,1.904,K,A*24

[1499553526583]$GPGGA,193846.00,5356.82087,N,02741.13140,E,1,09,0.95,308.1,M,24.8,M,,*5B

[1499553526583]$GPGSA,A,3,22,01,14,03,32,17,31,19,23,,,,1.91,0.95,1.66*0D

[1499553526583]$GPGSV,3,1,12,01,72,200,17,03,54,272,15,04,18,128,,11,45,194,11*72

[1499553526583]$GPGSV,3,2,12,12,05,014,,14,48,064,21,17,30,303,07,19,19,323,14*75

[1499553526583]$GPGSV,3,3,12,22,83,262,10,23,18,216,12,31,31,106,14,32,28,055,19*79

[1499553526583]$GPGLL,5356.82087,N,02741.13140,E,193846.00,A,A*6F

[1499553527595]$GPRMC,193847.00,A,5356.82235,N,02741.13129,E,1.608,,080717,,,A*75

[1499553527595]$GPVTG,,T,,M,1.608,N,2.977,K,A*27

[1499553527595]$GPGGA,193847.00,5356.82235,N,02741.13129,E,1,08,0.95,308.8,M,24.8,M,,*56

[1499553527595]$GPGSA,A,3,01,14,03,32,17,31,19,23,,,,,1.91,0.95,1.66*0D

[1499553527595]$GPGSV,3,1,12,01,72,200,16,03,54,272,18,04,18,128,,11,45,194,09*77

[1499553527595]$GPGSV,3,2,12,12,05,014,,14,48,064,21,17,30,303,07,19,19,323,14*75

[1499553527595]$GPGSV,3,3,12,22,83,262,08,23,18,216,12,31,31,106,16,32,28,055,19*72

[1499553527595]$GPGLL,5356.82235,N,02741.13129,E,193847.00,A,A*6A

[1499553528567]$GPRMC,193848.00,A,5356.82380,N,02741.13125,E,2.167,,080717,,,A*74

[1499553528567]$GPVTG,,T,,M,2.167,N,4.013,K,A*27

[1499553528567]$GPGGA,193848.00,5356.82380,N,02741.13125,E,1,08,0.95,309.1,M,24.8,M,,*52

[1499553528567]$GPGSA,A,3,01,14,03,32,17,31,19,23,,,,,1.91,0.95,1.66*0D

[1499553528567]$GPGSV,3,1,12,01,72,200,15,03,54,272,19,04,18,128,,11,45,194,08*74

[1499553528567]$GPGSV,3,2,12,12,05,014,,14,48,064,20,17,30,303,07,19,19,323,11*71

[1499553528567]$GPGSV,3,3,12,22,83,262,08,23,18,216,10,31,31,106,18,32,28,055,19*7E

[1499553528567]$GPGLL,5356.82380,N,02741.13125,E,193848.00,A,A*66

[1499553529578]$GPRMC,193849.00,A,5356.82463,N,02741.13098,E,2.529,,080717,,,A*76

[1499553529578]$GPVTG,,T,,M,2.529,N,4.684,K,A*21

[1499553529578]$GPGGA,193849.00,5356.82463,N,02741.13098,E,1,07,1.75,308.5,M,24.8,M,,*5B

[1499553529578]$GPGSA,A,3,01,14,03,32,17,31,19,,,,,,3.32,1.75,2.82*01

[1499553529578]$GPGSV,3,1,12,01,72,200,14,03,54,272,20,04,18,128,,11,45,194,08*7F

[1499553529578]$GPGSV,3,2,12,12,05,014,,14,48,064,20,17,30,303,07,19,19,323,10*70

[1499553529578]$GPGSV,3,3,12,22,83,262,08,23,18,216,,31,31,106,19,32,28,055,19*7E

[1499553529578]$GPGLL,5356.82463,N,02741.13098,E,193849.00,A,A*6A

[1499553530581]$GPRMC,193850.00,A,5356.82682,N,02741.13090,E,3.264,342.04,080717,,,A*6B

[1499553530581]$GPVTG,342.04,T,,M,3.264,N,6.044,K,A*39

[1499553530581]$GPGGA,193850.00,5356.82682,N,02741.13090,E,1,09,1.14,308.0,M,24.8,M,,*5A

[1499553530581]$GPGSA,A,3,22,01,14,03,11,32,17,31,19,,,,2.24,1.14,1.93*03

[1499553530581]$GPGSV,3,1,12,01,72,200,14,03,54,272,20,04,18,128,,11,45,194,09*7E

[1499553530581]$GPGSV,3,2,12,12,05,014,,14,48,064,19,17,30,303,10,19,19,323,08*75

[1499553530581]$GPGSV,3,3,12,22,83,262,07,23,18,216,,31,31,106,19,32,28,055,18*70

[1499553530581]$GPGLL,5356.82682,N,02741.13090,E,193850.00,A,A*67

[1499553531581]$GPRMC,193851.00,A,5356.82904,N,02741.13088,E,3.828,346.81,080717,,,A*69

[1499553531581]$GPVTG,346.81,T,,M,3.828,N,7.089,K,A*32

[1499553531581]$GPGGA,193851.00,5356.82904,N,02741.13088,E,1,09,1.14,307.5,M,24.8,M,,*59

[1499553531581]$GPGSA,A,3,22,01,14,03,11,32,17,31,19,,,,2.24,1.14,1.93*03

[1499553531581]$GPGSV,3,1,12,01,72,200,14,03,54,272,20,04,18,128,,11,45,194,09*7E

[1499553531581]$GPGSV,3,2,12,12,05,014,,14,48,064,19,17,30,303,10,19,19,323,08*75

[1499553531581]$GPGSV,3,3,12,22,83,262,07,23,18,216,,31,31,106,18,32,28,055,19*70

[1499553531581]$GPGLL,5356.82904,N,02741.13088,E,193851.00,A,A*6E

[1499553532580]$GPRMC,193852.00,A,5356.83014,N,02741.13057,E,4.105,349.84,080717,,,A*6A

[1499553532580]$GPVTG,349.84,T,,M,4.105,N,7.602,K,A*3C

[1499553532580]$GPGGA,193852.00,5356.83014,N,02741.13057,E,1,08,1.76,307.1,M,24.8,M,,*50

[1499553532580]$GPGSA,A,3,01,14,03,11,32,17,31,19,,,,,3.32,1.76,2.82*02

[1499553532580]$GPGSV,3,1,12,01,72,200,15,03,54,272,19,04,18,128,,11,45,194,09*75

[1499553532580]$GPGSV,3,2,12,12,05,014,,14,48,064,19,17,30,303,10,19,19,323,08*75

[1499553532580]$GPGSV,3,3,12,22,83,262,07,23,18,216,,31,31,106,18,32,28,055,19*70

[1499553532580]$GPGLL,5356.83014,N,02741.13057,E,193852.00,A,A*66

[1499553533577]$GPRMC,193853.00,A,5356.83234,N,02741.13007,E,4.521,349.27,080717,,,A*65

[1499553533577]$GPVTG,349.27,T,,M,4.521,N,8.373,K,A*3B

[1499553533577]$GPGGA,193853.00,5356.83234,N,02741.13007,E,1,08,1.18,306.9,M,24.8,M,,*55

[1499553533577]$GPGSA,A,3,01,14,03,11,32,17,31,19,,,,,2.66,1.18,2.38*0B

[1499553533577]$GPGSV,3,1,12,01,72,200,16,03,54,272,20,04,18,128,,11,45,194,09*7C

[1499553533577]$GPGSV,3,2,12,12,05,014,,14,48,064,19,17,30,303,10,19,19,323,08*75

[1499553533577]$GPGSV,3,3,12,22,83,262,07,23,18,216,,31,31,106,18,32,28,055,19*70

[1499553533577]$GPGLL,5356.83234,N,02741.13007,E,193853.00,A,A*62

[1499553534567]$GPRMC,193854.00,A,5356.83360,N,02741.12868,E,4.919,345.64,080717,,,A*6E

[1499553534567]$GPVTG,345.64,T,,M,4.919,N,9.111,K,A*30

[1499553534567]$GPGGA,193854.00,5356.83360,N,02741.12868,E,1,08,1.76,306.3,M,24.8,M,,*50

[1499553534567]$GPGSA,A,3,01,14,03,11,32,17,31,19,,,,,3.32,1.76,2.82*02

[1499553534567]$GPGSV,3,1,12,01,72,200,15,03,54,272,18,04,18,128,,11,45,194,09*74

[1499553534567]$GPGSV,3,2,12,12,05,014,,14,48,064,19,17,30,303,10,19,19,323,08*75

[1499553534567]$GPGSV,3,3,12,22,83,262,07,23,18,216,,31,31,106,19,32,28,055,19*71

[1499553534567]$GPGLL,5356.83360,N,02741.12868,E,193854.00,A,A*65

[1499553535586]$GPRMC,193855.00,A,5356.83454,N,02741.12682,E,5.061,339.26,080717,,,A*6F

[1499553535586]$GPVTG,339.26,T,,M,5.061,N,9.372,K,A*3D

[1499553535586]$GPGGA,193855.00,5356.83454,N,02741.12682,E,1,08,1.76,305.6,M,24.8,M,,*5D

[1499553535586]$GPGSA,A,3,01,14,03,11,32,17,31,19,,,,,3.32,1.76,2.82*02

[1499553535586]$GPGSV,3,1,12,01,72,200,15,03,54,272,17,04,18,128,,11,45,194,09*7B

[1499553535586]$GPGSV,3,2,12,12,05,014,,14,48,064,18,17,30,303,10,19,19,323,08*74

[1499553535586]$GPGSV,3,3,12,22,83,262,07,23,18,216,,31,31,106,18,32,28,055,19*70

[1499553535586]$GPGLL,5356.83454,N,02741.12682,E,193855.00,A,A*6E

[1499553536577]$GPRMC,193856.00,A,5356.83549,N,02741.12562,E,4.956,336.34,080717,,,A*6C

[1499553536577]$GPVTG,336.34,T,,M,4.956,N,9.178,K,A*35

[1499553536577]$GPGGA,193856.00,5356.83549,N,02741.12562,E,1,08,1.76,304.6,M,24.8,M,,*5F

[1499553536577]$GPGSA,A,3,01,14,03,11,32,17,31,19,,,,,3.32,1.76,2.82*02

[1499553536577]$GPGSV,3,1,12,01,72,200,15,03,54,272,17,04,18,128,,11,45,194,08*7A

[1499553536577]$GPGSV,3,2,12,12,05,014,,14,48,064,17,17,30,303,08,19,19,323,08*72

[1499553536577]$GPGSV,3,3,12,22,83,262,12,23,18,216,,31,31,106,17,32,28,055,19*7B

[1499553536577]$GPGLL,5356.83549,N,02741.12562,E,193856.00,A,A*6D

[1499553537582]$GPRMC,193857.00,A,5356.83702,N,02741.12425,E,5.335,335.65,080717,,,A*6B

[1499553537582]$GPVTG,335.65,T,,M,5.335,N,9.880,K,A*32

[1499553537582]$GPGGA,193857.00,5356.83702,N,02741.12425,E,1,08,1.76,303.7,M,24.8,M,,*57

[1499553537582]$GPGSA,A,3,01,14,03,11,32,17,31,19,,,,,3.33,1.76,2.82*03

[1499553537582]$GPGSV,3,1,12,01,72,200,15,03,54,272,16,04,18,128,,11,45,194,08*7B

[1499553537582]$GPGSV,3,2,12,12,05,014,,14,48,064,17,17,30,303,08,19,19,323,08*72

[1499553537582]$GPGSV,3,3,12,22,83,262,12,23,18,216,,31,31,106,16,32,28,055,20*70

[1499553537582]$GPGLL,5356.83702,N,02741.12425,E,193857.00,A,A*63

[1499553538567]$GPRMC,193858.00,A,5356.83914,N,02741.12178,E,6.188,333.28,080717,,,A*68

[1499553538567]$GPVTG,333.28,T,,M,6.188,N,11.461,K,A*00

[1499553538567]$GPGGA,193858.00,5356.83914,N,02741.12178,E,1,08,1.74,301.7,M,24.8,M,,*5C

[1499553538567]$GPGSA,A,3,22,01,14,03,11,32,31,19,,,,,2.99,1.74,2.44*0C

[1499553538567]$GPGSV,3,1,12,01,72,200,15,03,54,272,15,04,18,128,,11,45,194,08*78

[1499553538567]$GPGSV,3,2,12,12,05,014,,14,48,064,17,17,30,303,08,19,19,323,08*72

[1499553538567]$GPGSV,3,3,12,22,83,262,12,23,18,216,,31,31,106,12,32,28,055,19*7E

[1499553538567]$GPGLL,5356.83914,N,02741.12178,E,193858.00,A,A*68

[1499553539582]$GPRMC,193859.00,A,5356.84145,N,02741.11886,E,7.050,330.28,080717,,,A*6F

[1499553539582]$GPVTG,330.28,T,,M,7.050,N,13.057,K,A*05

[1499553539582]$GPGGA,193859.00,5356.84145,N,02741.11886,E,1,08,1.74,299.9,M,24.8,M,,*53

[1499553539582]$GPGSA,A,3,22,01,14,03,11,32,31,19,,,,,2.99,1.74,2.44*0C

[1499553539582]$GPGSV,3,1,12,01,72,200,15,03,54,272,13,04,18,128,,11,45,194,08*7E

[1499553539582]$GPGSV,3,2,12,12,05,014,,14,48,064,16,17,30,303,08,19,19,323,08*73

[1499553539582]$GPGSV,3,3,12,22,83,262,12,23,18,216,,31,31,106,11,32,28,055,19*7D

[1499553539582]$GPGLL,5356.84145,N,02741.11886,E,193859.00,A,A*69

[1499553540577]$GPRMC,193900.00,A,5356.84420,N,02741.11648,E,7.789,330.92,080717,,,A*6A

[1499553540577]$GPVTG,330.92,T,,M,7.789,N,14.426,K,A*02

[1499553540577]$GPGGA,193900.00,5356.84420,N,02741.11648,E,1,08,1.74,298.0,M,24.8,M,,*5C

[1499553540577]$GPGSA,A,3,22,01,14,03,11,32,31,19,,,,,2.99,1.74,2.44*0C

[1499553540577]$GPGSV,3,1,12,01,72,199,15,03,54,272,12,04,18,128,,11,45,194,08*7C

[1499553540577]$GPGSV,3,2,12,12,05,014,,14,48,064,15,17,30,303,08,19,19,323,08*70

[1499553540577]$GPGSV,3,3,12,22,83,262,12,23,18,216,,31,31,106,10,32,28,055,19*7C

[1499553540577]$GPGLL,5356.84420,N,02741.11648,E,193900.00,A,A*6E

[1499553541576]$GPRMC,193901.00,A,5356.84630,N,02741.11340,E,8.147,329.22,080717,,,A*6D

[1499553541576]$GPVTG,329.22,T,,M,8.147,N,15.089,K,A*0A

[1499553541576]$GPGGA,193901.00,5356.84630,N,02741.11340,E,1,08,1.74,296.0,M,24.8,M,,*5D

[1499553541576]$GPGSA,A,3,22,01,14,03,11,32,31,19,,,,,2.99,1.74,2.44*0C

[1499553541576]$GPGSV,3,1,12,01,72,199,15,03,54,272,13,04,18,128,,11,45,194,08*7D

[1499553541576]$GPGSV,3,2,12,12,05,014,,14,48,064,14,17,30,303,08,19,19,323,08*71

[1499553541576]$GPGSV,3,3,12,22,83,262,12,23,18,216,,31,31,106,10,32,28,055,19*7C

[1499553541576]$GPGLL,5356.84630,N,02741.11340,E,193901.00,A,A*61

[1499553542567]$GPRMC,193902.00,A,5356.84935,N,02741.11056,E,8.896,329.04,080717,,,A*61

[1499553542567]$GPVTG,329.04,T,,M,8.896,N,16.475,K,A*0F

[1499553542567]$GPGGA,193902.00,5356.84935,N,02741.11056,E,1,08,1.74,293.6,M,24.8,M,,*53

[1499553542567]$GPGSA,A,3,22,01,14,03,11,32,31,19,,,,,2.99,1.74,2.44*0C

[1499553542567]$GPGSV,3,1,12,01,72,199,15,03,54,272,12,04,18,128,,11,45,194,08*7C

[1499553542567]$GPGSV,3,2,12,12,05,014,,14,48,064,14,17,30,303,12,19,19,323,08*7A

[1499553542567]$GPGSV,3,3,12,22,83,262,15,23,18,216,,31,31,106,09,32,28,055,18*72

[1499553542567]$GPGLL,5356.84935,N,02741.11056,E,193902.00,A,A*6C

[1499553543586]$GPRMC,193903.00,A,5356.85245,N,02741.10691,E,9.778,328.68,080717,,,A*64

[1499553543586]$GPVTG,328.68,T,,M,9.778,N,18.108,K,A*0B

[1499553543586]$GPGGA,193903.00,5356.85245,N,02741.10691,E,1,08,1.74,290.9,M,24.8,M,,*5F

[1499553543586]$GPGSA,A,3,22,01,14,03,11,32,31,19,,,,,3.00,1.74,2.44*0D

[1499553543586]$GPGSV,3,1,12,01,72,199,16,03,54,272,13,04,18,128,,11,45,194,08*7E

[1499553543586]$GPGSV,3,2,12,12,05,014,,14,48,064,14,17,30,303,12,19,19,323,08*7A

[1499553543586]$GPGSV,3,3,12,22,83,262,15,23,18,216,,31,31,106,09,32,28,055,18*72

[1499553543586]$GPGLL,5356.85245,N,02741.10691,E,193903.00,A,A*6C

[1499553544569]$GPRMC,193904.00,A,5356.85527,N,02741.10388,E,10.022,328.01,080717,,,A*52

[1499553544569]$GPVTG,328.01,T,,M,10.022,N,18.561,K,A*3F

[1499553544569]$GPGGA,193904.00,5356.85527,N,02741.10388,E,1,07,3.86,288.9,M,24.8,M,,*5F

[1499553544569]$GPGSA,A,3,22,01,14,03,32,17,19,,,,,,6.65,3.86,5.41*02

[1499553544569]$GPGSV,3,1,12,01,72,199,17,03,54,272,13,04,18,128,,11,45,194,*77

[1499553544569]$GPGSV,3,2,12,12,05,014,,14,48,064,15,17,30,303,12,19,19,323,08*7B

[1499553544569]$GPGSV,3,3,12,22,83,262,15,23,18,216,,31,31,106,09,32,28,055,16*7C

[1499553544569]$GPGLL,5356.85527,N,02741.10388,E,193904.00,A,A*65

[1499553545570]$GPRMC,193905.00,A,5356.85947,N,02741.10177,E,10.709,330.80,080717,,,A*55

[1499553545570]$GPVTG,330.80,T,,M,10.709,N,19.833,K,A*3A

[1499553545570]$GPGGA,193905.00,5356.85947,N,02741.10177,E,1,07,3.86,287.2,M,24.8,M,,*52

[1499553545570]$GPGSA,A,3,22,01,14,03,32,17,19,,,,,,6.65,3.86,5.41*02

[1499553545570]$GPGSV,3,1,12,01,72,199,17,03,54,272,14,04,18,128,,11,45,194,*70

[1499553545570]$GPGSV,3,2,12,12,05,014,,14,48,064,16,17,30,303,12,19,19,323,08*78

[1499553545570]$GPGSV,3,3,12,22,83,262,15,23,18,216,,31,31,106,09,32,28,055,15*7F

[1499553545570]$GPGLL,5356.85947,N,02741.10177,E,193905.00,A,A*6C

[1499553546566]$GPRMC,193906.00,A,5356.86386,N,02741.09872,E,11.608,333.02,080717,,,A*5E

[1499553546566]$GPVTG,333.02,T,,M,11.608,N,21.499,K,A*35

[1499553546566]$GPGGA,193906.00,5356.86386,N,02741.09872,E,1,07,3.86,285.3,M,24.8,M,,*52

[1499553546566]$GPGSA,A,3,22,01,14,03,32,17,19,,,,,,6.64,3.86,5.41*03

[1499553546566]$GPGSV,3,1,12,01,72,199,18,03,54,272,14,04,18,128,,11,45,194,08*77

[1499553546566]$GPGSV,3,2,12,12,05,014,,14,48,064,17,17,30,303,12,19,19,323,08*79

[1499553546566]$GPGSV,3,3,12,22,83,262,15,23,18,216,,31,31,106,09,32,28,055,14*7E

[1499553546566]$GPGLL,5356.86386,N,02741.09872,E,193906.00,A,A*6F

[1499553547567]$GPRMC,193907.00,A,5356.86330,N,02741.09839,E,9.708,332.66,080717,,,A*66

[1499553547567]$GPVTG,332.66,T,,M,9.708,N,17.980,K,A*0E

[1499553547567]$GPGGA,193907.00,5356.86330,N,02741.09839,E,1,06,3.97,284.5,M,24.8,M,,*57

[1499553547567]$GPGSA,A,3,22,01,14,03,32,17,,,,,,,6.71,3.97,5.41*0F

[1499553547567]$GPGSV,3,1,12,01,72,199,19,03,54,272,16,04,18,128,,11,45,194,11*7C

[1499553547567]$GPGSV,3,2,12,12,05,014,,14,48,064,17,17,30,303,12,19,19,323,*71

[1499553547567]$GPGSV,3,3,12,22,83,262,15,23,18,216,,31,31,106,09,32,28,055,15*7F

[1499553547567]$GPGLL,5356.86330,N,02741.09839,E,193907.00,A,A*6C

[1499553548566]$GPRMC,193908.00,A,5356.86206,N,02741.10058,E,7.521,334.50,080717,,,A*6E

[1499553548566]$GPVTG,334.50,T,,M,7.521,N,13.929,K,A*0D

[1499553548566]$GPGGA,193908.00,5356.86206,N,02741.10058,E,1,06,3.96,283.9,M,24.8,M,,*51

[1499553548566]$GPGSA,A,3,22,01,14,03,32,17,,,,,,,6.70,3.96,5.40*0E

[1499553548566]$GPGSV,3,1,12,01,72,199,20,03,54,272,16,04,18,128,,11,45,194,14*73

[1499553548566]$GPGSV,3,2,12,12,05,014,,14,48,064,18,17,30,303,17,19,19,323,*7B

[1499553548566]$GPGSV,3,3,12,22,83,262,14,23,18,216,,31,31,106,08,32,28,055,15*7F

[1499553548566]$GPGLL,5356.86206,N,02741.10058,E,193908.00,A,A*60

[1499553549577]$GPRMC,193909.00,A,5356.86024,N,02741.10238,E,5.499,336.16,080717,,,A*69

[1499553549577]$GPVTG,336.16,T,,M,5.499,N,10.184,K,A*01

[1499553549577]$GPGGA,193909.00,5356.86024,N,02741.10238,E,1,06,3.96,283.3,M,24.8,M,,*5C

[1499553549577]$GPGSA,A,3,22,01,14,03,32,17,,,,,,,6.70,3.96,5.40*0E

[1499553549577]$GPGSV,3,1,12,01,72,199,21,03,54,272,17,04,18,128,,11,45,194,14*73

[1499553549577]$GPGSV,3,2,12,12,05,014,,14,48,064,18,17,30,303,17,19,19,323,*7B

[1499553549577]$GPGSV,3,3,12,22,83,262,14,23,18,216,,31,31,106,08,32,28,055,14*7E

[1499553549577]$GPGLL,5356.86024,N,02741.10238,E,193909.00,A,A*67

[1499553550567]$GPRMC,193910.00,A,5356.85830,N,02741.10442,E,3.725,338.56,080717,,,A*6C

[1499553550567]$GPVTG,338.56,T,,M,3.725,N,6.900,K,A*3A

[1499553550567]$GPGGA,193910.00,5356.85830,N,02741.10442,E,1,06,3.96,282.8,M,24.8,M,,*5B

[1499553550567]$GPGSA,A,3,22,01,14,03,32,17,,,,,,,6.70,3.96,5.40*0E

[1499553550567]$GPGSV,3,1,12,01,72,199,21,03,54,272,16,04,18,128,,11,44,193,14*74

[1499553550567]$GPGSV,3,2,12,12,05,014,,14,48,064,17,17,30,303,17,19,19,323,19*7C

[1499553550567]$GPGSV,3,3,12,22,83,262,14,23,18,216,,31,31,106,08,32,28,055,14*7E

[1499553550567]$GPGLL,5356.85830,N,02741.10442,E,193910.00,A,A*6A

[1499553551584]$GPRMC,193911.00,A,5356.85623,N,02741.10550,E,2.339,,080717,,,A*7E

[1499553551584]$GPVTG,,T,,M,2.339,N,4.332,K,A*2E

[1499553551584]$GPGGA,193911.00,5356.85623,N,02741.10550,E,1,06,3.96,282.2,M,24.8,M,,*5E

[1499553551584]$GPGSA,A,3,22,01,14,03,32,17,,,,,,,6.69,3.96,5.40*06

[1499553551584]$GPGSV,3,1,12,01,72,199,21,03,54,272,15,04,18,128,,11,44,193,14*77

[1499553551584]$GPGSV,3,2,12,12,05,014,,14,48,064,18,17,30,303,17,19,19,323,18*72

[1499553551584]$GPGSV,3,3,12,22,83,262,14,23,18,216,,31,31,106,08,32,28,055,15*7F

[1499553551584]$GPGLL,5356.85623,N,02741.10550,E,193911.00,A,A*65

[1499553552567]$GPRMC,193912.00,A,5356.85378,N,02741.10669,E,0.986,,080717,,,A*73

[1499553552567]$GPVTG,,T,,M,0.986,N,1.826,K,A*29

[1499553552567]$GPGGA,193912.00,5356.85378,N,02741.10669,E,1,06,3.96,281.6,M,24.8,M,,*58

[1499553552567]$GPGSA,A,3,22,01,14,03,32,17,,,,,,,6.69,3.96,5.39*08

[1499553552567]$GPGSV,3,1,12,01,72,199,20,03,54,272,15,04,18,128,,11,44,193,15*77

[1499553552567]$GPGSV,3,2,12,12,05,014,,14,48,064,17,17,30,303,17,19,19,323,16*73

[1499553552567]$GPGSV,3,3,12,22,83,262,14,23,18,216,,31,31,106,08,32,28,055,15*7F

[1499553552567]$GPGLL,5356.85378,N,02741.10669,E,193912.00,A,A*64

[1499553553570]$GPRMC,193913.00,A,5356.85089,N,02741.10746,E,0.860,,080717,,,A*7A

[1499553553570]$GPVTG,,T,,M,0.860,N,1.593,K,A*23

[1499553553570]$GPGGA,193913.00,5356.85089,N,02741.10746,E,1,06,3.96,281.0,M,24.8,M,,*5E

[1499553553570]$GPGSA,A,3,22,01,14,03,32,17,,,,,,,6.69,3.96,5.39*08

[1499553553570]$GPGSV,3,1,12,01,72,199,21,03,54,272,15,04,18,128,,11,44,193,16*75

[1499553553570]$GPGSV,3,2,12,12,05,014,,14,47,064,18,17,30,303,17,19,19,323,15*70

[1499553553570]$GPGSV,3,3,12,22,83,262,14,23,18,216,,31,31,106,08,32,28,055,14*7E

[1499553553570]$GPGLL,5356.85089,N,02741.10746,E,193913.00,A,A*64

[1499553554566]$GPRMC,193914.00,A,5356.84925,N,02741.10956,E,0.663,,080717,,,A*71

[1499553554566]$GPVTG,,T,,M,0.663,N,1.228,K,A*29

[1499553554566]$GPGGA,193914.00,5356.84925,N,02741.10956,E,1,06,5.59,281.5,M,24.8,M,,*58

[1499553554566]$GPGSA,A,3,01,14,03,32,17,19,,,,,,,10.47,5.59,8.85*34

[1499553554566]$GPGSV,3,1,12,01,72,199,21,03,54,272,13,04,18,128,,11,44,193,17*72

[1499553554566]$GPGSV,3,2,12,12,05,014,,14,47,064,18,17,30,303,12,19,19,323,14*74

[1499553554566]$GPGSV,3,3,12,22,83,262,06,23,18,216,,31,31,106,16,32,28,055,14*72

[1499553554566]$GPGLL,5356.84925,N,02741.10956,E,193914.00,A,A*62

[1499553555567]$GPRMC,193915.00,A,5356.84705,N,02741.11146,E,1.098,,080717,,,A*77

[1499553555567]$GPVTG,,T,,M,1.098,N,2.034,K,A*26

[1499553555567]$GPGGA,193915.00,5356.84705,N,02741.11146,E,1,06,5.59,282.0,M,24.8,M,,*5B

[1499553555567]$GPGSA,A,3,01,14,03,32,17,19,,,,,,,10.46,5.59,8.84*34

[1499553555567]$GPGSV,3,1,12,01,72,199,21,03,54,272,11,04,18,128,,11,44,193,17*70

[1499553555567]$GPGSV,3,2,12,12,05,014,,14,47,064,18,17,30,303,12,19,19,323,15*75

[1499553555567]$GPGSV,3,3,12,22,83,262,06,23,18,216,,31,31,106,16,32,28,055,13*75

[1499553555567]$GPGLL,5356.84705,N,02741.11146,E,193915.00,A,A*67

[1499553556567]$GPRMC,193916.00,A,5356.84273,N,02741.11391,E,1.262,,080717,,,A*7F

[1499553556567]$GPVTG,,T,,M,1.262,N,2.337,K,A*21

[1499553556567]$GPGGA,193916.00,5356.84273,N,02741.11391,E,1,07,1.22,279.2,M,24.8,M,,*5B

[1499553556567]$GPGSA,A,3,01,14,11,32,17,31,19,,,,,,2.86,1.22,2.59*08

[1499553556567]$GPGSV,3,1,12,01,72,199,21,03,54,272,,04,18,128,,11,44,193,14*73

[1499553556567]$GPGSV,3,2,12,12,05,014,,14,47,064,18,17,30,303,12,19,19,323,15*75

[1499553556567]$GPGSV,3,3,12,22,83,262,06,23,18,216,,31,31,106,16,32,28,055,13*75

[1499553556567]$GPGLL,5356.84273,N,02741.11391,E,193916.00,A,A*68

[1499553557567]$GPRMC,193917.00,A,5356.83873,N,02741.11587,E,1.797,,080717,,,A*7D

[1499553557567]$GPVTG,,T,,M,1.797,N,3.327,K,A*2E

[1499553557567]$GPGGA,193917.00,5356.83873,N,02741.11587,E,1,07,1.22,277.1,M,24.8,M,,*5B

[1499553557567]$GPGSA,A,3,01,14,11,32,17,31,19,,,,,,2.86,1.22,2.59*08

[1499553557567]$GPGSV,3,1,12,01,72,199,20,03,54,272,,04,18,128,,11,44,193,14*72

[1499553557567]$GPGSV,3,2,12,12,05,014,,14,47,064,16,17,30,303,12,19,19,323,13*7D

[1499553557567]$GPGSV,3,3,12,22,83,262,06,23,18,216,,31,31,106,16,32,28,055,12*74

[1499553557567]$GPGLL,5356.83873,N,02741.11587,E,193917.00,A,A*65

[1499553558567]$GPRMC,193918.00,A,5356.83453,N,02741.11654,E,2.372,,080717,,,A*7D

[1499553558567]$GPVTG,,T,,M,2.372,N,4.393,K,A*2A

[1499553558567]$GPGGA,193918.00,5356.83453,N,02741.11654,E,1,07,1.22,274.7,M,24.8,M,,*52

[1499553558567]$GPGSA,A,3,01,14,11,32,17,31,19,,,,,,2.86,1.22,2.59*08

[1499553558567]$GPGSV,3,1,12,01,72,199,19,03,54,272,,04,18,128,,11,44,193,13*7F

[1499553558567]$GPGSV,3,2,12,12,05,014,,14,47,064,15,17,30,303,12,19,19,323,13*7E

[1499553558567]$GPGSV,3,3,12,22,83,262,06,23,18,216,,31,31,106,16,32,28,055,12*74

[1499553558567]$GPGLL,5356.83453,N,02741.11654,E,193918.00,A,A*69

[1499553559577]$GPRMC,193919.00,A,5356.83059,N,02741.11648,E,3.060,269.36,080717,,,A*68

[1499553559577]$GPVTG,269.36,T,,M,3.060,N,5.667,K,A*32

[1499553559577]$GPGGA,193919.00,5356.83059,N,02741.11648,E,1,07,1.22,272.7,M,24.8,M,,*56

[1499553559577]$GPGSA,A,3,01,14,11,32,17,31,19,,,,,,2.86,1.22,2.59*08

[1499553559577]$GPGSV,3,1,12,01,72,199,19,03,54,272,,04,18,128,,11,44,193,14*78

[1499553559577]$GPGSV,3,2,12,12,05,014,,14,47,064,14,17,30,303,12,19,19,323,14*78

[1499553559577]$GPGSV,3,3,12,22,83,262,06,23,18,216,,31,31,106,16,32,28,055,13*75

[1499553559577]$GPGLL,5356.83059,N,02741.11648,E,193919.00,A,A*6B

[1499553560570]$GPRMC,193920.00,A,5356.82752,N,02741.11619,E,2.971,,080717,,,A*75

[1499553560570]$GPVTG,,T,,M,2.971,N,5.502,K,A*2C

[1499553560570]$GPGGA,193920.00,5356.82752,N,02741.11619,E,1,07,1.22,270.4,M,24.8,M,,*54

[1499553560570]$GPGSA,A,3,01,14,11,32,17,31,19,,,,,,2.86,1.22,2.59*08

[1499553560570]$GPGSV,3,1,12,01,72,199,18,03,54,272,,04,18,128,,11,44,193,15*78

[1499553560570]$GPGSV,3,2,12,12,05,014,03,14,47,064,14,17,30,303,14,19,19,323,12*7B

[1499553560570]$GPGSV,3,3,12,22,83,262,11,23,18,216,,31,31,106,13,32,28,055,11*74

[1499553560570]$GPGLL,5356.82752,N,02741.11619,E,193920.00,A,A*68

[1499553561567]$GPRMC,193921.00,A,5356.82483,N,02741.11644,E,2.825,,080717,,,A*73

[1499553561567]$GPVTG,,T,,M,2.825,N,5.231,K,A*2B

[1499553561567]$GPGGA,193921.00,5356.82483,N,02741.11644,E,1,06,1.33,268.4,M,24.8,M,,*5A

[1499553561567]$GPGSA,A,3,01,14,11,17,31,19,,,,,,,2.93,1.33,2.61*06

[1499553561567]$GPGSV,3,1,12,01,72,199,18,03,54,272,,04,18,128,,11,44,193,15*78

[1499553561567]$GPGSV,3,2,12,12,05,014,06,14,47,064,15,17,30,303,14,19,19,323,10*7D

[1499553561567]$GPGSV,3,3,12,22,83,261,11,23,18,216,,31,31,106,13,32,28,055,09*7E

[1499553561567]$GPGLL,5356.82483,N,02741.11644,E,193921.00,A,A*6E

[1499553562576]$GPRMC,193922.00,A,5356.82249,N,02741.11731,E,2.592,,080717,,,A*72

[1499553562576]$GPVTG,,T,,M,2.592,N,4.800,K,A*23

[1499553562576]$GPGGA,193922.00,5356.82249,N,02741.11731,E,1,07,1.28,265.3,M,24.8,M,,*5B

[1499553562576]$GPGSA,A,3,22,01,14,11,17,31,19,,,,,,2.36,1.28,1.98*06

[1499553562576]$GPGSV,3,1,12,01,72,199,18,03,54,272,,04,18,128,02,11,44,193,15*7A

[1499553562576]$GPGSV,3,2,12,12,05,014,06,14,47,064,16,17,30,303,14,19,19,323,13*7D

[1499553562576]$GPGSV,3,3,12,22,83,261,11,23,18,216,,31,31,106,13,32,28,055,*77

[1499553562576]$GPGLL,5356.82249,N,02741.11731,E,193922.00,A,A*6E

[1499553563567]$GPRMC,193923.00,A,5356.82051,N,02741.11711,E,2.348,,080717,,,A*7B

[1499553563567]$GPVTG,,T,,M,2.348,N,4.349,K,A*24

[1499553563567]$GPGGA,193923.00,5356.82051,N,02741.11711,E,1,07,1.28,262.3,M,24.8,M,,*54

[1499553563567]$GPGSA,A,3,22,01,14,11,17,31,19,,,,,,2.36,1.28,1.98*06

[1499553563567]$GPGSV,3,1,12,01,72,199,18,03,54,272,16,04,18,128,05,11,44,193,14*7B

[1499553563567]$GPGSV,3,2,12,12,05,014,06,14,47,064,17,17,30,303,14,19,19,323,16*79

[1499553563567]$GPGSV,3,3,12,22,83,261,11,23,18,216,,31,31,106,13,32,28,055,*77

[1499553563567]$GPGLL,5356.82051,N,02741.11711,E,193923.00,A,A*66

[1499553564567]$GPRMC,193924.00,A,5356.81882,N,02741.11752,E,1.955,,080717,,,A*7B

[1499553564567]$GPVTG,,T,,M,1.955,N,3.621,K,A*2D

[1499553564567]$GPGGA,193924.00,5356.81882,N,02741.11752,E,1,07,1.28,259.3,M,24.8,M,,*59

[1499553564567]$GPGSA,A,3,22,01,14,11,17,31,19,,,,,,2.36,1.28,1.99*07

[1499553564567]$GPGSV,3,1,12,01,72,199,18,03,54,272,16,04,18,128,06,11,44,193,14*78

[1499553564567]$GPGSV,3,2,12,12,05,014,06,14,47,064,18,17,30,303,14,19,19,323,16*76

[1499553564567]$GPGSV,3,3,12,22,83,261,11,23,18,216,,31,31,106,13,32,28,055,*77

[1499553564567]$GPGLL,5356.81882,N,02741.11752,E,193924.00,A,A*63

[1499553565577]$GPRMC,193925.00,A,5356.81640,N,02741.11774,E,2.437,,080717,,,A*74

[1499553565577]$GPVTG,,T,,M,2.437,N,4.514,K,A*25

[1499553565577]$GPGGA,193925.00,5356.81640,N,02741.11774,E,1,06,1.35,256.4,M,24.8,M,,*59

[1499553565577]$GPGSA,A,3,22,01,14,11,31,19,,,,,,,2.42,1.35,2.01*0C

[1499553565577]$GPGSV,3,1,12,01,72,199,17,03,54,272,14,04,18,128,06,11,44,193,15*74

[1499553565577]$GPGSV,3,2,12,12,05,014,,14,47,064,18,17,30,303,,19,19,323,15*76

[1499553565577]$GPGSV,3,3,12,22,83,261,11,23,18,216,,31,31,106,13,32,28,055,*77

[1499553565577]$GPGLL,5356.81640,N,02741.11774,E,193925.00,A,A*66

[1499553566577]$GPRMC,193926.00,A,5356.81469,N,02741.11789,E,2.253,,080717,,,A*78

[1499553566577]$GPVTG,,T,,M,2.253,N,4.173,K,A*24

[1499553566577]$GPGGA,193926.00,5356.81469,N,02741.11789,E,1,06,1.35,253.6,M,24.8,M,,*56

[1499553566577]$GPGSA,A,3,22,01,14,11,31,19,,,,,,,2.42,1.35,2.01*0C

[1499553566577]$GPGSV,3,1,12,01,72,199,17,03,54,272,15,04,18,128,09,11,44,193,15*7A

[1499553566577]$GPGSV,3,2,12,12,05,014,,14,47,064,19,17,30,303,17,19,19,323,14*70

[1499553566577]$GPGSV,3,3,12,22,83,261,07,23,18,216,,31,31,106,15,32,28,055,06*70

[1499553566577]$GPGLL,5356.81469,N,02741.11789,E,193926.00,A,A*6E

[1499553567566]$GPRMC,193927.00,A,5356.81248,N,02741.11908,E,2.959,,080717,,,A*7A

[1499553567566]$GPVTG,,T,,M,2.959,N,5.480,K,A*2D

[1499553567566]$GPGGA,193927.00,5356.81248,N,02741.11908,E,1,07,1.29,251.1,M,24.8,M,,*5C

[1499553567566]$GPGSA,A,3,22,01,14,03,11,31,19,,,,,,2.37,1.29,1.98*03

[1499553567566]$GPGSV,3,1,12,01,72,199,17,03,54,272,15,04,18,128,09,11,44,193,16*79

[1499553567566]$GPGSV,3,2,12,12,05,014,,14,47,064,20,17,30,303,16,19,19,323,12*7D

[1499553567566]$GPGSV,3,3,12,22,83,261,07,23,18,216,,31,31,106,15,32,28,055,09*7F

[1499553567566]$GPGLL,5356.81248,N,02741.11908,E,193927.00,A,A*6D

[1499553568570]$GPRMC,193928.00,A,5356.81096,N,02741.11962,E,2.886,,080717,,,A*7B

[1499553568570]$GPVTG,,T,,M,2.886,N,5.344,K,A*21

[1499553568570]$GPGGA,193928.00,5356.81096,N,02741.11962,E,1,05,1.97,249.6,M,24.8,M,,*57

[1499553568570]$GPGSA,A,3,01,14,03,11,31,,,,,,,,4.92,1.97,4.51*07

[1499553568570]$GPGSV,3,1,12,01,72,199,16,03,54,272,14,04,18,128,09,11,44,193,16*79

[1499553568570]$GPGSV,3,2,12,12,05,014,,14,47,064,21,17,30,303,16,19,19,323,09*76

[1499553568570]$GPGSV,3,3,12,22,83,261,07,23,18,216,,31,31,106,15,32,28,055,15*72

[1499553568570]$GPGLL,5356.81096,N,02741.11962,E,193928.00,A,A*6F

[1499553569570]$GPRMC,193929.00,A,5356.80961,N,02741.12203,E,2.452,,080717,,,A*70

[1499553569570]$GPVTG,,T,,M,2.452,N,4.541,K,A*26

[1499553569570]$GPGGA,193929.00,5356.80961,N,02741.12203,E,1,06,1.35,248.4,M,24.8,M,,*51

[1499553569570]$GPGSA,A,3,01,14,03,11,17,31,,,,,,,3.09,1.35,2.78*01

[1499553569570]$GPGSV,3,1,12,01,72,199,16,03,54,272,16,04,18,128,09,11,44,193,16*7B

[1499553569570]$GPGSV,3,2,12,12,05,014,,14,47,064,22,17,30,303,17,19,19,323,08*75

[1499553569570]$GPGSV,3,3,12,22,83,261,07,23,18,216,,31,31,106,15,32,28,055,17*70

[1499553569570]$GPGLL,5356.80961,N,02741.12203,E,193929.00,A,A*61

[1499553570567]$GPRMC,193930.00,A,5356.80843,N,02741.12320,E,1.894,,080717,,,A*7C

[1499553570567]$GPVTG,,T,,M,1.894,N,3.507,K,A*26

[1499553570567]$GPGGA,193930.00,5356.80843,N,02741.12320,E,1,07,1.24,247.5,M,24.8,M,,*57

[1499553570567]$GPGSA,A,3,01,14,03,11,32,17,31,,,,,,2.97,1.24,2.70*0E

[1499553570567]$GPGSV,3,1,12,01,72,199,16,03,54,272,18,04,18,128,09,11,44,193,15*76

[1499553570567]$GPGSV,3,2,12,12,05,014,,14,47,064,22,17,30,303,16,19,19,323,08*74

[1499553570567]$GPGSV,3,3,12,22,83,261,06,23,18,216,,31,31,105,15,32,28,055,18*7D

[1499553570567]$GPGLL,5356.80843,N,02741.12320,E,193930.00,A,A*68

[1499553571577]$GPRMC,193931.00,A,5356.80712,N,02741.12474,E,1.872,,080717,,,A*78

[1499553571577]$GPVTG,,T,,M,1.872,N,3.467,K,A*29

[1499553571577]$GPGGA,193931.00,5356.80712,N,02741.12474,E,1,07,1.24,246.5,M,24.8,M,,*5A

[1499553571577]$GPGSA,A,3,01,14,03,11,32,17,31,,,,,,2.97,1.24,2.70*0E

[1499553571577]$GPGSV,3,1,12,01,72,199,16,03,54,272,19,04,18,128,09,11,44,193,13*71

[1499553571577]$GPGSV,3,2,12,12,05,014,,14,47,064,22,17,30,303,16,19,19,323,08*74

[1499553571577]$GPGSV,3,3,12,22,83,261,07,23,18,216,,31,31,105,15,32,28,055,18*7C

[1499553571577]$GPGLL,5356.80712,N,02741.12474,E,193931.00,A,A*64

[1499553572577]$GPRMC,193932.00,A,5356.80591,N,02741.12610,E,1.742,,080717,,,A*7E

[1499553572577]$GPVTG,,T,,M,1.742,N,3.227,K,A*27

[1499553572577]$GPGGA,193932.00,5356.80591,N,02741.12610,E,1,08,1.18,245.4,M,24.8,M,,*52

[1499553572577]$GPGSA,A,3,01,14,03,11,32,17,31,19,,,,,2.67,1.18,2.39*0B

[1499553572577]$GPGSV,3,1,12,01,72,199,15,03,54,272,18,04,18,128,07,11,44,193,12*7C

[1499553572577]$GPGSV,3,2,12,12,05,014,,14,47,064,22,17,30,303,14,19,19,323,09*77

[1499553572577]$GPGSV,3,3,12,22,83,261,08,23,18,216,,31,31,105,13,32,28,055,18*75

[1499553572577]$GPGLL,5356.80591,N,02741.12610,E,193932.00,A,A*6E

[1499553573577]$GPRMC,193933.00,A,5356.80471,N,02741.12754,E,1.766,,080717,,,A*77

[1499553573577]$GPVTG,,T,,M,1.766,N,3.271,K,A*22

[1499553573577]$GPGGA,193933.00,5356.80471,N,02741.12754,E,1,08,1.18,244.8,M,24.8,M,,*50

[1499553573577]$GPGSA,A,3,01,14,03,11,32,17,31,19,,,,,2.67,1.18,2.39*0B

[1499553573577]$GPGSV,3,1,12,01,72,199,14,03,54,272,18,04,18,128,07,11,44,193,11*7E

[1499553573577]$GPGSV,3,2,12,12,05,014,,14,47,064,22,17,30,303,14,19,19,323,09*77

[1499553573577]$GPGSV,3,3,12,22,83,261,08,23,18,216,,31,31,105,13,32,28,055,17*7A

[1499553573577]$GPGLL,5356.80471,N,02741.12754,E,193933.00,A,A*61

[1499553574567]$GPRMC,193934.00,A,5356.80369,N,02741.12964,E,1.935,,080717,,,A*7B

[1499553574567]$GPVTG,,T,,M,1.935,N,3.583,K,A*20

[1499553574567]$GPGGA,193934.00,5356.80369,N,02741.12964,E,1,09,1.14,242.5,M,24.8,M,,*52

[1499553574567]$GPGSA,A,3,22,01,14,03,11,32,17,31,19,,,,2.24,1.14,1.93*03

[1499553574567]$GPGSV,3,1,12,01,72,199,13,03,54,272,18,04,18,128,07,11,44,193,10*78

[1499553574567]$GPGSV,3,2,12,12,05,014,,14,47,064,22,17,30,303,13,19,19,323,09*70

[1499553574567]$GPGSV,3,3,12,22,83,261,08,23,18,216,,31,31,105,13,32,28,055,18*75

[1499553574567]$GPGLL,5356.80369,N,02741.12964,E,193934.00,A,A*65

[1499553575566]$GPRMC,193935.00,A,5356.80399,N,02741.13098,E,1.320,,080717,,,A*70

[1499553575566]$GPVTG,,T,,M,1.320,N,2.445,K,A*24

[1499553575566]$GPGGA,193935.00,5356.80399,N,02741.13098,E,1,07,1.80,240.6,M,24.8,M,,*55

[1499553575566]$GPGSA,A,3,22,14,03,32,17,31,19,,,,,,2.99,1.80,2.38*0B

[1499553575566]$GPGSV,3,1,12,01,72,199,09,03,54,272,17,04,18,128,07,11,44,193,09*74

[1499553575566]$GPGSV,3,2,12,12,05,014,,14,47,064,21,17,30,303,12,19,19,323,09*72

[1499553575566]$GPGSV,3,3,12,22,83,261,08,23,18,216,,31,31,105,13,32,28,055,19*74

[1499553575566]$GPGLL,5356.80399,N,02741.13098,E,193935.00,A,A*60

[1499553576567]$GPRMC,193936.00,A,5356.80443,N,02741.13096,E,0.599,,080717,,,A*78

[1499553576567]$GPVTG,,T,,M,0.599,N,1.109,K,A*2F

[1499553576567]$GPGGA,193936.00,5356.80443,N,02741.13096,E,1,06,1.85,238.4,M,24.8,M,,*51

[1499553576567]$GPGSA,A,3,22,14,03,32,31,19,,,,,,,3.08,1.85,2.47*09

[1499553576567]$GPGSV,3,1,12,01,72,199,08,03,54,272,16,04,18,128,07,11,44,193,09*74

[1499553576567]$GPGSV,3,2,12,12,05,014,,14,47,064,22,17,30,303,09,19,19,323,09*7B

[1499553576567]$GPGSV,3,3,12,22,83,261,08,23,18,216,,31,31,105,13,32,28,055,18*75

[1499553576567]$GPGLL,5356.80443,N,02741.13096,E,193936.00,A,A*6D

[1499553577582]$GPRMC,193937.00,A,5356.80475,N,02741.13089,E,0.223,,080717,,,A*74

[1499553577582]$GPVTG,,T,,M,0.223,N,0.413,K,A*26

[1499553577582]$GPGGA,193937.00,5356.80475,N,02741.13089,E,1,07,1.80,236.4,M,24.8,M,,*51

[1499553577582]$GPGSA,A,3,22,14,03,32,17,31,19,,,,,,2.99,1.80,2.38*0B

[1499553577582]$GPGSV,3,1,12,01,72,199,08,03,54,272,14,04,18,128,07,11,44,193,09*76

[1499553577582]$GPGSV,3,2,12,12,05,014,,14,47,064,22,17,30,303,10,19,19,323,09*73

[1499553577582]$GPGSV,3,3,12,22,83,261,08,23,18,216,,31,31,105,13,32,28,055,16*7B

[1499553577582]$GPGLL,5356.80475,N,02741.13089,E,193937.00,A,A*67

[1499553578577]$GPRMC,193938.00,A,5356.80427,N,02741.12972,E,1.067,,080717,,,A*73

[1499553578577]$GPVTG,,T,,M,1.067,N,1.976,K,A*2A

[1499553578577]$GPGGA,193938.00,5356.80427,N,02741.12972,E,1,09,1.14,233.7,M,24.8,M,,*50

[1499553578577]$GPGSA,A,3,22,01,14,03,11,32,17,31,19,,,,2.24,1.14,1.93*03

[1499553578577]$GPGSV,3,1,12,01,72,199,10,03,54,272,12,04,18,128,08,11,44,193,12*7C

[1499553578577]$GPGSV,3,2,12,12,05,014,,14,47,064,22,17,30,303,11,19,19,323,16*7C

[1499553578577]$GPGSV,3,3,12,22,83,261,08,23,18,216,,31,31,105,17,32,28,055,15*7C

[1499553578577]$GPGLL,5356.80427,N,02741.12972,E,193938.00,A,A*63

[1499553579577]$GPRMC,193939.00,A,5356.80322,N,02741.12967,E,0.885,,080717,,,A*71

[1499553579577]$GPVTG,,T,,M,0.885,N,1.639,K,A*2B

[1499553579577]$GPGGA,193939.00,5356.80322,N,02741.12967,E,1,08,1.16,231.3,M,24.8,M,,*52

[1499553579577]$GPGSA,A,3,22,01,14,11,32,17,31,19,,,,,2.29,1.16,1.97*0B

[1499553579577]$GPGSV,3,1,12,01,72,199,10,03,54,272,09,04,18,128,08,11,44,193,12*76

[1499553579577]$GPGSV,3,2,12,12,05,014,,14,47,064,21,17,30,303,11,19,19,323,10*79

[1499553579577]$GPGSV,3,3,12,22,83,261,08,23,18,216,07,31,31,105,17,32,28,055,15*7B

[1499553579577]$GPGLL,5356.80322,N,02741.12967,E,193939.00,A,A*64

[1499553580580]$GPRMC,193940.00,A,5356.80214,N,02741.12963,E,0.834,,080717,,,A*75

[1499553580580]$GPVTG,,T,,M,0.834,N,1.545,K,A*29

[1499553580580]$GPGGA,193940.00,5356.80214,N,02741.12963,E,1,07,1.27,229.1,M,24.8,M,,*5A

[1499553580580]$GPGSA,A,3,22,01,14,11,17,31,19,,,,,,2.36,1.27,1.99*08

[1499553580580]$GPGSV,3,1,12,01,72,199,10,03,54,272,08,04,18,128,08,11,44,193,12*77

[1499553580580]$GPGSV,3,2,12,12,05,014,,14,47,064,21,17,30,303,10,19,19,323,15*7D

[1499553580580]$GPGSV,3,3,12,22,83,261,08,23,18,216,07,31,31,105,17,32,28,055,15*7B

[1499553580580]$GPGLL,5356.80214,N,02741.12963,E,193940.00,A,A*6A

[1499553581577]$GPRMC,193941.00,A,5356.80112,N,02741.12998,E,0.768,,080717,,,A*73

[1499553581577]$GPVTG,,T,,M,0.768,N,1.422,K,A*2F

[1499553581577]$GPGGA,193941.00,5356.80112,N,02741.12998,E,1,07,1.27,227.1,M,24.8,M,,*54

[1499553581577]$GPGSA,A,3,22,01,14,11,17,31,19,,,,,,2.36,1.27,1.99*08

[1499553581577]$GPGSV,3,1,12,01,72,199,10,03,54,272,08,04,18,128,08,11,44,193,12*77

[1499553581577]$GPGSV,3,2,12,12,05,014,,14,47,064,21,17,30,303,11,19,19,323,18*71

[1499553581577]$GPGSV,3,3,12,22,83,261,08,23,18,216,09,31,31,105,17,32,28,055,15*75

[1499553581577]$GPGLL,5356.80112,N,02741.12998,E,193941.00,A,A*6A

[1499553582570]$GPRMC,193942.00,A,5356.80022,N,02741.12967,E,0.851,,080717,,,A*77

[1499553582570]$GPVTG,,T,,M,0.851,N,1.576,K,A*2A

[1499553582570]$GPGGA,193942.00,5356.80022,N,02741.12967,E,1,07,1.27,225.0,M,24.8,M,,*56

[1499553582570]$GPGSA,A,3,22,01,14,11,17,31,19,,,,,,2.36,1.27,1.99*08

[1499553582570]$GPGSV,3,1,12,01,72,199,10,03,54,272,08,04,18,128,08,11,44,193,12*77

[1499553582570]$GPGSV,3,2,12,12,05,014,,14,47,064,21,17,30,303,13,19,19,323,19*72

[1499553582570]$GPGSV,3,3,12,22,83,261,08,23,18,216,11,31,31,105,17,32,28,055,15*7C

[1499553582570]$GPGLL,5356.80022,N,02741.12967,E,193942.00,A,A*6B

[1499553583567]$GPRMC,193943.00,A,5356.79999,N,02741.13019,E,1.037,,080717,,,A*71

[1499553583567]$GPVTG,,T,,M,1.037,N,1.920,K,A*2C

[1499553583567]$GPGGA,193943.00,5356.79999,N,02741.13019,E,1,06,2.04,223.8,M,24.8,M,,*54

[1499553583567]$GPGSA,A,3,22,01,14,17,31,19,,,,,,,3.14,2.04,2.39*02

[1499553583567]$GPGSV,3,1,12,01,72,199,10,03,54,272,08,04,18,128,08,11,44,193,*74

[1499553583567]$GPGSV,3,2,12,12,05,014,,14,47,064,22,17,30,303,12,19,19,323,20*7A

[1499553583567]$GPGSV,3,3,12,22,83,261,08,23,18,216,12,31,31,105,17,32,28,055,15*7F

[1499553583567]$GPGLL,5356.79999,N,02741.13019,E,193943.00,A,A*64

[1499553584567]$GPRMC,193944.00,A,5356.80256,N,02741.13251,E,0.815,,080717,,,A*7F

[1499553584567]$GPVTG,,T,,M,0.815,N,1.509,K,A*22

[1499553584567]$GPGGA,193944.00,5356.80256,N,02741.13251,E,1,06,1.13,226.8,M,24.8,M,,*53

[1499553584567]$GPGSA,A,3,22,14,17,31,19,23,,,,,,,2.20,1.13,1.89*09

[1499553584567]$GPGSV,3,1,12,01,72,198,06,03,54,272,06,04,18,128,07,11,44,193,*73

[1499553584567]$GPGSV,3,2,12,12,05,014,,14,47,064,22,17,30,303,10,19,19,323,21*79

[1499553584567]$GPGSV,3,3,12,22,83,261,11,23,18,216,13,31,31,105,09,32,28,055,18*74

[1499553584567]$GPGLL,5356.80256,N,02741.13251,E,193944.00,A,A*63

[1499553585570]$GPRMC,193945.00,A,5356.80427,N,02741.13447,E,0.818,,080717,,,A*72

[1499553585570]$GPVTG,,T,,M,0.818,N,1.515,K,A*22

[1499553585570]$GPGGA,193945.00,5356.80427,N,02741.13447,E,1,07,1.00,228.0,M,24.8,M,,*56

[1499553585570]$GPGSA,A,3,22,14,32,17,31,19,23,,,,,,2.03,1.00,1.77*0A

[1499553585570]$GPGSV,3,1,12,01,72,198,06,03,54,272,06,04,18,128,07,11,44,193,*73

[1499553585570]$GPGSV,3,2,12,12,05,014,,14,47,064,21,17,30,303,12,19,19,323,21*78

[1499553585570]$GPGSV,3,3,12,22,83,261,11,23,18,216,12,31,31,105,09,32,28,055,16*7B

[1499553585570]$GPGLL,5356.80427,N,02741.13447,E,193945.00,A,A*63

[1499553586582]$GPRMC,193946.00,A,5356.80501,N,02741.13503,E,1.055,,080717,,,A*75

[1499553586582]$GPVTG,,T,,M,1.055,N,1.954,K,A*2B

[1499553586582]$GPGGA,193946.00,5356.80501,N,02741.13503,E,1,06,1.15,228.9,M,24.8,M,,*5D

[1499553586582]$GPGSA,A,3,22,14,32,17,19,23,,,,,,,2.16,1.15,1.83*03

[1499553586582]$GPGSV,3,1,12,01,72,198,06,03,55,272,06,04,18,128,07,11,44,193,*72

[1499553586582]$GPGSV,3,2,12,12,05,014,,14,47,064,20,17,30,303,14,19,19,323,21*7F

[1499553586582]$GPGSV,3,3,12,22,83,261,11,23,18,216,12,31,31,105,09,32,28,055,18*75

[1499553586582]$GPGLL,5356.80501,N,02741.13503,E,193946.00,A,A*64

[1499553587586]$GPRMC,193947.00,A,5356.80671,N,02741.13607,E,0.597,,080717,,,A*7D

[1499553587586]$GPVTG,,T,,M,0.597,N,1.106,K,A*2E

[1499553587586]$GPGGA,193947.00,5356.80671,N,02741.13607,E,1,06,1.15,230.3,M,24.8,M,,*5C

[1499553587586]$GPGSA,A,3,22,14,32,17,19,23,,,,,,,2.16,1.15,1.83*03

[1499553587586]$GPGSV,3,1,12,01,72,198,06,03,55,272,06,04,19,127,07,11,44,193,*7C

[1499553587586]$GPGSV,3,2,12,12,05,014,,14,47,064,19,17,30,303,14,19,19,323,21*75

[1499553587586]$GPGSV,3,3,12,22,83,261,11,23,18,216,13,31,31,105,09,32,28,055,20*7F

[1499553587586]$GPGLL,5356.80671,N,02741.13607,E,193947.00,A,A*66

[1499553588568]$GPRMC,193948.00,A,5356.80700,N,02741.13655,E,0.948,,080717,,,A*7C

[1499553588568]$GPVTG,,T,,M,0.948,N,1.756,K,A*23

[1499553588568]$GPGGA,193948.00,5356.80700,N,02741.13655,E,1,06,1.15,230.9,M,24.8,M,,*59

[1499553588568]$GPGSA,A,3,22,14,32,17,19,23,,,,,,,2.16,1.15,1.83*03

[1499553588568]$GPGSV,3,1,12,01,72,198,06,03,55,272,06,04,19,127,07,11,44,193,*7C

[1499553588568]$GPGSV,3,2,12,12,05,014,,14,47,064,18,17,30,303,14,19,19,323,21*74

[1499553588568]$GPGSV,3,3,12,22,83,261,11,23,18,216,13,31,31,105,09,32,28,055,19*75

[1499553588568]$GPGLL,5356.80700,N,02741.13655,E,193948.00,A,A*69

[1499553589577]$GPRMC,193949.00,A,5356.80677,N,02741.13591,E,1.089,,080717,,,A*72

[1499553589577]$GPVTG,,T,,M,1.089,N,2.018,K,A*28

[1499553589577]$GPGGA,193949.00,5356.80677,N,02741.13591,E,1,05,11.07,229.6,M,24.8,M,,*64

[1499553589577]$GPGSA,A,3,22,14,32,17,19,,,,,,,,16.38,11.07,12.07*37

[1499553589577]$GPGSV,3,1,12,01,72,198,06,03,55,272,06,04,19,127,07,11,44,193,*7C

[1499553589577]$GPGSV,3,2,12,12,05,014,,14,47,064,17,17,30,303,15,19,19,323,20*7B

[1499553589577]$GPGSV,3,3,12,22,83,261,11,23,18,216,,31,31,105,09,32,28,055,18*76

[1499553589577]$GPGLL,5356.80677,N,02741.13591,E,193949.00,A,A*62

[1499553590567]$GPRMC,193950.00,A,5356.80647,N,02741.13568,E,1.030,,080717,,,A*7D

[1499553590567]$GPVTG,,T,,M,1.030,N,1.907,K,A*2E

[1499553590567]$GPGGA,193950.00,5356.80647,N,02741.13568,E,1,05,11.06,228.4,M,24.8,M,,*6B

[1499553590567]$GPGSA,A,3,22,14,32,17,19,,,,,,,,16.36,11.06,12.06*39

[1499553590567]$GPGSV,3,1,12,01,72,198,15,03,55,272,09,04,19,127,08,11,44,193,*7E

[1499553590567]$GPGSV,3,2,12,12,05,014,,14,47,064,17,17,30,303,16,19,19,323,18*73

[1499553590567]$GPGSV,3,3,12,22,83,261,08,23,18,216,,31,31,105,08,32,28,055,19*7E

[1499553590567]$GPGLL,5356.80647,N,02741.13568,E,193950.00,A,A*6F

[1499553591568]$GPRMC,193951.00,A,5356.80641,N,02741.13479,E,1.195,,080717,,,A*75

[1499553591568]$GPVTG,,T,,M,1.195,N,2.212,K,A*2C

[1499553591568]$GPGGA,193951.00,5356.80641,N,02741.13479,E,1,04,13.65,227.2,M,24.8,M,,*62

[1499553591568]$GPGSA,A,3,22,32,17,19,,,,,,,,,20.34,13.65,15.08*35

[1499553591568]$GPGSV,3,1,12,01,72,198,15,03,55,272,09,04,19,127,08,11,44,193,*7E

[1499553591568]$GPGSV,3,2,12,12,05,014,,14,47,064,,17,30,303,17,19,19,323,16*7A

[1499553591568]$GPGSV,3,3,12,22,83,261,08,23,18,216,,31,31,105,08,32,28,055,18*7F

[1499553591568]$GPGLL,5356.80641,N,02741.13479,E,193951.00,A,A*69

[1499553592567]$GPRMC,193952.00,A,5356.80589,N,02741.13364,E,1.532,,080717,,,A*73

[1499553592567]$GPVTG,,T,,M,1.532,N,2.836,K,A*29

[1499553592567]$GPGGA,193952.00,5356.80589,N,02741.13364,E,1,06,2.11,226.6,M,24.8,M,,*59

[1499553592567]$GPGSA,A,3,22,01,32,17,31,19,,,,,,,3.50,2.11,2.79*06

[1499553592567]$GPGSV,3,1,12,01,72,198,15,03,55,272,09,04,19,127,08,11,44,193,*7E

[1499553592567]$GPGSV,3,2,12,12,05,014,,14,47,064,,17,30,303,16,19,19,323,17*7A

[1499553592567]$GPGSV,3,3,12,22,83,261,08,23,18,216,07,31,31,105,08,32,28,055,17*77

[1499553592567]$GPGLL,5356.80589,N,02741.13364,E,193952.00,A,A*66

[1499553593577]$GPRMC,193953.00,A,5356.80565,N,02741.13229,E,1.708,,080717,,,A*73

[1499553593577]$GPVTG,,T,,M,1.708,N,3.163,K,A*2A

[1499553593577]$GPGGA,193953.00,5356.80565,N,02741.13229,E,1,06,2.11,226.1,M,24.8,M,,*55

[1499553593577]$GPGSA,A,3,22,01,32,17,31,19,,,,,,,3.50,2.11,2.79*06

[1499553593577]$GPGSV,3,1,12,01,72,198,15,03,55,272,09,04,19,127,08,11,44,193,*7E

[1499553593577]$GPGSV,3,2,12,12,05,014,,14,47,064,,17,30,303,16,19,19,323,17*7A

[1499553593577]$GPGSV,3,3,12,22,83,261,08,23,18,216,10,31,31,105,08,32,28,055,18*7E

[1499553593577]$GPGLL,5356.80565,N,02741.13229,E,193953.00,A,A*6D

[1499553594567]$GPRMC,193954.00,A,5356.80573,N,02741.13021,E,2.294,,080717,,,A*7A

[1499553594567]$GPVTG,,T,,M,2.294,N,4.249,K,A*25

[1499553594567]$GPGGA,193954.00,5356.80573,N,02741.13021,E,1,06,2.11,225.5,M,24.8,M,,*58

[1499553594567]$GPGSA,A,3,22,01,32,17,31,19,,,,,,,3.50,2.11,2.79*06

[1499553594567]$GPGSV,3,1,12,01,72,198,15,03,55,272,09,04,19,127,08,11,44,193,*7E

[1499553594567]$GPGSV,3,2,12,12,05,014,,14,47,064,06,17,30,303,17,19,19,323,18*72

[1499553594567]$GPGSV,3,3,12,22,83,261,08,23,18,216,14,31,31,105,08,32,28,055,16*74

[1499553594567]$GPGLL,5356.80573,N,02741.13021,E,193954.00,A,A*67

[1499553595567]$GPRMC,193955.00,A,5356.80452,N,02741.12969,E,2.207,,080717,,,A*77

[1499553595567]$GPVTG,,T,,M,2.207,N,4.087,K,A*2F

[1499553595567]$GPGGA,193955.00,5356.80452,N,02741.12969,E,1,05,4.25,224.6,M,24.8,M,,*5F

[1499553595567]$GPGSA,A,3,22,01,32,17,19,,,,,,,,7.24,4.25,5.87*04

[1499553595567]$GPGSV,3,1,12,01,72,198,15,03,55,272,09,04,19,127,08,11,44,193,*7E

[1499553595567]$GPGSV,3,2,12,12,05,014,,14,47,064,07,17,30,303,19,19,19,323,18*7D

[1499553595567]$GPGSV,3,3,12,22,83,261,08,23,18,216,12,31,31,105,,32,28,055,16*7A

[1499553595567]$GPGLL,5356.80452,N,02741.12969,E,193955.00,A,A*60

[1499553596567]$GPRMC,193956.00,A,5356.80514,N,02741.12973,E,1.953,,080717,,,A*75

[1499553596567]$GPVTG,,T,,M,1.953,N,3.617,K,A*2E

[1499553596567]$GPGGA,193956.00,5356.80514,N,02741.12973,E,1,06,1.21,225.2,M,24.8,M,,*53

[1499553596567]$GPGSA,A,3,22,01,32,17,19,23,,,,,,,1.99,1.21,1.58*02

[1499553596567]$GPGSV,3,1,12,01,72,198,11,03,55,272,07,04,19,127,07,11,44,193,*7B

[1499553596567]$GPGSV,3,2,12,12,05,014,,14,47,064,08,17,30,303,19,19,19,323,18*72

[1499553596567]$GPGSV,3,3,12,22,83,261,11,23,18,216,12,31,31,105,,32,28,055,15*71

[1499553596567]$GPGLL,5356.80514,N,02741.12973,E,193956.00,A,A*6B

[1499553597566]$GPRMC,193957.00,A,5356.80676,N,02741.12947,E,1.469,,080717,,,A*70

[1499553597566]$GPVTG,,T,,M,1.469,N,2.721,K,A*2F

[1499553597566]$GPGGA,193957.00,5356.80676,N,02741.12947,E,1,06,1.21,226.0,M,24.8,M,,*53

[1499553597566]$GPGSA,A,3,22,01,32,17,19,23,,,,,,,1.99,1.21,1.58*02

[1499553597566]$GPGSV,3,1,12,01,72,198,17,03,55,272,07,04,19,127,07,11,44,193,*7D

[1499553597566]$GPGSV,3,2,12,12,05,014,,14,47,063,07,17,30,303,19,19,19,323,18*7A

[1499553597566]$GPGSV,3,3,12,22,83,261,11,23,18,216,11,31,31,105,,32,28,055,14*73

[1499553597566]$GPGLL,5356.80676,N,02741.12947,E,193957.00,A,A*6A

[1499553598567]$GPRMC,193958.00,A,5356.80682,N,02741.12815,E,1.994,,080717,,,A*7D

[1499553598567]$GPVTG,,T,,M,1.994,N,3.693,K,A*29

[1499553598567]$GPGGA,193958.00,5356.80682,N,02741.12815,E,1,06,1.21,226.8,M,24.8,M,,*59

[1499553598567]$GPGSA,A,3,22,01,32,17,19,23,,,,,,,1.99,1.21,1.58*02

[1499553598567]$GPGSV,3,1,12,01,72,198,20,03,55,272,,04,19,127,07,11,44,193,*7E

