[1499553320566]$GPRMC,193520.00,A,5356.81305,N,02741.13609,E,2.009,,080717,,,A*79

[1499553320566]$GPVTG,,T,,M,2.009,N,3.720,K,A*2E

[1499553320566]$GPGGA,193520.00,5356.81305,N,02741.13609,E,1,08,0.89,251.6,M,24.8,M,,*50

[1499553320566]$GPGSA,A,3,14,03,11,32,17,31,19,23,,,,,2.17,0.89,1.98*0D

[1499553320566]$GPGSV,3,1,12,01,73,204,09,03,52,271,09,04,17,129,,11,46,195,07*7B

[1499553320566]$GPGSV,3,2,12,12,05,016,07,14,49,065,18,17,30,305,14,19,18,324,26*79

[1499553320566]$GPGSV,3,3,12,22,81,263,07,23,16,215,16,31,30,107,13,32,30,055,23*72

[1499553320566]$GPGLL,5356.81305,N,02741.13609,E,193520.00,A,A*62

[1499553321570]$GPRMC,193521.00,A,5356.81372,N,02741.13479,E,1.910,,080717,,,A*7F

[1499553321570]$GPVTG,,T,,M,1.910,N,3.538,K,A*27

[1499553321570]$GPGGA,193521.00,5356.81372,N,02741.13479,E,1,08,0.89,252.7,M,24.8,M,,*56

[1499553321570]$GPGSA,A,3,14,03,11,32,17,31,19,23,,,,,2.17,0.89,1.98*0D

[1499553321570]$GPGSV,3,1,12,01,73,204,09,03,52,271,09,04,17,129,,11,46,195,07*7B

[1499553321570]$GPGSV,3,2,12,12,05,016,07,14,49,065,17,17,30,305,15,19,18,324,25*74

[1499553321570]$GPGSV,3,3,12,22,81,263,07,23,16,215,15,31,30,107,13,32,30,055,29*7B

[1499553321570]$GPGLL,5356.81372,N,02741.13479,E,193521.00,A,A*66

[1499553322566]$GPRMC,193522.00,A,5356.81442,N,02741.13319,E,1.984,,080717,,,A*74

[1499553322566]$GPVTG,,T,,M,1.984,N,3.675,K,A*20

[1499553322566]$GPGGA,193522.00,5356.81442,N,02741.13319,E,1,08,0.96,255.0,M,24.8,M,,*5E

[1499553322566]$GPGSA,A,3,22,14,03,32,17,31,19,23,,,,,1.82,0.96,1.55*0D

[1499553322566]$GPGSV,3,1,12,01,73,204,09,03,53,271,09,04,17,129,,11,46,195,07*7A

[1499553322566]$GPGSV,3,2,12,12,05,016,07,14,49,065,17,17,30,305,18,19,18,324,25*79

[1499553322566]$GPGSV,3,3,12,22,81,263,07,23,16,215,15,31,30,107,15,32,30,055,28*7C

[1499553322566]$GPGLL,5356.81442,N,02741.13319,E,193522.00,A,A*60

[1499553323576]$GPRMC,193523.00,A,5356.81500,N,02741.13255,E,1.306,,080717,,,A*7B

[1499553323576]$GPVTG,,T,,M,1.306,N,2.419,K,A*29

[1499553323576]$GPGGA,193523.00,5356.81500,N,02741.13255,E,1,08,0.96,256.2,M,24.8,M,,*50

[1499553323576]$GPGSA,A,3,22,14,03,32,17,31,19,23,,,,,1.82,0.96,1.55*0D

[1499553323576]$GPGSV,3,1,12,01,73,204,09,03,53,271,09,04,17,129,,11,46,195,07*7A

[1499553323576]$GPGSV,3,2,12,12,05,016,07,14,49,065,18,17,30,305,18,19,18,324,24*77

[1499553323576]$GPGSV,3,3,12,22,81,263,07,23,16,215,16,31,30,107,17,32,30,055,25*70

[1499553323576]$GPGLL,5356.81500,N,02741.13255,E,193523.00,A,A*6F

[1499553324567]$GPRMC,193524.00,A,5356.81610,N,02741.13150,E,1.247,,080717,,,A*7C

[1499553324567]$GPVTG,,T,,M,1.247,N,2.310,K,A*23

[1499553324567]$GPGGA,193524.00,5356.81610,N,02741.13150,E,1,08,0.96,258.2,M,24.8,M,,*5D

[1499553324567]$GPGSA,A,3,22,14,03,32,17,31,19,23,,,,,1.82,0.96,1.55*0D

[1499553324567]$GPGSV,3,1,12,01,73,204,09,03,53,271,09,04,17,129,,11,46,195,07*7A

[1499553324567]$GPGSV,3,2,12,12,05,016,07,14,49,065,17,17,30,305,16,19,18,324,29*7B

[1499553324567]$GPGSV,3,3,12,22,81,263,07,23,16,215,17,31,30,107,16,32,30,055,24*71

[1499553324567]$GPGLL,5356.81610,N,02741.13150,E,193524.00,A,A*6C

[1499553325566]$GPRMC,193525.00,A,5356.81698,N,02741.13092,E,1.220,,080717,,,A*73

[1499553325566]$GPVTG,,T,,M,1.220,N,2.259,K,A*2E

[1499553325566]$GPGGA,193525.00,5356.81698,N,02741.13092,E,1,07,0.97,258.9,M,24.8,M,,*56

[1499553325566]$GPGSA,A,3,14,03,32,17,31,19,23,,,,,,2.37,0.97,2.16*05

[1499553325566]$GPGSV,3,1,12,01,73,204,09,03,53,271,09,04,17,129,,11,46,195,07*7A

[1499553325566]$GPGSV,3,2,12,12,05,016,07,14,49,065,17,17,30,305,15,19,18,324,27*76

[1499553325566]$GPGSV,3,3,12,22,81,263,,23,16,215,17,31,30,107,15,32,30,055,21*70

[1499553325566]$GPGLL,5356.81698,N,02741.13092,E,193525.00,A,A*62

[1499553326568]$GPRMC,193526.00,A,5356.81748,N,02741.13023,E,0.860,,080717,,,A*79

[1499553326568]$GPVTG,,T,,M,0.860,N,1.592,K,A*22

[1499553326568]$GPGGA,193526.00,5356.81748,N,02741.13023,E,1,07,0.97,259.4,M,24.8,M,,*5F

[1499553326568]$GPGSA,A,3,14,03,32,17,31,19,23,,,,,,2.37,0.97,2.16*05

[1499553326568]$GPGSV,3,1,12,01,73,204,10,03,53,271,09,04,17,129,,11,46,195,11*75

[1499553326568]$GPGSV,3,2,12,12,05,016,07,14,49,065,14,17,30,305,15,19,18,324,25*77

[1499553326568]$GPGSV,3,3,12,22,81,263,,23,16,215,16,31,30,107,12,32,30,055,20*77

[1499553326568]$GPGLL,5356.81748,N,02741.13023,E,193526.00,A,A*67

[1499553327566]$GPRMC,193527.00,A,5356.81868,N,02741.13037,E,1.148,,080717,,,A*72

[1499553327566]$GPVTG,,T,,M,1.148,N,2.126,K,A*28

[1499553327566]$GPGGA,193527.00,5356.81868,N,02741.13037,E,1,07,0.97,260.2,M,24.8,M,,*5A

[1499553327566]$GPGSA,A,3,14,03,32,17,31,19,23,,,,,,2.37,0.97,2.16*05

[1499553327566]$GPGSV,3,1,12,01,73,204,10,03,53,271,09,04,17,129,,11,46,195,11*75

[1499553327566]$GPGSV,3,2,12,12,05,016,07,14,49,065,13,17,30,305,17,19,18,324,23*74

[1499553327566]$GPGSV,3,3,12,22,81,263,,23,16,215,15,31,30,107,13,32,30,055,18*7E

[1499553327566]$GPGLL,5356.81868,N,02741.13037,E,193527.00,A,A*6E

[1499553328566]$GPRMC,193528.00,A,5356.81886,N,02741.13013,E,0.872,,080717,,,A*7A

[1499553328566]$GPVTG,,T,,M,0.872,N,1.615,K,A*2D

[1499553328566]$GPGGA,193528.00,5356.81886,N,02741.13013,E,1,08,0.93,260.5,M,24.8,M,,*5F

[1499553328566]$GPGSA,A,3,01,03,11,32,17,31,19,23,,,,,1.90,0.93,1.65*0C

[1499553328566]$GPGSV,3,1,12,01,73,204,10,03,53,271,09,04,17,129,,11,46,195,11*75

[1499553328566]$GPGSV,3,2,12,12,05,016,07,14,49,065,09,17,30,305,15,19,18,324,21*7F

[1499553328566]$GPGSV,3,3,12,22,81,263,,23,16,215,14,31,30,107,12,32,30,055,18*7E

[1499553328566]$GPGLL,5356.81886,N,02741.13013,E,193528.00,A,A*67

[1499553329566]$GPRMC,193529.00,A,5356.81912,N,02741.13034,E,0.742,,080717,,,A*7E

[1499553329566]$GPVTG,,T,,M,0.742,N,1.373,K,A*24

[1499553329566]$GPGGA,193529.00,5356.81912,N,02741.13034,E,1,08,0.93,260.8,M,24.8,M,,*5A

[1499553329566]$GPGSA,A,3,01,03,11,32,17,31,19,23,,,,,1.90,0.93,1.65*0C

[1499553329566]$GPGSV,3,1,12,01,73,204,10,03,53,271,09,04,17,129,,11,46,195,11*75

[1499553329566]$GPGSV,3,2,12,12,05,016,07,14,49,065,08,17,30,305,14,19,18,324,17*7A

[1499553329566]$GPGSV,3,3,12,22,81,263,,23,16,215,13,31,30,107,10,32,30,055,16*75

[1499553329566]$GPGLL,5356.81912,N,02741.13034,E,193529.00,A,A*6F

[1499553330566]$GPRMC,193530.00,A,5356.81917,N,02741.13002,E,0.451,,080717,,,A*77

[1499553330566]$GPVTG,,T,,M,0.451,N,0.836,K,A*2E

[1499553330566]$GPGGA,193530.00,5356.81917,N,02741.13002,E,1,08,0.93,260.7,M,24.8,M,,*5D

[1499553330566]$GPGSA,A,3,01,03,11,32,17,31,19,23,,,,,1.90,0.93,1.65*0C

[1499553330566]$GPGSV,3,1,12,01,73,204,10,03,53,271,09,04,17,129,,11,46,194,11*74

[1499553330566]$GPGSV,3,2,12,12,05,016,07,14,49,065,07,17,30,305,14,19,18,324,15*77

[1499553330566]$GPGSV,3,3,12,22,81,263,,23,16,215,11,31,30,107,11,32,30,055,14*74

[1499553330566]$GPGLL,5356.81917,N,02741.13002,E,193530.00,A,A*67

[1499553331566]$GPRMC,193531.00,A,5356.81870,N,02741.12851,E,1.008,,080717,,,A*70

[1499553331566]$GPVTG,,T,,M,1.008,N,1.867,K,A*22

[1499553331566]$GPGGA,193531.00,5356.81870,N,02741.12851,E,1,07,1.10,260.8,M,24.8,M,,*59

[1499553331566]$GPGSA,A,3,01,03,11,32,17,19,23,,,,,,2.03,1.10,1.70*09

[1499553331566]$GPGSV,3,1,12,01,73,204,10,03,53,271,09,04,17,129,,11,46,194,11*74

[1499553331566]$GPGSV,3,2,12,12,05,016,,14,49,065,07,17,30,305,13,19,18,324,14*76

[1499553331566]$GPGSV,3,3,12,22,81,263,,23,16,215,10,31,30,107,09,32,30,055,12*7A

[1499553331566]$GPGLL,5356.81870,N,02741.12851,E,193531.00,A,A*69

[1499553332566]$GPRMC,193532.00,A,5356.81920,N,02741.12810,E,0.890,,080717,,,A*7A

[1499553332566]$GPVTG,,T,,M,0.890,N,1.649,K,A*28

[1499553332566]$GPGGA,193532.00,5356.81920,N,02741.12810,E,1,09,0.97,260.8,M,24.8,M,,*5B

[1499553332566]$GPGSA,A,3,01,14,03,11,32,17,31,19,23,,,,1.89,0.97,1.63*03

[1499553332566]$GPGSV,3,1,12,01,73,204,14,03,53,271,11,04,17,129,,11,46,194,10*78

[1499553332566]$GPGSV,3,2,12,12,05,016,,14,49,065,07,17,30,305,13,19,18,324,14*76

[1499553332566]$GPGSV,3,3,12,22,81,263,,23,16,215,11,31,30,107,10,32,30,055,11*70

[1499553332566]$GPGLL,5356.81920,N,02741.12810,E,193532.00,A,A*6B

[1499553333566]$GPRMC,193533.00,A,5356.81928,N,02741.12606,E,1.789,,080717,,,A*7C

[1499553333566]$GPVTG,,T,,M,1.789,N,3.314,K,A*21

[1499553333566]$GPGGA,193533.00,5356.81928,N,02741.12606,E,1,06,1.65,260.0,M,24.8,M,,*50

[1499553333566]$GPGSA,A,3,01,14,03,11,17,19,,,,,,,3.58,1.65,3.18*0D

[1499553333566]$GPGSV,3,1,12,01,73,204,14,03,53,271,11,04,17,129,,11,46,194,10*78

[1499553333566]$GPGSV,3,2,12,12,05,016,,14,49,065,07,17,30,305,14,19,18,324,13*76

[1499553333566]$GPGSV,3,3,12,22,81,263,,23,16,215,09,31,30,107,09,32,30,055,09*78

[1499553333566]$GPGLL,5356.81928,N,02741.12606,E,193533.00,A,A*6B

[1499553334557]$GPRMC,193534.00,A,5356.81904,N,02741.12541,E,1.542,,080717,,,A*70

[1499553334557]$GPVTG,,T,,M,1.542,N,2.855,K,A*2B

[1499553334557]$GPGGA,193534.00,5356.81904,N,02741.12541,E,1,05,3.49,259.8,M,24.8,M,,*54

[1499553334557]$GPGSA,A,3,01,03,11,17,19,,,,,,,,4.73,3.49,3.20*01

[1499553334557]$GPGSV,3,1,12,01,73,204,14,03,53,271,11,04,17,129,,11,46,194,10*78

[1499553334557]$GPGSV,3,2,12,12,05,016,,14,49,065,07,17,30,305,12,19,18,324,12*71

[1499553334557]$GPGSV,3,3,12,22,81,263,,23,16,215,08,31,30,107,08,32,30,055,08*79

[1499553334557]$GPGLL,5356.81904,N,02741.12541,E,193534.00,A,A*62

[1499553335556]$GPRMC,193535.00,A,5356.81885,N,02741.12449,E,1.557,,080717,,,A*74

[1499553335556]$GPVTG,,T,,M,1.557,N,2.883,K,A*24

[1499553335556]$GPGGA,193535.00,5356.81885,N,02741.12449,E,1,04,3.83,259.5,M,24.8,M,,*5E

[1499553335556]$GPGSA,A,3,01,03,11,19,,,,,,,,,4.99,3.83,3.20*05

[1499553335556]$GPGSV,3,1,12,01,73,204,14,03,53,271,11,04,17,129,,11,46,194,10*78

[1499553335556]$GPGSV,3,2,12,12,05,016,,14,49,065,07,17,30,305,09,19,18,324,12*7B

[1499553335556]$GPGSV,3,3,12,22,81,263,,23,16,215,08,31,30,107,08,32,30,055,08*79

[1499553335556]$GPGLL,5356.81885,N,02741.12449,E,193535.00,A,A*62

[1499553336556]$GPRMC,193536.00,A,5356.81817,N,02741.12389,E,1.453,,080717,,,A*72

[1499553336556]$GPVTG,,T,,M,1.453,N,2.691,K,A*2C

[1499553336556]$GPGGA,193536.00,5356.81817,N,02741.12389,E,1,04,3.83,259.3,M,24.8,M,,*5B

[1499553336556]$GPGSA,A,3,01,03,11,19,,,,,,,,,4.99,3.83,3.20*05

[1499553336556]$GPGSV,3,1,12,01,73,204,14,03,53,271,11,04,17,129,,11,46,194,10*78

[1499553336556]$GPGSV,3,2,12,12,05,016,,14,49,065,07,17,30,304,08,19,18,324,12*7B

[1499553336556]$GPGSV,3,3,12,22,81,263,,23,16,215,08,31,30,107,08,32,30,055,08*79

[1499553336556]$GPGLL,5356.81817,N,02741.12389,E,193536.00,A,A*61

[1499553337572]$GPRMC,193537.00,A,5356.81579,N,02741.12407,E,1.787,,080717,,,A*7D

[1499553337572]$GPVTG,,T,,M,1.787,N,3.310,K,A*2B

[1499553337572]$GPGGA,193537.00,5356.81579,N,02741.12407,E,1,03,4.98,238.8,M,24.8,M,,*58

[1499553337572]$GPGSA,A,2,01,03,11,,,,,,,,,,5.08,4.98,1.00*08

[1499553337572]$GPGSV,3,1,12,01,73,204,14,03,53,271,11,04,17,129,,11,46,194,10*78

[1499553337572]$GPGSV,3,2,12,12,05,016,,14,49,065,07,17,30,304,08,19,18,324,09*71

[1499553337572]$GPGSV,3,3,12,22,81,263,,23,16,215,08,31,30,107,08,32,30,055,08*79

[1499553337572]$GPGLL,5356.81579,N,02741.12407,E,193537.00,A,A*64

[1499553338566]$GPRMC,193538.00,A,5356.81575,N,02741.12586,E,0.998,,080717,,,A*77

[1499553338566]$GPVTG,,T,,M,0.998,N,1.848,K,A*2E

[1499553338566]$GPGGA,193538.00,5356.81575,N,02741.12586,E,1,06,1.09,239.3,M,24.8,M,,*51

[1499553338566]$GPGSA,A,3,01,11,32,17,31,23,,,,,,,2.22,1.09,1.93*06

[1499553338566]$GPGSV,3,1,12,01,73,204,11,03,53,271,06,04,17,129,,11,46,194,09*73

[1499553338566]$GPGSV,3,2,12,12,05,016,,14,49,065,07,17,30,304,09,19,18,324,08*71

[1499553338566]$GPGSV,3,3,12,22,81,263,,23,16,215,08,31,30,107,07,32,30,055,08*76

[1499553338566]$GPGLL,5356.81575,N,02741.12586,E,193538.00,A,A*6F

[1499553339567]$GPRMC,193539.00,A,5356.81556,N,02741.12760,E,0.847,,080717,,,A*7E

[1499553339567]$GPVTG,,T,,M,0.847,N,1.569,K,A*23

[1499553339567]$GPGGA,193539.00,5356.81556,N,02741.12760,E,1,06,1.09,239.7,M,24.8,M,,*5F

[1499553339567]$GPGSA,A,3,01,11,32,17,31,23,,,,,,,2.22,1.09,1.93*06

[1499553339567]$GPGSV,3,1,12,01,73,204,11,03,53,271,06,04,17,129,,11,46,194,09*73

[1499553339567]$GPGSV,3,2,12,12,05,016,,14,49,065,07,17,30,304,09,19,18,324,08*71

[1499553339567]$GPGSV,3,3,12,22,81,263,,23,16,215,08,31,30,107,07,32,30,055,08*76

[1499553339567]$GPGLL,5356.81556,N,02741.12760,E,193539.00,A,A*65

[1499553340569]$GPRMC,193540.00,A,5356.81693,N,02741.12804,E,0.614,,080717,,,A*7F

[1499553340569]$GPVTG,,T,,M,0.614,N,1.137,K,A*24

[1499553340569]$GPGGA,193540.00,5356.81693,N,02741.12804,E,1,05,1.34,240.2,M,24.8,M,,*50

[1499553340569]$GPGSA,A,3,01,14,32,17,23,,,,,,,,2.43,1.34,2.02*03

[1499553340569]$GPGSV,3,1,12,01,73,204,11,03,53,271,06,04,17,129,,11,46,194,09*73

[1499553340569]$GPGSV,3,2,12,12,05,016,,14,49,065,07,17,30,304,09,19,18,324,08*71

[1499553340569]$GPGSV,3,3,12,22,81,263,,23,16,215,08,31,30,107,07,32,30,055,08*76

[1499553340569]$GPGLL,5356.81693,N,02741.12804,E,193540.00,A,A*6C

[1499553341566]$GPRMC,193541.00,A,5356.81863,N,02741.12837,E,1.475,,080717,,,A*7B

[1499553341566]$GPVTG,,T,,M,1.475,N,2.732,K,A*20

[1499553341566]$GPGGA,193541.00,5356.81863,N,02741.12837,E,1,05,1.34,240.7,M,24.8,M,,*55

[1499553341566]$GPGSA,A,3,01,14,32,17,23,,,,,,,,2.43,1.34,2.02*03

[1499553341566]$GPGSV,3,1,12,01,73,204,11,03,53,271,06,04,17,129,,11,46,194,09*73

[1499553341566]$GPGSV,3,2,12,12,05,016,,14,49,065,07,17,30,304,09,19,18,324,08*71

[1499553341566]$GPGSV,3,3,12,22,81,263,,23,16,215,08,31,30,107,07,32,30,055,08*76

[1499553341566]$GPGLL,5356.81863,N,02741.12837,E,193541.00,A,A*6C

[1499553342571]$GPRMC,193542.00,A,5356.82069,N,02741.12874,E,2.512,,080717,,,A*7D

[1499553342571]$GPVTG,,T,,M,2.512,N,4.651,K,A*21

[1499553342571]$GPGGA,193542.00,5356.82069,N,02741.12874,E,1,05,1.34,241.2,M,24.8,M,,*54

[1499553342571]$GPGSA,A,3,01,14,32,17,23,,,,,,,,2.43,1.34,2.02*03

[1499553342571]$GPGSV,3,1,12,01,73,204,11,03,53,271,06,04,17,129,,11,46,194,09*73

[1499553342571]$GPGSV,3,2,12,12,05,016,,14,49,065,07,17,30,304,09,19,18,324,08*71

[1499553342571]$GPGSV,3,3,12,22,81,263,,23,16,215,08,31,30,107,03,32,30,055,08*72

[1499553342571]$GPGLL,5356.82069,N,02741.12874,E,193542.00,A,A*69

[1499553343567]$GPRMC,193543.00,A,5356.82204,N,02741.12828,E,2.778,,080717,,,A*72

[1499553343567]$GPVTG,,T,,M,2.778,N,5.145,K,A*2C

[1499553343567]$GPGGA,193543.00,5356.82204,N,02741.12828,E,1,05,1.34,241.6,M,24.8,M,,*51

[1499553343567]$GPGSA,A,3,01,14,32,17,23,,,,,,,,2.43,1.34,2.02*03

[1499553343567]$GPGSV,3,1,12,01,73,204,11,03,53,271,06,04,17,129,,11,46,194,09*73

[1499553343567]$GPGSV,3,2,12,12,05,016,,14,49,065,07,17,30,304,09,19,18,324,08*71

[1499553343567]$GPGSV,3,3,12,22,81,263,,23,16,215,08,31,30,107,09,32,30,055,08*78

[1499553343567]$GPGLL,5356.82204,N,02741.12828,E,193543.00,A,A*68

[1499553344566]$GPRMC,193544.00,A,5356.82284,N,02741.13037,E,3.093,,080717,,,A*79

[1499553344566]$GPVTG,,T,,M,3.093,N,5.728,K,A*22

[1499553344566]$GPGGA,193544.00,5356.82284,N,02741.13037,E,1,06,1.14,241.8,M,24.8,M,,*56

[1499553344566]$GPGSA,A,3,01,14,32,17,31,23,,,,,,,2.26,1.14,1.95*0D

[1499553344566]$GPGSV,3,1,12,01,73,204,09,03,53,271,08,04,17,129,,11,46,194,08*75

[1499553344566]$GPGSV,3,2,12,12,05,016,,14,49,065,07,17,30,304,08,19,18,324,11*78

[1499553344566]$GPGSV,3,3,12,22,81,263,,23,16,215,09,31,30,107,12,32,30,055,10*7A

[1499553344566]$GPGLL,5356.82284,N,02741.13037,E,193544.00,A,A*60

[1499553345570]$GPRMC,193545.00,A,5356.82430,N,02741.13057,E,3.400,,080717,,,A*79

[1499553345570]$GPVTG,,T,,M,3.400,N,6.297,K,A*2E

[1499553345570]$GPGGA,193545.00,5356.82430,N,02741.13057,E,1,06,1.14,242.1,M,24.8,M,,*52

[1499553345570]$GPGSA,A,3,01,14,32,17,31,23,,,,,,,2.26,1.14,1.95*0D

[1499553345570]$GPGSV,3,1,12,01,73,204,09,03,53,271,08,04,17,129,,11,46,194,08*75

[1499553345570]$GPGSV,3,2,12,12,05,016,,14,49,065,07,17,30,304,08,19,18,324,11*78

[1499553345570]$GPGSV,3,3,12,22,81,263,,23,16,215,09,31,30,107,14,32,30,055,10*7C

[1499553345570]$GPGLL,5356.82430,N,02741.13057,E,193545.00,A,A*6E

[1499553346582]$GPRMC,193546.00,A,5356.82355,N,02741.13264,E,3.192,,080717,,,A*72

[1499553346582]$GPVTG,,T,,M,3.192,N,5.912,K,A*25

[1499553346582]$GPGGA,193546.00,5356.82355,N,02741.13264,E,1,08,0.96,242.6,M,24.8,M,,*55

[1499553346582]$GPGSA,A,3,01,14,03,11,32,31,19,23,,,,,1.86,0.96,1.60*08

[1499553346582]$GPGSV,3,1,12,01,73,204,09,03,53,271,08,04,17,129,,11,46,194,08*75

[1499553346582]$GPGSV,3,2,12,12,05,016,,14,49,065,07,17,30,304,08,19,18,324,11*78

[1499553346582]$GPGSV,3,3,12,22,81,263,,23,16,215,09,31,30,107,14,32,30,055,10*7C

[1499553346582]$GPGLL,5356.82355,N,02741.13264,E,193546.00,A,A*6B

[1499553347586]$GPRMC,193547.00,A,5356.82337,N,02741.13370,E,3.127,,080717,,,A*7D

[1499553347586]$GPVTG,,T,,M,3.127,N,5.792,K,A*2D

[1499553347586]$GPGGA,193547.00,5356.82337,N,02741.13370,E,1,08,0.96,243.2,M,24.8,M,,*51

[1499553347586]$GPGSA,A,3,01,14,03,11,32,31,19,23,,,,,1.86,0.96,1.60*08

[1499553347586]$GPGSV,3,1,12,01,73,204,09,03,53,271,08,04,17,129,,11,46,194,08*75

[1499553347586]$GPGSV,3,2,12,12,05,016,,14,49,065,07,17,30,304,08,19,18,324,11*78

[1499553347586]$GPGSV,3,3,12,22,81,263,,23,16,215,09,31,30,107,14,32,30,055,10*7C

[1499553347586]$GPGLL,5356.82337,N,02741.13370,E,193547.00,A,A*6A

[1499553348567]$GPRMC,193548.00,A,5356.82328,N,02741.13502,E,3.225,,080717,,,A*7E

[1499553348567]$GPVTG,,T,,M,3.225,N,5.973,K,A*2D

[1499553348567]$GPGGA,193548.00,5356.82328,N,02741.13502,E,1,08,0.96,243.9,M,24.8,M,,*58

[1499553348567]$GPGSA,A,3,01,14,03,11,32,31,19,23,,,,,1.86,0.96,1.60*08

[1499553348567]$GPGSV,3,1,12,01,73,204,09,03,53,271,08,04,17,129,,11,46,194,08*75

[1499553348567]$GPGSV,3,2,12,12,05,016,,14,49,065,07,17,30,304,08,19,18,324,11*78

[1499553348567]$GPGSV,3,3,12,22,81,263,,23,16,215,09,31,30,107,14,32,30,055,10*7C

[1499553348567]$GPGLL,5356.82328,N,02741.13502,E,193548.00,A,A*68

[1499553349567]$GPRMC,193549.00,A,5356.82292,N,02741.13505,E,2.759,,080717,,,A*77

[1499553349567]$GPVTG,,T,,M,2.759,N,5.110,K,A*2F

[1499553349567]$GPGGA,193549.00,5356.82292,N,02741.13505,E,1,07,1.00,244.5,M,24.8,M,,*54

[1499553349567]$GPGSA,A,3,01,03,11,32,31,19,23,,,,,,1.94,1.00,1.66*06

[1499553349567]$GPGSV,3,1,12,01,73,204,09,03,53,271,08,04,17,129,,11,46,194,08*75

[1499553349567]$GPGSV,3,2,12,12,05,016,,14,49,065,,17,30,304,08,19,18,324,11*7F

[1499553349567]$GPGSV,3,3,12,22,81,263,,23,16,215,09,31,30,107,12,32,30,055,10*7A

[1499553349567]$GPGLL,5356.82292,N,02741.13505,E,193549.00,A,A*6E

[1499553350566]$GPRMC,193550.00,A,5356.82228,N,02741.13411,E,2.190,,080717,,,A*79

[1499553350566]$GPVTG,,T,,M,2.190,N,4.056,K,A*2E

[1499553350566]$GPGGA,193550.00,5356.82228,N,02741.13411,E,1,07,1.00,245.3,M,24.8,M,,*5E

[1499553350566]$GPGSA,A,3,01,03,11,32,31,19,23,,,,,,1.94,1.00,1.66*06

[1499553350566]$GPGSV,3,1,12,01,73,204,10,03,53,271,11,04,17,129,,11,46,194,11*7D

[1499553350566]$GPGSV,3,2,12,12,05,016,,14,49,065,,17,30,304,10,19,18,324,08*7E

[1499553350566]$GPGSV,3,3,12,22,81,263,,23,16,215,09,31,30,107,10,32,30,055,15*7D

[1499553350566]$GPGLL,5356.82228,N,02741.13411,E,193550.00,A,A*63

[1499553351567]$GPRMC,193551.00,A,5356.82197,N,02741.13315,E,1.805,,080717,,,A*7A

[1499553351567]$GPVTG,,T,,M,1.805,N,3.343,K,A*28

[1499553351567]$GPGGA,193551.00,5356.82197,N,02741.13315,E,1,06,1.08,245.9,M,24.8,M,,*58

[1499553351567]$GPGSA,A,3,01,11,32,31,19,23,,,,,,,2.15,1.08,1.86*09

[1499553351567]$GPGSV,3,1,12,01,73,204,10,03,53,271,05,04,17,129,,11,46,194,11*78

[1499553351567]$GPGSV,3,2,12,12,05,016,,14,49,065,,17,30,304,10,19,18,324,08*7E

[1499553351567]$GPGSV,3,3,12,22,81,263,,23,16,215,09,31,30,107,13,32,29,055,15*76

[1499553351567]$GPGLL,5356.82197,N,02741.13315,E,193551.00,A,A*66

[1499553352567]$GPRMC,193552.00,A,5356.82025,N,02741.13159,E,1.095,,080717,,,A*7A

[1499553352567]$GPVTG,,T,,M,1.095,N,2.028,K,A*26

[1499553352567]$GPGGA,193552.00,5356.82025,N,02741.13159,E,1,07,1.40,246.2,M,24.8,M,,*5C

[1499553352567]$GPGSA,A,3,01,03,11,32,17,31,19,,,,,,3.11,1.40,2.78*06

[1499553352567]$GPGSV,3,1,12,01,73,204,10,03,53,271,11,04,17,129,,11,46,194,11*7D

[1499553352567]$GPGSV,3,2,12,12,05,016,,14,49,065,,17,30,304,10,19,18,324,08*7E

[1499553352567]$GPGSV,3,3,12,22,81,263,,23,16,215,09,31,30,107,15,32,29,055,15*70

[1499553352567]$GPGLL,5356.82025,N,02741.13159,E,193552.00,A,A*67

[1499553353570]$GPRMC,193553.00,A,5356.81850,N,02741.13050,E,0.858,,080717,,,A*72

[1499553353570]$GPVTG,,T,,M,0.858,N,1.590,K,A*2B

[1499553353570]$GPGGA,193553.00,5356.81850,N,02741.13050,E,1,07,1.40,246.6,M,24.8,M,,*58

[1499553353570]$GPGSA,A,3,01,03,11,32,17,31,19,,,,,,3.11,1.40,2.78*06

[1499553353570]$GPGSV,3,1,12,01,73,204,10,03,53,271,16,04,17,129,,11,46,194,11*7A

[1499553353570]$GPGSV,3,2,12,12,05,016,,14,49,065,06,17,30,304,10,19,18,324,08*78

[1499553353570]$GPGSV,3,3,12,22,81,263,,23,16,215,09,31,30,107,14,32,29,055,15*71

[1499553353570]$GPGLL,5356.81850,N,02741.13050,E,193553.00,A,A*67

[1499553354566]$GPRMC,193554.00,A,5356.81700,N,02741.12851,E,0.403,,080717,,,A*75

[1499553354566]$GPVTG,,T,,M,0.403,N,0.746,K,A*21

[1499553354566]$GPGGA,193554.00,5356.81700,N,02741.12851,E,1,07,1.40,246.9,M,24.8,M,,*52

[1499553354566]$GPGSA,A,3,01,03,11,32,17,31,19,,,,,,3.11,1.40,2.78*06

[1499553354566]$GPGSV,3,1,12,01,73,204,10,03,53,271,20,04,17,129,,11,46,194,11*7F

[1499553354566]$GPGSV,3,2,12,12,05,016,,14,49,065,08,17,30,304,10,19,18,324,08*76

[1499553354566]$GPGSV,3,3,12,22,81,263,,23,16,215,09,31,30,107,12,32,29,055,15*77

[1499553354566]$GPGLL,5356.81700,N,02741.12851,E,193554.00,A,A*62

[1499553355566]$GPRMC,193555.00,A,5356.81523,N,02741.12736,E,0.713,,080717,,,A*7B

[1499553355566]$GPVTG,,T,,M,0.713,N,1.320,K,A*26

[1499553355566]$GPGGA,193555.00,5356.81523,N,02741.12736,E,1,07,1.40,247.2,M,24.8,M,,*54

[1499553355566]$GPGSA,A,3,01,03,11,32,17,31,19,,,,,,3.11,1.40,2.78*06

[1499553355566]$GPGSV,3,1,12,01,73,204,10,03,53,271,21,04,17,129,,11,46,194,11*7E

[1499553355566]$GPGSV,3,2,12,12,05,016,,14,49,065,11,17,30,304,10,19,18,324,08*7E

[1499553355566]$GPGSV,3,3,12,22,81,263,07,23,16,215,09,31,30,107,11,32,29,055,15*73

[1499553355566]$GPGLL,5356.81523,N,02741.12736,E,193555.00,A,A*6E

[1499553356568]$GPRMC,193556.00,A,5356.81311,N,02741.12631,E,1.265,,080717,,,A*7C

[1499553356568]$GPVTG,,T,,M,1.265,N,2.342,K,A*24

[1499553356568]$GPGGA,193556.00,5356.81311,N,02741.12631,E,1,06,1.62,247.3,M,24.8,M,,*56

[1499553356568]$GPGSA,A,3,01,03,11,32,17,19,,,,,,,3.57,1.62,3.18*01

[1499553356568]$GPGSV,3,1,12,01,73,204,18,03,53,271,23,04,17,129,,11,46,194,16*73

[1499553356568]$GPGSV,3,2,12,12,05,016,,14,49,065,09,17,30,304,11,19,18,324,12*7D

[1499553356568]$GPGSV,3,3,12,22,81,263,12,23,16,215,13,31,30,107,08,32,29,055,10*71

[1499553356568]$GPGLL,5356.81311,N,02741.12631,E,193556.00,A,A*6C

[1499553357566]$GPRMC,193557.00,A,5356.81148,N,02741.12545,E,1.457,,080717,,,A*74

[1499553357566]$GPVTG,,T,,M,1.457,N,2.698,K,A*21

[1499553357566]$GPGGA,193557.00,5356.81148,N,02741.12545,E,1,06,1.62,247.4,M,24.8,M,,*5E

[1499553357566]$GPGSA,A,3,01,03,11,32,17,19,,,,,,,3.57,1.62,3.18*01

[1499553357566]$GPGSV,3,1,12,01,73,204,18,03,53,271,25,04,17,129,,11,46,194,16*75

[1499553357566]$GPGSV,3,2,12,12,05,016,,14,49,065,08,17,30,304,11,19,18,324,12*7C

[1499553357566]$GPGSV,3,3,12,22,81,263,15,23,16,215,13,31,30,107,08,32,29,055,10*76

[1499553357566]$GPGLL,5356.81148,N,02741.12545,E,193557.00,A,A*63

[1499553358567]$GPRMC,193558.00,A,5356.81019,N,02741.12497,E,1.343,,080717,,,A*72

[1499553358567]$GPVTG,,T,,M,1.343,N,2.487,K,A*2F

[1499553358567]$GPGGA,193558.00,5356.81019,N,02741.12497,E,1,07,1.62,247.4,M,24.8,M,,*5B

[1499553358567]$GPGSA,A,3,01,03,11,32,17,19,23,,,,,,3.57,1.62,3.18*00

[1499553358567]$GPGSV,3,1,12,01,73,204,18,03,53,271,26,04,17,129,,11,46,194,21*72

[1499553358567]$GPGSV,3,2,12,12,05,016,,14,49,065,08,17,30,304,11,19,18,324,12*7C

[1499553358567]$GPGSV,3,3,12,22,81,263,16,23,16,215,13,31,30,107,08,32,29,055,10*75

[1499553358567]$GPGLL,5356.81019,N,02741.12497,E,193558.00,A,A*67

[1499553359576]$GPRMC,193559.00,A,5356.80991,N,02741.12578,E,1.698,,080717,,,A*78

[1499553359576]$GPVTG,,T,,M,1.698,N,3.144,K,A*27

[1499553359576]$GPGGA,193559.00,5356.80991,N,02741.12578,E,1,08,1.09,248.1,M,24.8,M,,*5A

[1499553359576]$GPGSA,A,3,22,01,03,11,32,17,19,23,,,,,1.81,1.09,1.45*0E

[1499553359576]$GPGSV,3,1,12,01,73,204,18,03,53,271,26,04,17,129,,11,46,194,24*77

[1499553359576]$GPGSV,3,2,12,12,05,016,,14,49,065,08,17,30,304,11,19,18,324,12*7C

[1499553359576]$GPGSV,3,3,12,22,81,263,14,23,16,215,13,31,30,107,08,32,29,055,10*77

[1499553359576]$GPGLL,5356.80991,N,02741.12578,E,193559.00,A,A*6E

[1499553360566]$GPRMC,193600.00,A,5356.80971,N,02741.12646,E,1.849,,080717,,,A*75

[1499553360566]$GPVTG,,T,,M,1.849,N,3.424,K,A*26

[1499553360566]$GPGGA,193600.00,5356.80971,N,02741.12646,E,1,08,1.09,248.9,M,24.8,M,,*5D

[1499553360566]$GPGSA,A,3,22,01,03,11,32,17,19,23,,,,,1.81,1.09,1.45*0E

[1499553360566]$GPGSV,3,1,12,01,73,204,18,03,53,271,26,04,17,129,,11,46,194,24*77

[1499553360566]$GPGSV,3,2,12,12,05,016,,14,49,065,08,17,30,304,11,19,18,324,12*7C

[1499553360566]$GPGSV,3,3,12,22,81,263,15,23,16,215,13,31,30,107,08,32,29,055,10*76

[1499553360566]$GPGLL,5356.80971,N,02741.12646,E,193600.00,A,A*61

[1499553361577]$GPRMC,193601.00,A,5356.80825,N,02741.12590,E,1.861,,080717,,,A*76

[1499553361577]$GPVTG,,T,,M,1.861,N,3.447,K,A*29

[1499553361577]$GPGGA,193601.00,5356.80825,N,02741.12590,E,1,08,1.47,248.9,M,24.8,M,,*5E

[1499553361577]$GPGSA,A,3,22,01,03,11,32,17,19,23,,,,,2.79,1.47,2.37*06

[1499553361577]$GPGSV,3,1,12,01,73,204,18,03,53,271,26,04,17,129,,11,46,194,23*70

[1499553361577]$GPGSV,3,2,12,12,05,016,,14,49,065,,17,30,304,11,19,18,324,12*74

[1499553361577]$GPGSV,3,3,12,22,81,263,15,23,16,215,13,31,30,107,08,32,29,055,10*76

[1499553361577]$GPGLL,5356.80825,N,02741.12590,E,193601.00,A,A*68

[1499553362566]$GPRMC,193602.00,A,5356.80800,N,02741.12601,E,1.626,,080717,,,A*74

[1499553362566]$GPVTG,,T,,M,1.626,N,3.011,K,A*23

[1499553362566]$GPGGA,193602.00,5356.80800,N,02741.12601,E,1,09,0.92,249.8,M,24.8,M,,*59

[1499553362566]$GPGSA,A,3,22,01,03,11,32,17,31,19,23,,,,1.67,0.92,1.39*0C

[1499553362566]$GPGSV,3,1,12,01,73,204,08,03,53,271,27,04,17,129,,11,46,194,23*70

[1499553362566]$GPGSV,3,2,12,12,05,016,,14,49,065,,17,30,304,16,19,18,324,13*72

[1499553362566]$GPGSV,3,3,12,22,81,263,14,23,16,215,12,31,30,107,10,32,29,055,09*77

[1499553362566]$GPGLL,5356.80800,N,02741.12601,E,193602.00,A,A*67

[1499553363576]$GPRMC,193603.00,A,5356.80749,N,02741.12691,E,1.984,,080717,,,A*79

[1499553363576]$GPVTG,,T,,M,1.984,N,3.675,K,A*20

[1499553363576]$GPGGA,193603.00,5356.80749,N,02741.12691,E,1,09,0.92,250.8,M,24.8,M,,*5B

[1499553363576]$GPGSA,A,3,22,01,03,11,32,17,31,19,23,,,,1.67,0.92,1.39*0C

[1499553363576]$GPGSV,3,1,12,01,73,204,08,03,53,271,26,04,17,129,,11,46,194,22*70

[1499553363576]$GPGSV,3,2,12,12,05,016,,14,49,065,,17,30,304,16,19,18,324,13*72

[1499553363576]$GPGSV,3,3,12,22,81,263,13,23,16,215,12,31,30,107,10,32,29,055,09*70

[1499553363576]$GPGLL,5356.80749,N,02741.12691,E,193603.00,A,A*6D

[1499553364567]$GPRMC,193604.00,A,5356.80729,N,02741.12773,E,2.039,,080717,,,A*79

[1499553364567]$GPVTG,,T,,M,2.039,N,3.776,K,A*2E

[1499553364567]$GPGGA,193604.00,5356.80729,N,02741.12773,E,1,08,0.92,252.0,M,24.8,M,,*5C

[1499553364567]$GPGSA,A,3,22,03,11,32,17,31,19,23,,,,,1.83,0.92,1.58*00

[1499553364567]$GPGSV,3,1,12,01,73,203,08,03,53,271,26,04,17,129,,11,46,194,22*77

[1499553364567]$GPGSV,3,2,12,12,05,016,,14,49,065,,17,30,304,16,19,18,324,13*72

[1499553364567]$GPGSV,3,3,12,22,81,263,15,23,16,215,12,31,30,107,10,32,29,055,09*76

[1499553364567]$GPGLL,5356.80729,N,02741.12773,E,193604.00,A,A*61

[1499553365582]$GPRMC,193605.00,A,5356.80594,N,02741.12711,E,1.729,,080717,,,A*7D

[1499553365582]$GPVTG,,T,,M,1.729,N,3.202,K,A*2D

[1499553365582]$GPGGA,193605.00,5356.80594,N,02741.12711,E,1,08,1.29,251.9,M,24.8,M,,*56

[1499553365582]$GPGSA,A,3,22,03,11,32,17,31,19,23,,,,,2.64,1.29,2.30*06

[1499553365582]$GPGSV,3,1,12,01,73,203,08,03,53,271,25,04,17,129,,11,46,194,23*75

[1499553365582]$GPGSV,3,2,12,12,05,016,,14,49,065,,17,30,304,16,19,18,324,13*72

[1499553365582]$GPGSV,3,3,12,22,81,263,16,23,16,215,12,31,30,107,10,32,29,055,09*75

[1499553365582]$GPGLL,5356.80594,N,02741.12711,E,193605.00,A,A*60

[1499553366567]$GPRMC,193606.00,A,5356.80588,N,02741.12750,E,1.412,,080717,,,A*7D

[1499553366567]$GPVTG,,T,,M,1.412,N,2.614,K,A*24

[1499553366567]$GPGGA,193606.00,5356.80588,N,02741.12750,E,1,08,0.92,252.6,M,24.8,M,,*50

[1499553366567]$GPGSA,A,3,22,03,11,32,17,31,19,23,,,,,1.83,0.92,1.58*00

[1499553366567]$GPGSV,3,1,12,01,73,203,08,03,53,271,24,04,17,129,,11,46,194,25*72

[1499553366567]$GPGSV,3,2,12,12,05,016,,14,49,065,14,17,30,304,16,19,18,324,13*77

[1499553366567]$GPGSV,3,3,12,22,81,263,17,23,16,215,12,31,30,107,10,32,29,055,09*74

[1499553366567]$GPGLL,5356.80588,N,02741.12750,E,193606.00,A,A*6B

[1499553367570]$GPRMC,193607.00,A,5356.80581,N,02741.12764,E,1.215,,080717,,,A*73

[1499553367570]$GPVTG,,T,,M,1.215,N,2.250,K,A*21

[1499553367570]$GPGGA,193607.00,5356.80581,N,02741.12764,E,1,08,0.92,253.5,M,24.8,M,,*5D

[1499553367570]$GPGSA,A,3,22,03,11,32,17,31,19,23,,,,,1.83,0.92,1.58*00

[1499553367570]$GPGSV,3,1,12,01,73,203,08,03,53,271,25,04,17,128,,11,46,194,25*72

[1499553367570]$GPGSV,3,2,12,12,05,016,,14,49,065,15,17,30,304,16,19,18,324,13*76

[1499553367570]$GPGSV,3,3,12,22,81,263,16,23,16,215,12,31,30,107,10,32,29,055,09*75

[1499553367570]$GPGLL,5356.80581,N,02741.12764,E,193607.00,A,A*64

[1499553368567]$GPRMC,193608.00,A,5356.80561,N,02741.12751,E,1.091,,080717,,,A*7A

[1499553368567]$GPVTG,,T,,M,1.091,N,2.020,K,A*2A

[1499553368567]$GPGGA,193608.00,5356.80561,N,02741.12751,E,1,08,0.92,254.3,M,24.8,M,,*5B

[1499553368567]$GPGSA,A,3,22,03,11,32,17,31,19,23,,,,,1.83,0.92,1.58*00

[1499553368567]$GPGSV,3,1,12,01,73,203,08,03,53,271,24,04,17,128,,11,46,194,20*76

[1499553368567]$GPGSV,3,2,12,12,05,016,,14,49,065,16,17,30,304,17,19,18,324,14*73

[1499553368567]$GPGSV,3,3,12,22,81,263,14,23,16,215,08,31,30,107,10,32,29,055,12*76

[1499553368567]$GPGLL,5356.80561,N,02741.12751,E,193608.00,A,A*63

[1499553369577]$GPRMC,193609.00,A,5356.80552,N,02741.12715,E,0.905,,080717,,,A*7E

[1499553369577]$GPVTG,,T,,M,0.905,N,1.677,K,A*28

[1499553369577]$GPGGA,193609.00,5356.80552,N,02741.12715,E,1,08,0.92,255.2,M,24.8,M,,*5A

[1499553369577]$GPGSA,A,3,22,03,11,32,17,31,19,23,,,,,1.83,0.92,1.58*00

[1499553369577]$GPGSV,3,1,12,01,73,203,06,03,53,271,22,04,17,128,,11,46,194,16*7B

[1499553369577]$GPGSV,3,2,12,12,05,016,,14,49,065,17,17,30,304,17,19,18,324,14*72

[1499553369577]$GPGSV,3,3,12,22,81,263,11,23,16,215,08,31,30,107,10,32,29,055,12*73

[1499553369577]$GPGLL,5356.80552,N,02741.12715,E,193609.00,A,A*62

[1499553370576]$GPRMC,193610.00,A,5356.80458,N,02741.12485,E,1.244,,080717,,,A*78

[1499553370576]$GPVTG,,T,,M,1.244,N,2.304,K,A*25

[1499553370576]$GPGGA,193610.00,5356.80458,N,02741.12485,E,1,10,0.88,256.0,M,24.8,M,,*50

[1499553370576]$GPGSA,A,3,22,01,14,03,11,32,17,31,19,23,,,1.62,0.88,1.37*09

[1499553370576]$GPGSV,3,1,12,01,73,203,15,03,53,271,21,04,17,128,,11,46,194,16*7A

[1499553370576]$GPGSV,3,2,12,12,05,016,,14,49,065,17,17,30,304,17,19,18,324,14*72

[1499553370576]$GPGSV,3,3,12,22,81,263,12,23,16,215,08,31,30,107,10,32,29,055,12*70

[1499553370576]$GPGLL,5356.80458,N,02741.12485,E,193610.00,A,A*6B

[1499553371576]$GPRMC,193611.00,A,5356.80362,N,02741.12322,E,1.701,,080717,,,A*79

[1499553371576]$GPVTG,,T,,M,1.701,N,3.150,K,A*23

[1499553371576]$GPGGA,193611.00,5356.80362,N,02741.12322,E,1,10,0.88,256.8,M,24.8,M,,*5D

[1499553371576]$GPGSA,A,3,22,01,14,03,11,32,17,31,19,23,,,1.62,0.88,1.37*09

[1499553371576]$GPGSV,3,1,12,01,73,203,20,03,53,271,21,04,17,128,,11,46,194,19*73

[1499553371576]$GPGSV,3,2,12,12,05,016,,14,49,065,16,17,30,304,17,19,18,324,14*73

[1499553371576]$GPGSV,3,3,12,22,81,263,14,23,16,215,08,31,30,107,10,32,29,055,12*76

[1499553371576]$GPGLL,5356.80362,N,02741.12322,E,193611.00,A,A*6E

[1499553372566]$GPRMC,193612.00,A,5356.80307,N,02741.12191,E,1.537,,080717,,,A*74

[1499553372566]$GPVTG,,T,,M,1.537,N,2.847,K,A*2A

[1499553372566]$GPGGA,193612.00,5356.80307,N,02741.12191,E,1,10,0.88,257.8,M,24.8,M,,*56

[1499553372566]$GPGSA,A,3,22,01,14,03,11,32,17,31,19,23,,,1.62,0.88,1.37*09

[1499553372566]$GPGSV,3,1,12,01,73,203,20,03,53,271,21,04,17,128,,11,46,194,20*79

[1499553372566]$GPGSV,3,2,12,12,05,016,,14,49,065,15,17,30,304,17,19,18,324,14*70

[1499553372566]$GPGSV,3,3,12,22,81,263,15,23,16,215,08,31,30,107,10,32,29,055,12*77

[1499553372566]$GPGLL,5356.80307,N,02741.12191,E,193612.00,A,A*64

[1499553373581]$GPRMC,193613.00,A,5356.80257,N,02741.12048,E,1.540,,080717,,,A*74

[1499553373581]$GPVTG,,T,,M,1.540,N,2.851,K,A*2D

[1499553373581]$GPGGA,193613.00,5356.80257,N,02741.12048,E,1,09,0.95,258.7,M,24.8,M,,*52

[1499553373581]$GPGSA,A,3,22,01,14,03,11,32,31,19,23,,,,1.67,0.95,1.38*09

[1499553373581]$GPGSV,3,1,12,01,73,203,20,03,53,271,21,04,17,128,,11,46,194,20*79

[1499553373581]$GPGSV,3,2,12,12,05,016,,14,49,065,14,17,30,304,,19,18,324,14*77

[1499553373581]$GPGSV,3,3,12,22,81,263,15,23,16,215,08,31,30,107,10,32,29,055,12*77

[1499553373581]$GPGLL,5356.80257,N,02741.12048,E,193613.00,A,A*64

[1499553374567]$GPRMC,193614.00,A,5356.80241,N,02741.11923,E,1.389,,080717,,,A*70

[1499553374567]$GPVTG,,T,,M,1.389,N,2.573,K,A*23

[1499553374567]$GPGGA,193614.00,5356.80241,N,02741.11923,E,1,09,0.95,259.9,M,24.8,M,,*5A

[1499553374567]$GPGSA,A,3,22,01,14,03,11,32,31,19,23,,,,1.67,0.95,1.38*09

[1499553374567]$GPGSV,3,1,12,01,73,203,21,03,53,271,20,04,17,128,,11,46,194,20*79

[1499553374567]$GPGSV,3,2,12,12,05,016,,14,49,065,15,17,30,304,,19,18,324,15*77

[1499553374567]$GPGSV,3,3,12,22,81,263,15,23,16,215,11,31,30,107,11,32,29,055,12*7E

[1499553374567]$GPGLL,5356.80241,N,02741.11923,E,193614.00,A,A*63

[1499553375577]$GPRMC,193615.00,A,5356.80216,N,02741.11832,E,1.290,,080717,,,A*7B

[1499553375577]$GPVTG,,T,,M,1.290,N,2.389,K,A*29

[1499553375577]$GPGGA,193615.00,5356.80216,N,02741.11832,E,1,09,0.95,260.9,M,24.8,M,,*52

[1499553375577]$GPGSA,A,3,22,01,14,03,11,32,31,19,23,,,,1.67,0.95,1.38*09

[1499553375577]$GPGSV,3,1,12,01,73,203,21,03,53,271,20,04,17,128,,11,46,194,19*73

[1499553375577]$GPGSV,3,2,12,12,05,015,,14,49,065,14,17,30,304,03,19,18,324,15*76

[1499553375577]$GPGSV,3,3,12,22,81,263,13,23,16,215,11,31,30,107,11,32,29,055,12*78

[1499553375577]$GPGLL,5356.80216,N,02741.11832,E,193615.00,A,A*61

[1499553376569]$GPRMC,193616.00,A,5356.80260,N,02741.11792,E,0.836,,080717,,,A*7B

[1499553376569]$GPVTG,,T,,M,0.836,N,1.549,K,A*27

[1499553376569]$GPGGA,193616.00,5356.80260,N,02741.11792,E,1,09,1.01,262.1,M,24.8,M,,*53

[1499553376569]$GPGSA,A,3,22,01,14,03,11,32,31,19,23,,,,1.71,1.01,1.38*02

[1499553376569]$GPGSV,3,1,12,01,73,203,20,03,53,271,18,04,17,128,,11,46,194,17*77

[1499553376569]$GPGSV,3,2,12,12,05,015,,14,49,065,13,17,30,304,06,19,18,324,15*74

[1499553376569]$GPGSV,3,3,12,22,81,263,10,23,16,215,11,31,30,107,11,32,29,055,12*7B

[1499553376569]$GPGLL,5356.80260,N,02741.11792,E,193616.00,A,A*66

[1499553377577]$GPRMC,193617.00,A,5356.80314,N,02741.11734,E,0.637,,080717,,,A*7B

[1499553377577]$GPVTG,,T,,M,0.637,N,1.180,K,A*29

[1499553377577]$GPGGA,193617.00,5356.80314,N,02741.11734,E,1,09,1.01,263.3,M,24.8,M,,*5F

[1499553377577]$GPGSA,A,3,22,01,14,03,11,32,31,19,23,,,,1.71,1.01,1.38*02

[1499553377577]$GPGSV,3,1,12,01,73,203,19,03,53,271,19,04,17,128,,11,46,194,15*7E

[1499553377577]$GPGSV,3,2,12,12,05,015,,14,48,065,10,17,30,304,07,19,18,324,15*77

[1499553377577]$GPGSV,3,3,12,22,81,263,13,23,16,215,11,31,30,107,11,32,29,055,12*78

[1499553377577]$GPGLL,5356.80314,N,02741.11734,E,193617.00,A,A*69

[1499553378566]$GPRMC,193618.00,A,5356.80306,N,02741.11647,E,0.857,,080717,,,A*7A

[1499553378566]$GPVTG,,T,,M,0.857,N,1.587,K,A*22

[1499553378566]$GPGGA,193618.00,5356.80306,N,02741.11647,E,1,09,0.95,264.3,M,24.8,M,,*5D

[1499553378566]$GPGSA,A,3,22,01,14,03,11,32,31,19,23,,,,1.67,0.95,1.38*09

[1499553378566]$GPGSV,3,1,12,01,73,203,20,03,53,271,18,04,17,128,,11,46,194,19*79

[1499553378566]$GPGSV,3,2,12,12,05,015,,14,48,065,10,17,30,304,07,19,18,324,15*77

[1499553378566]$GPGSV,3,3,12,22,81,263,14,23,16,215,11,31,30,107,11,32,29,055,12*7F

[1499553378566]$GPGLL,5356.80306,N,02741.11647,E,193618.00,A,A*60

[1499553379577]$GPRMC,193619.00,A,5356.80318,N,02741.11536,E,1.029,,080717,,,A*71

[1499553379577]$GPVTG,,T,,M,1.029,N,1.905,K,A*24

[1499553379577]$GPGGA,193619.00,5356.80318,N,02741.11536,E,1,09,0.95,265.4,M,24.8,M,,*50

[1499553379577]$GPGSA,A,3,22,01,14,03,11,32,31,19,23,,,,1.67,0.95,1.38*09

[1499553379577]$GPGSV,3,1,12,01,73,203,19,03,53,271,17,04,17,128,,11,46,194,19*7C

[1499553379577]$GPGSV,3,2,12,12,05,015,,14,48,065,12,17,30,304,07,19,18,324,15*75

[1499553379577]$GPGSV,3,3,12,22,81,263,14,23,16,215,11,31,30,107,11,32,29,055,12*7F

[1499553379577]$GPGLL,5356.80318,N,02741.11536,E,193619.00,A,A*6B

[1499553380580]$GPRMC,193620.00,A,5356.80308,N,02741.11508,E,1.067,,080717,,,A*7D

[1499553380580]$GPVTG,,T,,M,1.067,N,1.975,K,A*29

[1499553380580]$GPGGA,193620.00,5356.80308,N,02741.11508,E,1,10,0.88,266.3,M,24.8,M,,*56

[1499553380580]$GPGSA,A,3,22,01,14,03,11,32,17,31,19,23,,,1.63,0.88,1.37*08

[1499553380580]$GPGSV,3,1,12,01,73,203,18,03,53,271,15,04,17,128,,11,46,194,17*71

[1499553380580]$GPGSV,3,2,12,12,05,015,,14,48,065,13,17,30,304,14,19,18,324,17*74

[1499553380580]$GPGSV,3,3,12,22,81,263,14,23,16,215,10,31,30,107,11,32,29,055,10*7C

[1499553380580]$GPGLL,5356.80308,N,02741.11508,E,193620.00,A,A*6D

[1499553381577]$GPRMC,193621.00,A,5356.80293,N,02741.11420,E,1.496,,080717,,,A*7E

[1499553381577]$GPVTG,,T,,M,1.496,N,2.770,K,A*2B

[1499553381577]$GPGGA,193621.00,5356.80293,N,02741.11420,E,1,10,0.88,267.1,M,24.8,M,,*5C

[1499553381577]$GPGSA,A,3,22,01,14,03,11,32,17,31,19,23,,,1.63,0.88,1.37*08

[1499553381577]$GPGSV,3,1,12,01,73,203,18,03,53,271,11,04,17,128,,11,46,194,15*77

[1499553381577]$GPGSV,3,2,12,12,05,015,,14,48,065,13,17,30,304,14,19,18,324,17*74

[1499553381577]$GPGSV,3,3,12,22,81,263,13,23,16,215,10,31,30,107,11,32,29,055,10*7B

[1499553381577]$GPGLL,5356.80293,N,02741.11420,E,193621.00,A,A*64

[1499553382576]$GPRMC,193622.00,A,5356.80214,N,02741.11381,E,1.429,,080717,,,A*7A

[1499553382576]$GPVTG,,T,,M,1.429,N,2.647,K,A*2A

[1499553382576]$GPGGA,193622.00,5356.80214,N,02741.11381,E,1,10,0.88,267.9,M,24.8,M,,*54

[1499553382576]$GPGSA,A,3,22,01,14,03,11,32,17,31,19,23,,,1.63,0.88,1.37*08

[1499553382576]$GPGSV,3,1,12,01,73,203,19,03,53,271,16,04,17,128,,11,46,194,15*71

[1499553382576]$GPGSV,3,2,12,12,05,015,,14,48,065,12,17,30,304,14,19,18,324,17*75

[1499553382576]$GPGSV,3,3,12,22,81,263,11,23,16,215,10,31,30,107,11,32,29,055,10*79

[1499553382576]$GPGLL,5356.80214,N,02741.11381,E,193622.00,A,A*64

[1499553383587]$GPRMC,193623.00,A,5356.80225,N,02741.11334,E,1.386,,080717,,,A*75

[1499553383587]$GPVTG,,T,,M,1.386,N,2.567,K,A*29

[1499553383587]$GPGGA,193623.00,5356.80225,N,02741.11334,E,1,09,0.88,269.2,M,24.8,M,,*54

[1499553383587]$GPGSA,A,3,01,14,03,11,32,17,31,19,23,,,,1.83,0.88,1.61*05

[1499553383587]$GPGSV,3,1,12,01,73,203,21,03,53,271,20,04,17,128,,11,46,194,16*7C

[1499553383587]$GPGSV,3,2,12,12,05,015,,14,48,065,11,17,30,304,14,19,18,324,17*76

[1499553383587]$GPGSV,3,3,12,22,81,263,08,23,16,215,10,31,30,107,11,32,29,055,10*71

[1499553383587]$GPGLL,5356.80225,N,02741.11334,E,193623.00,A,A*69

[1499553384567]$GPRMC,193624.00,A,5356.80255,N,02741.11289,E,1.510,,080717,,,A*7B

[1499553384567]$GPVTG,,T,,M,1.510,N,2.797,K,A*2D

[1499553384567]$GPGGA,193624.00,5356.80255,N,02741.11289,E,1,09,0.88,270.3,M,24.8,M,,*5A

[1499553384567]$GPGSA,A,3,01,14,03,11,32,17,31,19,23,,,,1.83,0.88,1.61*05

[1499553384567]$GPGSV,3,1,12,01,73,203,22,03,53,271,22,04,17,128,04,11,46,194,18*77

[1499553384567]$GPGSV,3,2,12,12,05,015,,14,48,065,10,17,30,304,14,19,18,324,17*77

[1499553384567]$GPGSV,3,3,12,22,81,263,08,23,16,215,10,31,30,107,11,32,29,055,10*71

[1499553384567]$GPGLL,5356.80255,N,02741.11289,E,193624.00,A,A*6E

[1499553385566]$GPRMC,193625.00,A,5356.80308,N,02741.11305,E,1.635,,080717,,,A*72

[1499553385566]$GPVTG,,T,,M,1.635,N,3.027,K,A*24

[1499553385566]$GPGGA,193625.00,5356.80308,N,02741.11305,E,1,08,0.93,271.4,M,24.8,M,,*5A

[1499553385566]$GPGSA,A,3,01,03,11,32,17,31,19,23,,,,,1.91,0.93,1.67*0F

[1499553385566]$GPGSV,3,1,12,01,73,203,22,03,53,271,23,04,17,128,07,11,46,194,17*7A

[1499553385566]$GPGSV,3,2,12,12,05,015,,14,48,065,09,17,30,304,14,19,18,324,17*7F

[1499553385566]$GPGSV,3,3,12,22,82,263,08,23,16,215,10,31,30,107,11,32,29,055,10*72

[1499553385566]$GPGLL,5356.80308,N,02741.11305,E,193625.00,A,A*63

[1499553386577]$GPRMC,193626.00,A,5356.80395,N,02741.11332,E,2.031,,080717,,,A*70

[1499553386577]$GPVTG,,T,,M,2.031,N,3.762,K,A*23

[1499553386577]$GPGGA,193626.00,5356.80395,N,02741.11332,E,1,09,0.92,272.0,M,24.8,M,,*5E

[1499553386577]$GPGSA,A,3,22,01,03,11,32,17,31,19,23,,,,1.67,0.92,1.39*0C

[1499553386577]$GPGSV,3,1,12,01,73,203,21,03,53,271,22,04,17,128,07,11,46,194,16*79

[1499553386577]$GPGSV,3,2,12,12,05,015,,14,48,065,08,17,30,304,15,19,18,324,11*79

[1499553386577]$GPGSV,3,3,12,22,82,263,08,23,17,215,10,31,30,107,10,32,29,055,10*72

[1499553386577]$GPGLL,5356.80395,N,02741.11332,E,193626.00,A,A*60

[1499553387576]$GPRMC,193627.00,A,5356.80522,N,02741.11360,E,2.627,,080717,,,A*7D

[1499553387576]$GPVTG,,T,,M,2.627,N,4.864,K,A*2C

[1499553387576]$GPGGA,193627.00,5356.80522,N,02741.11360,E,1,09,0.92,272.5,M,24.8,M,,*57

[1499553387576]$GPGSA,A,3,22,01,03,11,32,17,31,19,23,,,,1.67,0.92,1.39*0C

[1499553387576]$GPGSV,3,1,12,01,73,203,21,03,53,271,22,04,17,128,07,11,46,194,13*7C

[1499553387576]$GPGSV,3,2,12,12,05,015,,14,48,065,08,17,30,304,15,19,18,324,11*79

[1499553387576]$GPGSV,3,3,12,22,82,263,08,23,17,215,10,31,30,107,10,32,29,055,10*72

[1499553387576]$GPGLL,5356.80522,N,02741.11360,E,193627.00,A,A*6C

[1499553388580]$GPRMC,193628.00,A,5356.80626,N,02741.11443,E,2.673,,080717,,,A*72

[1499553388580]$GPVTG,,T,,M,2.673,N,4.950,K,A*2B

[1499553388580]$GPGGA,193628.00,5356.80626,N,02741.11443,E,1,08,0.93,273.8,M,24.8,M,,*55

[1499553388580]$GPGSA,A,3,01,03,11,32,17,31,19,23,,,,,1.91,0.93,1.67*0F

[1499553388580]$GPGSV,3,1,12,01,73,203,19,03,53,271,20,04,17,128,07,11,46,194,13*75

[1499553388580]$GPGSV,3,2,12,12,05,015,,14,48,065,08,17,30,304,15,19,18,324,11*79

[1499553388580]$GPGSV,3,3,12,22,82,263,08,23,17,215,10,31,30,107,10,32,29,055,10*72

[1499553388580]$GPGLL,5356.80626,N,02741.11443,E,193628.00,A,A*62

[1499553389581]$GPRMC,193629.00,A,5356.80678,N,02741.11495,E,2.230,,080717,,,A*70

[1499553389581]$GPVTG,,T,,M,2.230,N,4.130,K,A*26

[1499553389581]$GPGGA,193629.00,5356.80678,N,02741.11495,E,1,08,0.93,275.1,M,24.8,M,,*5B

[1499553389581]$GPGSA,A,3,01,03,11,32,17,31,19,23,,,,,1.91,0.93,1.67*0F

[1499553389581]$GPGSV,3,1,12,01,73,203,19,03,53,271,20,04,17,128,07,11,46,194,13*75

[1499553389581]$GPGSV,3,2,12,12,05,015,,14,48,065,08,17,30,304,15,19,18,324,11*79

[1499553389581]$GPGSV,3,3,12,22,82,263,08,23,17,215,10,31,30,107,10,32,29,055,10*72

[1499553389581]$GPGLL,5356.80678,N,02741.11495,E,193629.00,A,A*63

[1499553390566]$GPRMC,193630.00,A,5356.80737,N,02741.11531,E,2.133,,080717,,,A*7D

[1499553390566]$GPVTG,,T,,M,2.133,N,3.950,K,A*2F

[1499553390566]$GPGGA,193630.00,5356.80737,N,02741.11531,E,1,08,0.93,276.4,M,24.8,M,,*50

[1499553390566]$GPGSA,A,3,01,03,11,32,17,31,19,23,,,,,1.91,0.93,1.67*0F

[1499553390566]$GPGSV,3,1,12,01,73,203,18,03,53,271,21,04,17,128,07,11,46,194,15*73

[1499553390566]$GPGSV,3,2,12,12,05,015,,14,48,065,08,17,30,304,15,19,18,324,11*79

[1499553390566]$GPGSV,3,3,12,22,82,263,08,23,17,215,10,31,30,107,10,32,29,055,10*72

[1499553390566]$GPGLL,5356.80737,N,02741.11531,E,193630.00,A,A*6E

[1499553391587]$GPRMC,193631.00,A,5356.80794,N,02741.11503,E,2.180,,080717,,,A*7C

[1499553391587]$GPVTG,,T,,M,2.180,N,4.038,K,A*27

[1499553391587]$GPGGA,193631.00,5356.80794,N,02741.11503,E,1,08,0.93,277.8,M,24.8,M,,*54

[1499553391587]$GPGSA,A,3,01,03,11,32,17,31,19,23,,,,,1.91,0.93,1.67*0F

[1499553391587]$GPGSV,3,1,12,01,73,203,15,03,53,271,20,04,17,128,07,11,46,194,17*7D

[1499553391587]$GPGSV,3,2,12,12,05,015,,14,48,065,08,17,30,304,15,19,18,324,11*79

[1499553391587]$GPGSV,3,3,12,22,82,263,,23,17,215,10,31,30,107,10,32,29,055,10*7A

[1499553391587]$GPGLL,5356.80794,N,02741.11503,E,193631.00,A,A*67

[1499553392566]$GPRMC,193632.00,A,5356.80826,N,02741.11528,E,2.032,,080717,,,A*78

[1499553392566]$GPVTG,,T,,M,2.032,N,3.762,K,A*20

[1499553392566]$GPGGA,193632.00,5356.80826,N,02741.11528,E,1,08,0.93,279.1,M,24.8,M,,*5F

[1499553392566]$GPGSA,A,3,01,03,11,32,17,31,19,23,,,,,1.91,0.93,1.67*0F

[1499553392566]$GPGSV,3,1,12,01,73,203,16,03,53,271,18,04,17,128,09,11,46,194,19*75

[1499553392566]$GPGSV,3,2,12,12,05,015,,14,48,065,06,17,30,304,15,19,18,324,11*77

[1499553392566]$GPGSV,3,3,12,22,82,263,,23,17,215,08,31,30,107,13,32,29,055,14*74

[1499553392566]$GPGLL,5356.80826,N,02741.11528,E,193632.00,A,A*6B

[1499553393566]$GPRMC,193633.00,A,5356.80860,N,02741.11559,E,1.889,,080717,,,A*76

[1499553393566]$GPVTG,,T,,M,1.889,N,3.498,K,A*2D

[1499553393566]$GPGGA,193633.00,5356.80860,N,02741.11559,E,1,08,0.93,280.3,M,24.8,M,,*5E

[1499553393566]$GPGSA,A,3,01,03,11,32,17,31,19,23,,,,,1.91,0.93,1.67*0F

[1499553393566]$GPGSV,3,1,12,01,73,203,14,03,53,271,15,04,17,128,09,11,46,194,20*70

[1499553393566]$GPGSV,3,2,12,12,05,015,,14,48,065,06,17,30,304,15,19,18,324,11*77

[1499553393566]$GPGSV,3,3,12,22,82,263,,23,17,215,08,31,30,107,13,32,29,055,14*74

[1499553393566]$GPGLL,5356.80860,N,02741.11559,E,193633.00,A,A*6E

[1499553394566]$GPRMC,193634.00,A,5356.80745,N,02741.11560,E,0.928,,080717,,,A*78

[1499553394566]$GPVTG,,T,,M,0.928,N,1.719,K,A*2E

[1499553394566]$GPGGA,193634.00,5356.80745,N,02741.11560,E,1,07,1.40,280.6,M,24.8,M,,*5E

[1499553394566]$GPGSA,A,3,01,03,11,32,17,31,19,,,,,,3.12,1.40,2.79*04

[1499553394566]$GPGSV,3,1,12,01,73,203,12,03,53,271,14,04,17,128,09,11,46,194,21*76

[1499553394566]$GPGSV,3,2,12,12,05,015,,14,48,065,06,17,30,304,15,19,18,324,11*77

[1499553394566]$GPGSV,3,3,12,22,82,263,,23,17,215,08,31,30,107,13,32,29,055,14*74

[1499553394566]$GPGLL,5356.80745,N,02741.11560,E,193634.00,A,A*6B

[1499553395567]$GPRMC,193635.00,A,5356.80644,N,02741.11562,E,0.378,,080717,,,A*74

[1499553395567]$GPVTG,,T,,M,0.378,N,0.700,K,A*28

[1499553395567]$GPGGA,193635.00,5356.80644,N,02741.11562,E,1,07,1.40,280.9,M,24.8,M,,*52

[1499553395567]$GPGSA,A,3,01,03,11,32,17,31,19,,,,,,3.12,1.40,2.79*04

[1499553395567]$GPGSV,3,1,12,01,73,203,11,03,53,271,11,04,17,128,09,11,46,194,21*70

[1499553395567]$GPGSV,3,2,12,12,05,015,,14,48,065,06,17,30,304,15,19,18,324,11*77

[1499553395567]$GPGSV,3,3,12,22,82,263,,23,17,215,08,31,30,107,13,32,29,055,14*74

[1499553395567]$GPGLL,5356.80644,N,02741.11562,E,193635.00,A,A*68

[1499553396566]$GPRMC,193636.00,A,5356.80551,N,02741.11582,E,0.358,,080717,,,A*7C

[1499553396566]$GPVTG,,T,,M,0.358,N,0.663,K,A*2E

[1499553396566]$GPGGA,193636.00,5356.80551,N,02741.11582,E,1,06,1.43,281.3,M,24.8,M,,*51

[1499553396566]$GPGSA,A,3,01,11,32,17,31,19,,,,,,,3.33,1.43,3.01*09

[1499553396566]$GPGSV,3,1,12,01,73,203,11,03,53,271,09,04,17,128,09,11,46,194,21*79

[1499553396566]$GPGSV,3,2,12,12,05,015,,14,48,065,06,17,30,304,15,19,18,324,11*77

[1499553396566]$GPGSV,3,3,12,22,82,263,,23,17,215,08,31,30,107,13,32,29,055,14*74

[1499553396566]$GPGLL,5356.80551,N,02741.11582,E,193636.00,A,A*62

[1499553397566]$GPRMC,193637.00,A,5356.80459,N,02741.11676,E,0.718,,080717,,,A*7C

[1499553397566]$GPVTG,,T,,M,0.718,N,1.330,K,A*2C

[1499553397566]$GPGGA,193637.00,5356.80459,N,02741.11676,E,1,07,1.40,281.5,M,24.8,M,,*55

[1499553397566]$GPGSA,A,3,01,03,11,32,17,31,19,,,,,,3.12,1.40,2.79*04

[1499553397566]$GPGSV,3,1,12,01,73,203,11,03,53,271,10,04,17,128,09,11,46,194,21*71

[1499553397566]$GPGSV,3,2,12,12,05,015,,14,48,065,,17,30,304,15,19,18,324,11*71

[1499553397566]$GPGSV,3,3,12,22,82,263,,23,17,215,08,31,30,107,13,32,29,055,14*74

[1499553397566]$GPGLL,5356.80459,N,02741.11676,E,193637.00,A,A*62

[1499553398566]$GPRMC,193638.00,A,5356.80377,N,02741.11683,E,0.837,,080717,,,A*70

[1499553398566]$GPVTG,,T,,M,0.837,N,1.551,K,A*2F

[1499553398566]$GPGGA,193638.00,5356.80377,N,02741.11683,E,1,07,1.40,281.9,M,24.8,M,,*57

[1499553398566]$GPGSA,A,3,01,03,11,32,17,31,19,,,,,,3.12,1.40,2.79*04

[1499553398566]$GPGSV,3,1,12,01,73,203,07,03,53,271,12,04,17,128,08,11,46,194,21*75

[1499553398566]$GPGSV,3,2,12,12,05,015,,14,48,065,,17,30,304,12,19,18,324,12*75

[1499553398566]$GPGSV,3,3,12,22,82,263,,23,17,215,07,31,30,107,13,32,29,055,16*79

[1499553398566]$GPGLL,5356.80377,N,02741.11683,E,193638.00,A,A*6C

[1499553399566]$GPRMC,193639.00,A,5356.80302,N,02741.11672,E,0.791,,080717,,,A*7E

[1499553399566]$GPVTG,,T,,M,0.791,N,1.466,K,A*29

[1499553399566]$GPGGA,193639.00,5356.80302,N,02741.11672,E,1,07,1.40,282.4,M,24.8,M,,*54

[1499553399566]$GPGSA,A,3,01,03,11,32,17,31,19,,,,,,3.12,1.40,2.79*04

[1499553399566]$GPGSV,3,1,12,01,73,203,07,03,53,271,13,04,17,128,08,11,46,194,20*75

[1499553399566]$GPGSV,3,2,12,12,05,015,,14,48,065,,17,30,304,12,19,18,324,12*75

[1499553399566]$GPGSV,3,3,12,22,82,263,,23,17,215,07,31,30,107,13,32,29,055,16*79

[1499553399566]$GPGLL,5356.80302,N,02741.11672,E,193639.00,A,A*61

[1499553400570]$GPRMC,193640.00,A,5356.80332,N,02741.11716,E,0.639,,080717,,,A*73

[1499553400570]$GPVTG,,T,,M,0.639,N,1.183,K,A*24

[1499553400570]$GPGGA,193640.00,5356.80332,N,02741.11716,E,1,07,0.93,283.6,M,24.8,M,,*56

[1499553400570]$GPGSA,A,3,03,11,32,17,31,19,23,,,,,,2.40,0.93,2.21*00

[1499553400570]$GPGSV,3,1,12,01,73,203,07,03,53,271,13,04,17,128,08,11,46,194,19*7F

[1499553400570]$GPGSV,3,2,12,12,05,015,,14,48,065,,17,30,304,12,19,18,324,12*75

[1499553400570]$GPGSV,3,3,12,22,82,263,,23,17,215,07,31,30,107,13,32,29,055,16*79

[1499553400570]$GPGLL,5356.80332,N,02741.11716,E,193640.00,A,A*6F

[1499553401567]$GPRMC,193641.00,A,5356.80386,N,02741.11767,E,0.326,,080717,,,A*70

[1499553401567]$GPVTG,,T,,M,0.326,N,0.605,K,A*27

[1499553401567]$GPGGA,193641.00,5356.80386,N,02741.11767,E,1,07,0.93,284.7,M,24.8,M,,*58

[1499553401567]$GPGSA,A,3,03,11,32,17,31,19,23,,,,,,2.40,0.93,2.21*00

[1499553401567]$GPGSV,3,1,12,01,73,203,07,03,53,271,14,04,17,128,08,11,46,194,18*79

[1499553401567]$GPGSV,3,2,12,12,05,015,,14,48,065,,17,30,304,12,19,18,324,12*75

[1499553401567]$GPGSV,3,3,12,22,82,263,,23,17,215,07,31,30,107,13,32,29,055,16*79

[1499553401567]$GPGLL,5356.80386,N,02741.11767,E,193641.00,A,A*67

[1499553402566]$GPRMC,193642.00,A,5356.80411,N,02741.11838,E,0.419,,080717,,,A*74

[1499553402566]$GPVTG,,T,,M,0.419,N,0.776,K,A*29

[1499553402566]$GPGGA,193642.00,5356.80411,N,02741.11838,E,1,07,0.93,285.7,M,24.8,M,,*56

[1499553402566]$GPGSA,A,3,03,11,32,17,31,19,23,,,,,,2.40,0.93,2.21*00

[1499553402566]$GPGSV,3,1,12,01,73,203,07,03,53,271,16,04,17,128,08,11,46,194,16*75

[1499553402566]$GPGSV,3,2,12,12,05,015,,14,48,065,05,17,30,304,12,19,18,324,12*70

[1499553402566]$GPGSV,3,3,12,22,82,263,,23,17,215,07,31,30,107,13,32,29,055,16*79

[1499553402566]$GPGLL,5356.80411,N,02741.11838,E,193642.00,A,A*68

[1499553403576]$GPRMC,193643.00,A,5356.80423,N,02741.11928,E,0.751,,080717,,,A*7B

[1499553403576]$GPVTG,,T,,M,0.751,N,1.391,K,A*2A

[1499553403576]$GPGGA,193643.00,5356.80423,N,02741.11928,E,1,07,0.93,286.8,M,24.8,M,,*5A

[1499553403576]$GPGSA,A,3,03,11,32,17,31,19,23,,,,,,2.40,0.93,2.21*00

[1499553403576]$GPGSV,3,1,12,01,73,203,19,03,53,271,18,04,17,128,08,11,46,194,14*76

[1499553403576]$GPGSV,3,2,12,12,05,015,,14,48,065,08,17,30,304,12,19,18,324,12*7D

[1499553403576]$GPGSV,3,3,12,22,82,263,,23,17,215,07,31,30,107,13,32,29,055,16*79

[1499553403576]$GPGLL,5356.80423,N,02741.11928,E,193643.00,A,A*68

[1499553404566]$GPRMC,193644.00,A,5356.80413,N,02741.11992,E,1.128,,080717,,,A*77

[1499553404566]$GPVTG,,T,,M,1.128,N,2.089,K,A*2A

[1499553404566]$GPGGA,193644.00,5356.80413,N,02741.11992,E,1,07,0.93,288.3,M,24.8,M,,*5A

[1499553404566]$GPGSA,A,3,03,11,32,17,31,19,23,,,,,,2.40,0.93,2.21*00

[1499553404566]$GPGSV,3,1,12,01,73,203,18,03,53,271,20,04,17,128,06,11,46,194,13*75

[1499553404566]$GPGSV,3,2,12,12,05,015,,14,48,065,12,17,30,304,09,19,18,324,13*7D

[1499553404566]$GPGSV,3,3,12,22,82,263,,23,17,215,11,31,30,107,10,32,29,055,11*7A

[1499553404566]$GPGLL,5356.80413,N,02741.11992,E,193644.00,A,A*6D

[1499553405576]$GPRMC,193645.00,A,5356.80435,N,02741.12055,E,1.185,,080717,,,A*74

[1499553405576]$GPVTG,,T,,M,1.185,N,2.194,K,A*20

[1499553405576]$GPGGA,193645.00,5356.80435,N,02741.12055,E,1,07,0.93,289.7,M,24.8,M,,*5B

[1499553405576]$GPGSA,A,3,03,11,32,17,31,19,23,,,,,,2.40,0.93,2.21*00

[1499553405576]$GPGSV,3,1,12,01,73,203,18,03,53,271,21,04,17,128,06,11,46,194,13*74

[1499553405576]$GPGSV,3,2,12,12,05,015,,14,48,065,15,17,30,304,09,19,18,324,13*7A

[1499553405576]$GPGSV,3,3,12,22,82,263,,23,17,215,11,31,30,107,10,32,29,055,11*7A

[1499553405576]$GPGLL,5356.80435,N,02741.12055,E,193645.00,A,A*69

[1499553406577]$GPRMC,193646.00,A,5356.80406,N,02741.11970,E,1.355,,080717,,,A*75

[1499553406577]$GPVTG,,T,,M,1.355,N,2.510,K,A*27

[1499553406577]$GPGGA,193646.00,5356.80406,N,02741.11970,E,1,08,0.89,290.4,M,24.8,M,,*5A

[1499553406577]$GPGSA,A,3,14,03,11,32,17,31,19,23,,,,,2.20,0.89,2.02*09

[1499553406577]$GPGSV,3,1,12,01,73,203,17,03,53,271,19,04,17,128,06,11,46,194,12*71

[1499553406577]$GPGSV,3,2,12,12,05,015,,14,48,065,15,17,30,304,09,19,18,324,13*7A

[1499553406577]$GPGSV,3,3,12,22,82,263,,23,17,215,11,31,30,107,10,32,29,055,11*7A

[1499553406577]$GPGLL,5356.80406,N,02741.11970,E,193646.00,A,A*67

[1499553407590]$GPRMC,193647.00,A,5356.80441,N,02741.11931,E,0.828,,080717,,,A*72

[1499553407590]$GPVTG,,T,,M,0.828,N,1.534,K,A*22

[1499553407590]$GPGGA,193647.00,5356.80441,N,02741.11931,E,1,09,0.88,291.1,M,24.8,M,,*59

[1499553407590]$GPGSA,A,3,01,14,03,11,32,17,31,19,23,,,,1.84,0.88,1.61*02

[1499553407590]$GPGSV,3,1,12,01,73,203,17,03,53,271,18,04,17,128,06,11,46,194,12*70

[1499553407590]$GPGSV,3,2,12,12,05,015,,14,48,065,14,17,30,304,09,19,18,324,13*7B

[1499553407590]$GPGSV,3,3,12,22,82,263,,23,17,215,11,31,30,107,10,32,29,055,11*7A

[1499553407590]$GPGLL,5356.80441,N,02741.11931,E,193647.00,A,A*60

[1499553408581]$GPRMC,193648.00,A,5356.80406,N,02741.11914,E,1.135,,080717,,,A*7D

[1499553408581]$GPVTG,,T,,M,1.135,N,2.103,K,A*25

[1499553408581]$GPGGA,193648.00,5356.80406,N,02741.11914,E,1,09,0.88,291.8,M,24.8,M,,*5B

[1499553408581]$GPGSA,A,3,01,14,03,11,32,17,31,19,23,,,,1.84,0.88,1.61*02

[1499553408581]$GPGSV,3,1,12,01,73,202,18,03,53,271,15,04,17,128,06,11,46,194,15*74

[1499553408581]$GPGSV,3,2,12,12,05,015,,14,48,065,13,17,30,304,09,19,18,324,13*7C

[1499553408581]$GPGSV,3,3,12,22,82,263,,23,17,215,11,31,30,107,10,32,29,055,11*7A

[1499553408581]$GPGLL,5356.80406,N,02741.11914,E,193648.00,A,A*6B

[1499553409582]$GPRMC,193649.00,A,5356.80422,N,02741.11856,E,0.880,,080717,,,A*7B

[1499553409582]$GPVTG,,T,,M,0.880,N,1.629,K,A*2F

[1499553409582]$GPGGA,193649.00,5356.80422,N,02741.11856,E,1,09,0.88,292.6,M,24.8,M,,*56

[1499553409582]$GPGSA,A,3,01,14,03,11,32,17,31,19,23,,,,1.84,0.88,1.61*02

[1499553409582]$GPGSV,3,1,12,01,73,202,18,03,53,271,13,04,17,128,06,11,46,194,18*7F

[1499553409582]$GPGSV,3,2,12,12,05,015,,14,48,065,10,17,30,304,09,19,18,324,13*7F

[1499553409582]$GPGSV,3,3,12,22,82,263,,23,17,215,11,31,30,107,10,32,29,055,11*7A

[1499553409582]$GPGLL,5356.80422,N,02741.11856,E,193649.00,A,A*6B

[1499553410577]$GPRMC,193650.00,A,5356.80456,N,02741.11770,E,0.604,,080717,,,A*79

[1499553410577]$GPVTG,,T,,M,0.604,N,1.119,K,A*29

[1499553410577]$GPGGA,193650.00,5356.80456,N,02741.11770,E,1,09,0.88,293.1,M,24.8,M,,*50

[1499553410577]$GPGSA,A,3,01,14,03,11,32,17,31,19,23,,,,1.84,0.88,1.61*02

[1499553410577]$GPGSV,3,1,12,01,73,202,16,03,53,271,16,04,17,128,08,11,46,194,18*7A

[1499553410577]$GPGSV,3,2,12,12,05,015,,14,48,065,11,17,30,304,08,19,18,324,11*7D

[1499553410577]$GPGSV,3,3,12,22,82,263,,23,17,215,08,31,30,107,09,32,29,055,14*7F

[1499553410577]$GPGLL,5356.80456,N,02741.11770,E,193650.00,A,A*6B

[1499553411576]$GPRMC,193651.00,A,5356.80469,N,02741.11668,E,0.900,,080717,,,A*77

[1499553411576]$GPVTG,,T,,M,0.900,N,1.667,K,A*2C

[1499553411576]$GPGGA,193651.00,5356.80469,N,02741.11668,E,1,09,0.88,293.6,M,24.8,M,,*52

[1499553411576]$GPGSA,A,3,01,14,03,11,32,17,31,19,23,,,,1.84,0.88,1.61*02

[1499553411576]$GPGSV,3,1,12,01,73,202,13,03,53,271,18,04,18,128,08,11,46,194,18*7E

[1499553411576]$GPGSV,3,2,12,12,05,015,,14,48,065,12,17,30,304,08,19,18,324,11*7E

[1499553411576]$GPGSV,3,3,12,22,82,263,13,23,17,215,08,31,30,107,09,32,29,055,14*7D

[1499553411576]$GPGLL,5356.80469,N,02741.11668,E,193651.00,A,A*6E

[1499553412581]$GPRMC,193652.00,A,5356.80517,N,02741.11573,E,0.996,,080717,,,A*7A

[1499553412581]$GPVTG,,T,,M,0.996,N,1.845,K,A*2D

[1499553412581]$GPGGA,193652.00,5356.80517,N,02741.11573,E,1,07,1.04,294.3,M,24.8,M,,*59

[1499553412581]$GPGSA,A,3,01,14,03,11,31,19,23,,,,,,1.96,1.04,1.66*04

[1499553412581]$GPGSV,3,1,12,01,73,202,11,03,53,271,19,04,18,128,08,11,46,194,18*7D

[1499553412581]$GPGSV,3,2,12,12,05,015,,14,48,065,12,17,30,304,08,19,18,324,11*7E

[1499553412581]$GPGSV,3,3,12,22,82,263,12,23,17,215,08,31,30,107,09,32,29,055,22*79

[1499553412581]$GPGLL,5356.80517,N,02741.11573,E,193652.00,A,A*6C

[1499553413577]$GPRMC,193653.00,A,5356.80534,N,02741.11469,E,1.114,,080717,,,A*73

[1499553413577]$GPVTG,,T,,M,1.114,N,2.064,K,A*26

[1499553413577]$GPGGA,193653.00,5356.80534,N,02741.11469,E,1,07,1.04,294.9,M,24.8,M,,*59

[1499553413577]$GPGSA,A,3,01,14,03,11,31,19,23,,,,,,1.96,1.04,1.66*04

[1499553413577]$GPGSV,3,1,12,01,73,202,11,03,53,271,19,04,18,128,08,11,46,194,18*7D

[1499553413577]$GPGSV,3,2,12,12,05,015,,14,48,065,12,17,30,304,08,19,18,324,11*7E

[1499553413577]$GPGSV,3,3,12,22,82,263,11,23,17,215,08,31,30,107,09,32,29,055,20*78

[1499553413577]$GPGLL,5356.80534,N,02741.11469,E,193653.00,A,A*66

[1499553414567]$GPRMC,193654.00,A,5356.80527,N,02741.11445,E,0.667,,080717,,,A*7A

[1499553414567]$GPVTG,,T,,M,0.667,N,1.236,K,A*22

[1499553414567]$GPGGA,193654.00,5356.80527,N,02741.11445,E,1,07,1.04,295.5,M,24.8,M,,*5F

[1499553414567]$GPGSA,A,3,01,14,03,11,31,19,23,,,,,,1.96,1.04,1.66*04

[1499553414567]$GPGSV,3,1,12,01,73,202,12,03,53,271,19,04,18,128,08,11,46,194,19*7F

[1499553414567]$GPGSV,3,2,12,12,05,015,,14,48,065,13,17,30,304,08,19,18,324,11*7F

[1499553414567]$GPGSV,3,3,12,22,82,263,11,23,17,215,08,31,30,107,09,32,29,055,19*72

[1499553414567]$GPGLL,5356.80527,N,02741.11445,E,193654.00,A,A*6D

[1499553415585]$GPRMC,193655.00,A,5356.80542,N,02741.11426,E,0.504,,080717,,,A*7B

[1499553415585]$GPVTG,,T,,M,0.504,N,0.933,K,A*2B

[1499553415585]$GPGGA,193655.00,5356.80542,N,02741.11426,E,1,08,0.96,296.2,M,24.8,M,,*59

[1499553415585]$GPGSA,A,3,01,14,03,11,32,31,19,23,,,,,1.88,0.96,1.62*04

[1499553415585]$GPGSV,3,1,12,01,73,202,12,03,53,271,19,04,18,128,,11,46,194,19*77

[1499553415585]$GPGSV,3,2,12,12,05,015,,14,48,065,14,17,30,304,,19,18,324,11*70

[1499553415585]$GPGSV,3,3,12,22,82,263,11,23,17,215,08,31,30,107,09,32,29,055,18*73

[1499553415585]$GPGLL,5356.80542,N,02741.11426,E,193655.00,A,A*6A

[1499553416567]$GPRMC,193656.00,A,5356.80559,N,02741.11367,E,0.694,,080717,,,A*7A

[1499553416567]$GPVTG,,T,,M,0.694,N,1.286,K,A*25

[1499553416567]$GPGGA,193656.00,5356.80559,N,02741.11367,E,1,09,0.95,297.5,M,24.8,M,,*56

[1499553416567]$GPGSA,A,3,22,01,14,03,11,32,31,19,23,,,,1.68,0.95,1.38*06

[1499553416567]$GPGSV,3,1,12,01,73,202,13,03,53,271,17,04,18,128,,11,46,194,20*72

[1499553416567]$GPGSV,3,2,12,12,05,015,,14,48,065,15,17,30,304,,19,18,324,09*78

[1499553416567]$GPGSV,3,3,12,22,82,263,13,23,17,215,11,31,30,107,12,32,29,055,17*7C

[1499553416567]$GPGLL,5356.80559,N,02741.11367,E,193656.00,A,A*61

[1499553417577]$GPRMC,193657.00,A,5356.80595,N,02741.11384,E,1.143,,080717,,,A*7A

[1499553417577]$GPVTG,,T,,M,1.143,N,2.117,K,A*21

[1499553417577]$GPGGA,193657.00,5356.80595,N,02741.11384,E,1,09,0.95,298.8,M,24.8,M,,*58

[1499553417577]$GPGSA,A,3,22,01,14,03,11,32,31,19,23,,,,1.68,0.95,1.38*06

[1499553417577]$GPGSV,3,1,12,01,73,202,13,03,53,271,16,04,18,128,,11,46,194,19*79

[1499553417577]$GPGSV,3,2,12,12,05,015,,14,48,065,14,17,30,304,,19,18,324,09*79

[1499553417577]$GPGSV,3,3,12,22,82,263,15,23,17,215,11,31,30,107,12,32,29,055,18*75

