[1499589922687]$GPRMC,054522.00,A,5355.77185,N,02729.48877,E,0.043,,090717,,,A*7B

[1499589922687]$GPVTG,,T,,M,0.043,N,0.080,K,A*2C

[1499589922687]$GPGGA,054522.00,5355.77185,N,02729.48877,E,1,10,0.96,212.2,M,25.0,M,,*52

[1499589922687]$GPGSA,A,3,10,24,01,17,13,19,11,28,15,12,,,2.12,0.96,1.89*0B

[1499589922687]$GPGSV,3,1,12,01,14,039,26,10,13,317,32,11,06,026,17,12,23,243,38*7D

[1499589922687]$GPGSV,3,2,12,13,33,181,30,15,47,229,33,17,54,095,32,18,10,291,*74

[1499589922687]$GPGSV,3,3,12,19,48,138,42,24,51,289,36,28,28,064,31,30,02,113,*74

[1499589922687]$GPGLL,5355.77185,N,02729.48877,E,054522.00,A,A*6D

[1499589923688]$GPRMC,054523.00,A,5355.77185,N,02729.48873,E,0.092,,090717,,,A*72

[1499589923688]$GPVTG,,T,,M,0.092,N,0.170,K,A*2E

[1499589923688]$GPGGA,054523.00,5355.77185,N,02729.48873,E,1,10,0.96,212.0,M,25.0,M,,*55

[1499589923688]$GPGSA,A,3,10,24,01,17,13,19,11,28,15,12,,,2.12,0.96,1.89*0B

[1499589923688]$GPGSV,3,1,12,01,14,039,32,10,13,317,31,11,06,026,17,12,23,243,38*7B

[1499589923688]$GPGSV,3,2,12,13,33,181,29,15,47,229,33,17,54,095,35,18,10,291,*7B

[1499589923688]$GPGSV,3,3,12,19,48,138,42,24,51,289,35,28,28,064,32,30,02,113,*74

[1499589923688]$GPGLL,5355.77185,N,02729.48873,E,054523.00,A,A*68

[1499589924698]$GPRMC,054524.00,A,5355.77186,N,02729.48868,E,0.040,,090717,,,A*73

[1499589924698]$GPVTG,,T,,M,0.040,N,0.073,K,A*23

[1499589924698]$GPGGA,054524.00,5355.77186,N,02729.48868,E,1,10,0.96,211.9,M,25.0,M,,*51

[1499589924698]$GPGSA,A,3,10,24,01,17,13,19,11,28,15,12,,,2.12,0.96,1.89*0B

[1499589924698]$GPGSV,3,1,12,01,14,039,26,10,13,317,30,11,06,026,17,12,23,243,38*7F

[1499589924698]$GPGSV,3,2,12,13,33,181,29,15,47,229,33,17,54,095,35,18,10,291,*7B

[1499589924698]$GPGSV,3,3,12,19,48,138,42,24,51,289,35,28,28,064,33,30,01,113,*76

[1499589924698]$GPGLL,5355.77186,N,02729.48868,E,054524.00,A,A*66

[1499589925687]$GPRMC,054525.00,A,5355.77189,N,02729.48863,E,0.011,,090717,,,A*72

[1499589925687]$GPVTG,,T,,M,0.011,N,0.020,K,A*21

[1499589925687]$GPGGA,054525.00,5355.77189,N,02729.48863,E,1,10,0.96,211.9,M,25.0,M,,*54

[1499589925687]$GPGSA,A,3,10,24,01,17,13,19,11,28,15,12,,,2.12,0.96,1.88*0A

[1499589925687]$GPGSV,3,1,12,01,14,039,27,10,13,317,29,11,06,026,17,12,23,243,38*76

[1499589925687]$GPGSV,3,2,12,13,33,181,28,15,47,229,34,17,54,095,35,18,10,291,*7D

[1499589925687]$GPGSV,3,3,12,19,48,138,42,24,51,289,35,28,28,064,34,30,01,113,*71

[1499589925687]$GPGLL,5355.77189,N,02729.48863,E,054525.00,A,A*63

[1499589926687]$GPRMC,054526.00,A,5355.77193,N,02729.48861,E,0.023,,090717,,,A*79

[1499589926687]$GPVTG,,T,,M,0.023,N,0.043,K,A*25

[1499589926687]$GPGGA,054526.00,5355.77193,N,02729.48861,E,1,10,1.20,211.9,M,25.0,M,,*52

[1499589926687]$GPGSA,A,3,10,24,01,17,13,19,11,28,15,12,,,2.45,1.20,2.13*05

[1499589926687]$GPGSV,3,1,12,01,14,039,28,10,13,317,30,11,06,026,13,12,23,243,37*7A

[1499589926687]$GPGSV,3,2,12,13,33,181,27,15,47,229,33,17,54,095,34,18,10,291,*74

[1499589926687]$GPGSV,3,3,12,19,48,138,42,24,51,289,34,28,28,064,33,30,01,113,*77

[1499589926687]$GPGLL,5355.77193,N,02729.48861,E,054526.00,A,A*69

[1499589927687]$GPRMC,054527.00,A,5355.77195,N,02729.48857,E,0.064,,090717,,,A*78

[1499589927687]$GPVTG,,T,,M,0.064,N,0.118,K,A*29

[1499589927687]$GPGGA,054527.00,5355.77195,N,02729.48857,E,1,10,0.96,212.0,M,25.0,M,,*56

[1499589927687]$GPGSA,A,3,10,24,01,17,13,19,11,28,15,12,,,2.11,0.96,1.88*09

[1499589927687]$GPGSV,3,1,12,01,14,039,28,10,13,317,30,11,06,026,13,12,23,243,38*75

[1499589927687]$GPGSV,3,2,12,13,33,181,28,15,47,229,34,17,54,095,34,18,10,291,*7C

[1499589927687]$GPGSV,3,3,12,19,48,138,42,24,51,289,34,28,28,064,31,30,01,113,*75

[1499589927687]$GPGLL,5355.77195,N,02729.48857,E,054527.00,A,A*6B

[1499589928698]$GPRMC,054528.00,A,5355.77199,N,02729.48853,E,0.038,,090717,,,A*76

[1499589928698]$GPVTG,,T,,M,0.038,N,0.071,K,A*2E

[1499589928698]$GPGGA,054528.00,5355.77199,N,02729.48853,E,1,10,0.96,212.1,M,25.0,M,,*50

[1499589928698]$GPGSA,A,3,10,24,01,17,13,19,11,28,15,12,,,2.11,0.96,1.88*09

[1499589928698]$GPGSV,3,1,12,01,14,039,28,10,13,317,30,11,06,026,13,12,23,243,38*75

[1499589928698]$GPGSV,3,2,12,13,33,181,28,15,47,229,33,17,54,095,35,18,10,291,*7A

[1499589928698]$GPGSV,3,3,12,19,48,138,43,24,51,289,34,28,28,064,31,30,01,113,*74

[1499589928698]$GPGLL,5355.77199,N,02729.48853,E,054528.00,A,A*6C

[1499589929698]$GPRMC,054529.00,A,5355.77203,N,02729.48849,E,0.016,,090717,,,A*70

[1499589929698]$GPVTG,,T,,M,0.016,N,0.029,K,A*2F

[1499589929698]$GPGGA,054529.00,5355.77203,N,02729.48849,E,1,10,0.96,212.2,M,25.0,M,,*59

[1499589929698]$GPGSA,A,3,10,24,01,17,13,19,11,28,15,12,,,2.11,0.96,1.88*09

[1499589929698]$GPGSV,3,1,12,01,14,039,27,10,13,317,32,11,06,026,13,12,23,243,38*78

[1499589929698]$GPGSV,3,2,12,13,33,181,29,15,47,229,32,17,54,095,35,18,10,291,*7A

[1499589929698]$GPGSV,3,3,12,19,48,138,43,24,51,289,34,28,28,064,31,30,01,113,*74

[1499589929698]$GPGLL,5355.77203,N,02729.48849,E,054529.00,A,A*66

[1499589930687]$GPRMC,054530.00,A,5355.77205,N,02729.48845,E,0.059,,090717,,,A*79

[1499589930687]$GPVTG,,T,,M,0.059,N,0.109,K,A*27

[1499589930687]$GPGGA,054530.00,5355.77205,N,02729.48845,E,1,10,0.96,212.3,M,25.0,M,,*5A

[1499589930687]$GPGSA,A,3,10,24,01,17,13,19,11,28,15,12,,,2.11,0.96,1.88*09

[1499589930687]$GPGSV,3,1,12,01,14,039,26,10,13,317,32,11,06,026,13,12,23,243,38*79

[1499589930687]$GPGSV,3,2,12,13,33,181,29,15,47,229,32,17,54,095,34,18,10,291,*7B

[1499589930687]$GPGSV,3,3,12,19,48,138,43,24,51,289,35,28,28,064,32,30,01,113,*76

[1499589930687]$GPGLL,5355.77205,N,02729.48845,E,054530.00,A,A*64

[1499589931687]$GPRMC,054531.00,A,5355.77207,N,02729.48838,E,0.028,,090717,,,A*76

[1499589931687]$GPVTG,,T,,M,0.028,N,0.052,K,A*2E

[1499589931687]$GPGGA,054531.00,5355.77207,N,02729.48838,E,1,10,1.20,212.5,M,25.0,M,,*59

[1499589931687]$GPGSA,A,3,10,24,01,17,13,19,11,28,15,12,,,2.45,1.20,2.13*05

[1499589931687]$GPGSV,3,1,12,01,14,039,23,10,13,317,32,11,06,026,13,12,23,243,37*73

[1499589931687]$GPGSV,3,2,12,13,33,181,29,15,47,229,31,17,54,095,34,18,10,291,*78

[1499589931687]$GPGSV,3,3,12,19,48,138,43,24,51,289,35,28,28,064,32,30,01,113,*76

[1499589931687]$GPGLL,5355.77207,N,02729.48838,E,054531.00,A,A*6D

[1499589932687]$GPRMC,054532.00,A,5355.77208,N,02729.48834,E,0.029,,090717,,,A*77

[1499589932687]$GPVTG,,T,,M,0.029,N,0.054,K,A*29

[1499589932687]$GPGGA,054532.00,5355.77208,N,02729.48834,E,1,10,0.96,212.6,M,25.0,M,,*56

[1499589932687]$GPGSA,A,3,10,24,01,17,13,19,11,28,15,12,,,2.11,0.96,1.88*09

[1499589932687]$GPGSV,3,1,12,01,14,039,23,10,13,317,31,11,06,026,14,12,23,243,37*77

[1499589932687]$GPGSV,3,2,12,13,33,181,29,15,47,229,32,17,54,095,34,18,10,291,*7B

[1499589932687]$GPGSV,3,3,12,19,48,138,43,24,51,289,34,28,28,064,32,30,01,113,*77

[1499589932687]$GPGLL,5355.77208,N,02729.48834,E,054532.00,A,A*6D

[1499589933687]$GPRMC,054533.00,A,5355.77214,N,02729.48834,E,0.064,,090717,,,A*72

[1499589933687]$GPVTG,,T,,M,0.064,N,0.119,K,A*28

[1499589933687]$GPGGA,054533.00,5355.77214,N,02729.48834,E,1,10,0.96,212.6,M,25.0,M,,*5A

[1499589933687]$GPGSA,A,3,10,24,01,17,13,19,11,28,15,12,,,2.11,0.96,1.88*09

[1499589933687]$GPGSV,3,1,12,01,14,039,29,10,13,317,31,11,06,026,14,12,23,243,38*72

[1499589933687]$GPGSV,3,2,12,13,33,181,30,15,47,229,32,17,54,095,35,18,10,291,*72

[1499589933687]$GPGSV,3,3,12,19,48,138,42,24,51,289,33,28,28,064,32,30,01,113,*71

[1499589933687]$GPGLL,5355.77214,N,02729.48834,E,054533.00,A,A*61

[1499589934688]$GPRMC,054534.00,A,5355.77216,N,02729.48831,E,0.023,,090717,,,A*71

[1499589934688]$GPVTG,,T,,M,0.023,N,0.042,K,A*24

[1499589934688]$GPGGA,054534.00,5355.77216,N,02729.48831,E,1,10,0.96,212.7,M,25.0,M,,*5B

[1499589934688]$GPGSA,A,3,10,24,01,17,13,19,11,28,15,12,,,2.11,0.96,1.88*09

[1499589934688]$GPGSV,3,1,12,01,14,039,27,10,13,317,32,11,06,026,14,12,23,243,37*70

[1499589934688]$GPGSV,3,2,12,13,33,181,30,15,47,229,31,17,54,095,34,18,10,291,06*76

[1499589934688]$GPGSV,3,3,12,19,48,138,42,24,51,289,33,28,28,064,33,30,01,113,*70

[1499589934688]$GPGLL,5355.77216,N,02729.48831,E,054534.00,A,A*61

[1499589935697]$GPRMC,054535.00,A,5355.77214,N,02729.48831,E,0.024,,090717,,,A*75

[1499589935697]$GPVTG,,T,,M,0.024,N,0.044,K,A*25

[1499589935697]$GPGGA,054535.00,5355.77214,N,02729.48831,E,1,10,0.96,212.6,M,25.0,M,,*59

[1499589935697]$GPGSA,A,3,10,24,01,17,13,19,11,28,15,12,,,2.11,0.96,1.88*09

[1499589935697]$GPGSV,3,1,12,01,14,039,26,10,13,317,32,11,06,026,14,12,23,243,37*71

[1499589935697]$GPGSV,3,2,12,13,33,181,29,15,47,229,31,17,54,095,33,18,10,291,07*78

[1499589935697]$GPGSV,3,3,12,19,48,138,42,24,51,289,35,28,28,064,33,30,01,113,*76

[1499589935697]$GPGLL,5355.77214,N,02729.48831,E,054535.00,A,A*62

[1499589936687]$GPRMC,054536.00,A,5355.77216,N,02729.48827,E,0.026,,090717,,,A*71

[1499589936687]$GPVTG,,T,,M,0.026,N,0.049,K,A*2A

[1499589936687]$GPGGA,054536.00,5355.77216,N,02729.48827,E,1,10,0.96,212.6,M,25.0,M,,*5F

[1499589936687]$GPGSA,A,3,10,24,01,17,13,19,11,28,15,12,,,2.11,0.96,1.88*09

[1499589936687]$GPGSV,3,1,12,01,14,039,27,10,13,317,31,11,06,026,14,12,23,243,37*73

[1499589936687]$GPGSV,3,2,12,13,33,181,31,15,47,229,24,17,54,095,34,18,10,291,09*7C

[1499589936687]$GPGSV,3,3,12,19,48,138,42,24,51,289,35,28,28,064,33,30,01,113,*76

[1499589936687]$GPGLL,5355.77216,N,02729.48827,E,054536.00,A,A*64

[1499589937698]$GPRMC,054537.00,A,5355.77216,N,02729.48822,E,0.032,,090717,,,A*70

[1499589937698]$GPVTG,,T,,M,0.032,N,0.060,K,A*24

[1499589937698]$GPGGA,054537.00,5355.77216,N,02729.48822,E,1,10,0.96,212.7,M,25.0,M,,*5A

[1499589937698]$GPGSA,A,3,10,24,01,17,13,19,11,28,15,12,,,2.11,0.96,1.88*09

[1499589937698]$GPGSV,3,1,12,01,14,039,27,10,13,317,31,11,06,026,14,12,23,243,38*7C

[1499589937698]$GPGSV,3,2,12,13,33,181,31,15,47,229,26,17,54,095,34,18,10,291,12*74

[1499589937698]$GPGSV,3,3,12,19,48,138,42,24,51,289,36,28,28,064,34,30,01,113,*72

[1499589937698]$GPGLL,5355.77216,N,02729.48822,E,054537.00,A,A*60

[1499589938687]$GPRMC,054538.00,A,5355.77216,N,02729.48818,E,0.016,,090717,,,A*70

[1499589938687]$GPVTG,,T,,M,0.016,N,0.029,K,A*2F

[1499589938687]$GPGGA,054538.00,5355.77216,N,02729.48818,E,1,11,0.94,212.8,M,25.0,M,,*50

[1499589938687]$GPGSA,A,3,10,24,01,17,13,19,11,18,28,15,12,,2.01,0.94,1.78*0C

[1499589938687]$GPGSV,3,1,12,01,14,039,28,10,13,317,32,11,06,026,10,12,23,243,38*74

[1499589938687]$GPGSV,3,2,12,13,33,181,31,15,47,229,27,17,54,095,35,18,10,291,14*72

[1499589938687]$GPGSV,3,3,12,19,48,138,42,24,51,289,36,28,28,064,35,30,01,113,*73

[1499589938687]$GPGLL,5355.77216,N,02729.48818,E,054538.00,A,A*66

[1499589939688]$GPRMC,054539.00,A,5355.77213,N,02729.48815,E,0.023,,090717,,,A*7F

[1499589939688]$GPVTG,,T,,M,0.023,N,0.044,K,A*22

[1499589939688]$GPGGA,054539.00,5355.77213,N,02729.48815,E,1,11,0.96,212.8,M,25.0,M,,*5B

[1499589939688]$GPGSA,A,3,10,24,01,17,13,19,11,18,28,15,12,,2.11,0.96,1.88*00

[1499589939688]$GPGSV,3,1,12,01,14,038,28,10,13,317,32,11,06,026,10,12,23,243,38*75

[1499589939688]$GPGSV,3,2,12,13,33,181,31,15,47,229,28,17,54,095,35,18,10,291,13*7A

[1499589939688]$GPGSV,3,3,12,19,48,138,42,24,51,289,35,28,28,064,35,30,01,113,*70

[1499589939688]$GPGLL,5355.77213,N,02729.48815,E,054539.00,A,A*6F

[1499589940698]$GPRMC,054540.00,A,5355.77213,N,02729.48806,E,0.029,,090717,,,A*79

[1499589940698]$GPVTG,,T,,M,0.029,N,0.053,K,A*2E

[1499589940698]$GPGGA,054540.00,5355.77213,N,02729.48806,E,1,11,0.96,213.0,M,25.0,M,,*5E

[1499589940698]$GPGSA,A,3,10,24,01,17,13,19,11,18,28,15,12,,2.11,0.96,1.88*00

[1499589940698]$GPGSV,3,1,12,01,14,038,29,10,13,317,31,11,06,026,10,12,23,243,38*77

[1499589940698]$GPGSV,3,2,12,13,33,181,31,15,47,229,28,17,54,095,35,18,10,291,13*7A

[1499589940698]$GPGSV,3,3,12,19,48,138,42,24,51,289,36,28,28,064,34,30,01,113,*72

[1499589940698]$GPGLL,5355.77213,N,02729.48806,E,054540.00,A,A*63

[1499589941687]$GPRMC,054541.00,A,5355.77212,N,02729.48800,E,0.039,,090717,,,A*7E

[1499589941687]$GPVTG,,T,,M,0.039,N,0.073,K,A*2D

[1499589941687]$GPGGA,054541.00,5355.77212,N,02729.48800,E,1,11,0.98,213.1,M,25.0,M,,*57

[1499589941687]$GPGSA,A,3,10,24,01,17,13,19,11,18,28,15,12,,2.17,0.98,1.94*05

[1499589941687]$GPGSV,3,1,12,01,14,038,29,10,13,317,31,11,06,026,10,12,23,243,38*77

[1499589941687]$GPGSV,3,2,12,13,33,181,31,15,47,229,27,17,54,095,35,18,10,291,12*74

[1499589941687]$GPGSV,3,3,12,19,48,138,42,24,51,289,36,28,28,064,34,30,01,113,*72

[1499589941687]$GPGLL,5355.77212,N,02729.48800,E,054541.00,A,A*65

[1499589942688]$GPRMC,054542.00,A,5355.77213,N,02729.48793,E,0.026,,090717,,,A*77

[1499589942688]$GPVTG,,T,,M,0.026,N,0.048,K,A*2B

[1499589942688]$GPGGA,054542.00,5355.77213,N,02729.48793,E,1,11,0.96,213.3,M,25.0,M,,*5C

[1499589942688]$GPGSA,A,3,10,24,01,17,13,19,11,18,28,15,12,,2.11,0.96,1.88*00

[1499589942688]$GPGSV,3,1,12,01,14,038,28,10,13,317,32,11,06,026,10,12,23,243,38*75

[1499589942688]$GPGSV,3,2,12,13,33,181,31,15,47,229,25,17,54,095,34,18,10,291,10*75

[1499589942688]$GPGSV,3,3,12,19,48,138,43,24,51,289,36,28,28,064,33,30,01,113,*74

[1499589942688]$GPGLL,5355.77213,N,02729.48793,E,054542.00,A,A*62

[1499589943687]$GPRMC,054543.00,A,5355.77212,N,02729.48788,E,0.034,,090717,,,A*7E

[1499589943687]$GPVTG,,T,,M,0.034,N,0.062,K,A*20

[1499589943687]$GPGGA,054543.00,5355.77212,N,02729.48788,E,1,10,0.96,213.4,M,25.0,M,,*50

[1499589943687]$GPGSA,A,3,10,24,01,17,13,19,11,28,15,12,,,2.11,0.96,1.88*09

[1499589943687]$GPGSV,3,1,12,01,14,038,29,10,13,317,32,11,06,026,10,12,23,243,38*74

[1499589943687]$GPGSV,3,2,12,13,33,181,32,15,47,229,31,17,54,095,35,18,10,291,09*7A

[1499589943687]$GPGSV,3,3,12,19,48,138,44,24,51,289,36,28,28,064,33,30,01,113,*73

[1499589943687]$GPGLL,5355.77212,N,02729.48788,E,054543.00,A,A*68

[1499589944697]$GPRMC,054544.00,A,5355.77210,N,02729.48780,E,0.031,,090717,,,A*76

[1499589944697]$GPVTG,,T,,M,0.031,N,0.057,K,A*23

[1499589944697]$GPGGA,054544.00,5355.77210,N,02729.48780,E,1,10,0.96,213.5,M,25.0,M,,*5C

[1499589944697]$GPGSA,A,3,10,24,01,17,13,19,11,28,15,12,,,2.11,0.96,1.88*09

[1499589944697]$GPGSV,3,1,12,01,14,038,31,10,13,317,31,11,06,026,12,12,23,243,38*7C

[1499589944697]$GPGSV,3,2,12,13,33,181,32,15,47,229,31,17,54,095,31,18,10,291,08*7F

[1499589944697]$GPGSV,3,3,12,19,48,138,42,24,51,289,37,28,28,064,36,30,01,113,*71

[1499589944697]$GPGLL,5355.77210,N,02729.48780,E,054544.00,A,A*65

[1499589945687]$GPRMC,054545.00,A,5355.77211,N,02729.48774,E,0.038,,090717,,,A*74

[1499589945687]$GPVTG,,T,,M,0.038,N,0.070,K,A*2F

[1499589945687]$GPGGA,054545.00,5355.77211,N,02729.48774,E,1,10,0.96,213.8,M,25.0,M,,*5A

[1499589945687]$GPGSA,A,3,10,24,01,17,13,19,11,28,15,12,,,2.11,0.96,1.88*09

[1499589945687]$GPGSV,3,1,12,01,14,038,32,10,13,317,31,11,06,026,12,12,23,243,38*7F

[1499589945687]$GPGSV,3,2,12,13,33,181,32,15,47,229,30,17,54,095,35,18,10,291,08*7A

[1499589945687]$GPGSV,3,3,12,19,48,138,42,24,51,289,37,28,28,064,36,30,01,113,*71

[1499589945687]$GPGLL,5355.77211,N,02729.48774,E,054545.00,A,A*6E

[1499589946700]$GPRMC,054546.00,A,5355.77211,N,02729.48769,E,0.071,,090717,,,A*76

[1499589946700]$GPVTG,,T,,M,0.071,N,0.132,K,A*25

[1499589946700]$GPGGA,054546.00,5355.77211,N,02729.48769,E,1,10,0.96,214.0,M,25.0,M,,*5A

[1499589946700]$GPGSA,A,3,10,24,01,17,13,19,11,28,15,12,,,2.11,0.96,1.88*09

[1499589946700]$GPGSV,3,1,12,01,14,038,31,10,13,317,31,11,06,026,12,12,23,243,38*7C

[1499589946700]$GPGSV,3,2,12,13,33,181,31,15,47,229,30,17,54,095,36,18,10,291,08*7A

[1499589946700]$GPGSV,3,3,12,19,48,138,43,24,51,289,36,28,28,064,36,30,01,113,*71

[1499589946700]$GPGLL,5355.77211,N,02729.48769,E,054546.00,A,A*61

[1499589947689]$GPRMC,054547.00,A,5355.77211,N,02729.48767,E,0.043,,090717,,,A*78

[1499589947689]$GPVTG,,T,,M,0.043,N,0.079,K,A*2A

[1499589947689]$GPGGA,054547.00,5355.77211,N,02729.48767,E,1,10,0.96,214.1,M,25.0,M,,*54

[1499589947689]$GPGSA,A,3,10,24,01,17,13,19,11,28,15,12,,,2.11,0.96,1.88*09

[1499589947689]$GPGSV,3,1,12,01,14,038,30,10,13,316,31,11,06,026,12,12,23,243,38*7C

[1499589947689]$GPGSV,3,2,12,13,33,181,31,15,47,229,30,17,54,095,34,18,10,291,08*78

[1499589947689]$GPGSV,3,3,12,19,48,138,43,24,51,289,36,28,28,064,33,30,01,113,*74

[1499589947689]$GPGLL,5355.77211,N,02729.48767,E,054547.00,A,A*6E

[1499589948687]$GPRMC,054548.00,A,5355.77210,N,02729.48763,E,0.060,,090717,,,A*73

[1499589948687]$GPVTG,,T,,M,0.060,N,0.110,K,A*25

[1499589948687]$GPGGA,054548.00,5355.77210,N,02729.48763,E,1,10,0.98,214.2,M,25.0,M,,*53

[1499589948687]$GPGSA,A,3,10,24,01,17,13,19,11,28,15,12,,,2.17,0.98,1.94*0C

[1499589948687]$GPGSV,3,1,12,01,14,038,30,10,13,316,31,11,06,026,12,12,23,243,38*7C

[1499589948687]$GPGSV,3,2,12,13,33,181,31,15,47,229,29,17,54,095,34,18,10,291,08*70

[1499589948687]$GPGSV,3,3,12,19,48,138,42,24,51,289,35,28,28,064,34,30,01,113,*71

[1499589948687]$GPGLL,5355.77210,N,02729.48763,E,054548.00,A,A*64

[1499589949687]$GPRMC,054549.00,A,5355.77210,N,02729.48755,E,0.021,,090717,,,A*72

[1499589949687]$GPVTG,,T,,M,0.021,N,0.039,K,A*2A

[1499589949687]$GPGGA,054549.00,5355.77210,N,02729.48755,E,1,10,0.98,214.4,M,25.0,M,,*51

[1499589949687]$GPGSA,A,3,10,24,01,17,13,19,11,28,15,12,,,2.17,0.98,1.94*0C

[1499589949687]$GPGSV,3,1,12,01,14,038,31,10,13,316,31,11,06,026,12,12,23,243,38*7D

[1499589949687]$GPGSV,3,2,12,13,33,181,32,15,47,229,27,17,54,095,36,18,10,291,08*7F

[1499589949687]$GPGSV,3,3,12,19,48,138,42,24,51,289,35,28,28,064,35,30,01,113,*70

[1499589949687]$GPGLL,5355.77210,N,02729.48755,E,054549.00,A,A*60

[1499589950688]$GPRMC,054550.00,A,5355.77209,N,02729.48748,E,0.023,,090717,,,A*7C

[1499589950688]$GPVTG,,T,,M,0.023,N,0.043,K,A*25

[1499589950688]$GPGGA,054550.00,5355.77209,N,02729.48748,E,1,10,0.98,214.6,M,25.0,M,,*5F

[1499589950688]$GPGSA,A,3,10,24,01,17,13,19,11,28,15,12,,,2.17,0.98,1.94*0C

[1499589950688]$GPGSV,3,1,12,01,14,038,32,10,13,316,32,11,06,026,14,12,23,243,38*7B

[1499589950688]$GPGSV,3,2,12,13,33,181,32,15,47,229,27,17,54,095,36,18,10,291,*77

[1499589950688]$GPGSV,3,3,12,19,48,138,42,24,51,289,35,28,28,064,35,30,01,113,*70

[1499589950688]$GPGLL,5355.77209,N,02729.48748,E,054550.00,A,A*6C

[1499589951687]$GPRMC,054551.00,A,5355.77207,N,02729.48742,E,0.018,,090717,,,A*71

[1499589951687]$GPVTG,,T,,M,0.018,N,0.032,K,A*2B

[1499589951687]$GPGGA,054551.00,5355.77207,N,02729.48742,E,1,10,0.96,214.6,M,25.0,M,,*54

[1499589951687]$GPGSA,A,3,10,24,01,17,13,19,11,28,15,12,,,2.11,0.96,1.88*09

[1499589951687]$GPGSV,3,1,12,01,14,038,31,10,13,316,32,11,06,026,14,12,23,243,38*78

[1499589951687]$GPGSV,3,2,12,13,33,181,32,15,47,229,27,17,54,095,35,18,10,291,*74

[1499589951687]$GPGSV,3,3,12,19,48,138,43,24,51,289,36,28,28,064,35,30,01,113,*72

[1499589951687]$GPGLL,5355.77207,N,02729.48742,E,054551.00,A,A*69

[1499589952698]$GPRMC,054552.00,A,5355.77208,N,02729.48737,E,0.032,,090717,,,A*77

[1499589952698]$GPVTG,,T,,M,0.032,N,0.059,K,A*2E

[1499589952698]$GPGGA,054552.00,5355.77208,N,02729.48737,E,1,10,0.98,214.8,M,25.0,M,,*5A

[1499589952698]$GPGSA,A,3,10,24,01,17,13,19,11,28,15,12,,,2.17,0.98,1.94*0C

[1499589952698]$GPGSV,3,1,12,01,14,038,32,10,13,316,32,11,06,026,14,12,23,243,38*7B

[1499589952698]$GPGSV,3,2,12,13,33,181,31,15,47,229,27,17,54,095,36,18,10,291,*74

[1499589952698]$GPGSV,3,3,12,19,48,138,43,24,51,289,35,28,28,064,35,30,01,113,*71

[1499589952698]$GPGLL,5355.77208,N,02729.48737,E,054552.00,A,A*67

[1499589953687]$GPRMC,054553.00,A,5355.77208,N,02729.48733,E,0.013,,090717,,,A*71

[1499589953687]$GPVTG,,T,,M,0.013,N,0.024,K,A*27

[1499589953687]$GPGGA,054553.00,5355.77208,N,02729.48733,E,1,10,0.98,214.8,M,25.0,M,,*5F

[1499589953687]$GPGSA,A,3,10,24,01,17,13,19,11,28,15,12,,,2.17,0.98,1.94*0C

[1499589953687]$GPGSV,3,1,12,01,14,038,33,10,13,316,32,11,06,026,14,12,23,243,38*7A

[1499589953687]$GPGSV,3,2,12,13,33,181,31,15,47,229,27,17,54,095,36,18,10,291,17*72

[1499589953687]$GPGSV,3,3,12,19,48,138,43,24,51,289,35,28,28,064,35,30,01,113,*71

[1499589953687]$GPGLL,5355.77208,N,02729.48733,E,054553.00,A,A*62

[1499589954688]$GPRMC,054554.00,A,5355.77209,N,02729.48728,E,0.016,,090717,,,A*78

[1499589954688]$GPVTG,,T,,M,0.016,N,0.029,K,A*2F

[1499589954688]$GPGGA,054554.00,5355.77209,N,02729.48728,E,1,10,0.98,214.8,M,25.0,M,,*53

[1499589954688]$GPGSA,A,3,10,24,01,17,13,19,11,28,15,12,,,2.17,0.98,1.94*0C

[1499589954688]$GPGSV,3,1,12,01,14,038,32,10,13,316,31,11,06,026,14,12,23,243,38*78

[1499589954688]$GPGSV,3,2,12,13,33,181,31,15,47,229,26,17,54,095,33,18,10,291,17*76

[1499589954688]$GPGSV,3,3,12,19,48,138,43,24,51,289,35,28,28,064,35,30,01,113,*71

[1499589954688]$GPGLL,5355.77209,N,02729.48728,E,054554.00,A,A*6E

[1499589955697]$GPRMC,054555.00,A,5355.77206,N,02729.48720,E,0.021,,090717,,,A*7A

[1499589955697]$GPVTG,,T,,M,0.021,N,0.039,K,A*2A

[1499589955697]$GPGGA,054555.00,5355.77206,N,02729.48720,E,1,10,0.98,215.0,M,25.0,M,,*5C

[1499589955697]$GPGSA,A,3,10,24,01,17,13,19,11,28,15,12,,,2.17,0.98,1.93*0B

[1499589955697]$GPGSV,3,1,12,01,14,038,31,10,13,316,31,11,06,026,14,12,23,243,39*7A

[1499589955697]$GPGSV,3,2,12,13,33,181,32,15,47,229,26,17,54,095,35,18,10,290,16*73

[1499589955697]$GPGSV,3,3,12,19,48,138,43,24,51,289,35,28,28,064,36,30,01,113,*72

[1499589955697]$GPGLL,5355.77206,N,02729.48720,E,054555.00,A,A*68

[1499589956690]$GPRMC,054556.00,A,5355.77202,N,02729.48709,E,0.026,,090717,,,A*71

[1499589956690]$GPVTG,,T,,M,0.026,N,0.047,K,A*24

[1499589956690]$GPGGA,054556.00,5355.77202,N,02729.48709,E,1,10,0.98,215.4,M,25.0,M,,*54

[1499589956690]$GPGSA,A,3,10,24,01,17,13,19,11,28,15,12,,,2.17,0.98,1.93*0B

[1499589956690]$GPGSV,3,1,12,01,14,038,33,10,13,316,31,11,06,026,15,12,23,243,39*79

[1499589956690]$GPGSV,3,2,12,13,33,181,32,15,47,229,26,17,54,095,35,18,10,290,15*70

[1499589956690]$GPGSV,3,3,12,19,49,137,43,24,51,289,35,28,28,064,37,30,01,113,*7D

[1499589956690]$GPGLL,5355.77202,N,02729.48709,E,054556.00,A,A*64

[1499589957687]$GPRMC,054557.00,A,5355.77200,N,02729.48702,E,0.046,,090717,,,A*7F

[1499589957687]$GPVTG,,T,,M,0.046,N,0.085,K,A*2C

[1499589957687]$GPGGA,054557.00,5355.77200,N,02729.48702,E,1,10,0.98,215.6,M,25.0,M,,*5E

[1499589957687]$GPGSA,A,3,10,24,01,17,13,19,11,28,15,12,,,2.17,0.98,1.93*0B

[1499589957687]$GPGSV,3,1,12,01,14,038,33,10,13,316,32,11,06,026,16,12,23,243,39*79

[1499589957687]$GPGSV,3,2,12,13,33,181,32,15,47,229,26,17,54,095,36,18,10,290,12*74

[1499589957687]$GPGSV,3,3,12,19,49,137,42,24,51,289,35,28,28,064,37,30,01,113,*7C

[1499589957687]$GPGLL,5355.77200,N,02729.48702,E,054557.00,A,A*6C

[1499589958697]$GPRMC,054558.00,A,5355.77201,N,02729.48698,E,0.053,,090717,,,A*77

[1499589958697]$GPVTG,,T,,M,0.053,N,0.098,K,A*24

[1499589958697]$GPGGA,054558.00,5355.77201,N,02729.48698,E,1,10,0.98,215.7,M,25.0,M,,*53

[1499589958697]$GPGSA,A,3,10,24,01,17,13,19,11,28,15,12,,,2.17,0.98,1.93*0B

[1499589958697]$GPGSV,3,1,12,01,14,038,33,10,13,316,32,11,06,026,15,12,23,243,38*7B

[1499589958697]$GPGSV,3,2,12,13,33,181,32,15,47,229,27,17,54,095,36,18,10,290,10*77

[1499589958697]$GPGSV,3,3,12,19,49,137,43,24,51,289,35,28,28,064,36,30,01,113,*7C

[1499589958697]$GPGLL,5355.77201,N,02729.48698,E,054558.00,A,A*60

[1499589959698]$GPRMC,054559.00,A,5355.77201,N,02729.48693,E,0.052,,090717,,,A*7C

[1499589959698]$GPVTG,,T,,M,0.052,N,0.096,K,A*2B

[1499589959698]$GPGGA,054559.00,5355.77201,N,02729.48693,E,1,10,0.96,215.8,M,25.0,M,,*58

[1499589959698]$GPGSA,A,3,10,24,01,17,13,19,11,28,15,12,,,2.11,0.96,1.88*09

[1499589959698]$GPGSV,3,1,12,01,14,038,33,10,13,316,32,11,06,026,13,12,23,243,36*73

[1499589959698]$GPGSV,3,2,12,13,33,181,32,15,47,229,27,17,54,095,35,18,10,290,09*7C

[1499589959698]$GPGSV,3,3,12,19,49,137,43,24,51,289,37,28,28,064,35,30,01,113,*7D

[1499589959698]$GPGLL,5355.77201,N,02729.48693,E,054559.00,A,A*6A

[1499589960688]$GPRMC,054600.00,A,5355.77201,N,02729.48690,E,0.065,,090717,,,A*74

[1499589960688]$GPVTG,,T,,M,0.065,N,0.120,K,A*23

[1499589960688]$GPGGA,054600.00,5355.77201,N,02729.48690,E,1,10,0.96,215.9,M,25.0,M,,*55

[1499589960688]$GPGSA,A,3,10,24,01,17,13,19,11,28,15,12,,,2.11,0.96,1.88*09

[1499589960688]$GPGSV,3,1,12,01,14,038,34,10,13,316,32,11,06,026,12,12,23,243,36*75

[1499589960688]$GPGSV,3,2,12,13,33,181,30,15,47,229,29,17,54,095,36,18,10,290,09*73

[1499589960688]$GPGSV,3,3,12,19,49,137,43,24,51,289,35,28,28,064,35,30,01,113,*7F

[1499589960688]$GPGLL,5355.77201,N,02729.48690,E,054600.00,A,A*66

[1499589961687]$GPRMC,054601.00,A,5355.77202,N,02729.48686,E,0.051,,090717,,,A*76

[1499589961687]$GPVTG,,T,,M,0.051,N,0.094,K,A*2A

[1499589961687]$GPGGA,054601.00,5355.77202,N,02729.48686,E,1,10,0.98,216.0,M,25.0,M,,*54

[1499589961687]$GPGSA,A,3,10,24,01,17,13,19,11,28,15,12,,,2.17,0.98,1.93*0B

[1499589961687]$GPGSV,3,1,12,01,14,038,35,10,13,316,32,11,06,026,12,12,23,243,37*75

[1499589961687]$GPGSV,3,2,12,13,33,181,29,15,47,229,29,17,54,095,34,18,10,290,09*79

[1499589961687]$GPGSV,3,3,12,19,49,137,43,24,51,289,36,28,28,064,35,30,01,113,*7C

[1499589961687]$GPGLL,5355.77202,N,02729.48686,E,054601.00,A,A*63

[1499589962689]$GPRMC,054602.00,A,5355.77203,N,02729.48677,E,0.039,,090717,,,A*74

[1499589962689]$GPVTG,,T,,M,0.039,N,0.071,K,A*2F

[1499589962689]$GPGGA,054602.00,5355.77203,N,02729.48677,E,1,10,0.96,216.2,M,25.0,M,,*54

[1499589962689]$GPGSA,A,3,10,24,01,17,13,19,11,28,15,12,,,2.11,0.96,1.88*09

[1499589962689]$GPGSV,3,1,12,01,14,038,32,10,13,316,32,11,06,026,11,12,23,243,37*71

[1499589962689]$GPGSV,3,2,12,13,33,181,30,15,47,229,29,17,54,095,34,18,10,290,*78

[1499589962689]$GPGSV,3,3,12,19,49,137,42,24,51,289,37,28,28,064,35,30,01,113,*7C

[1499589962689]$GPGLL,5355.77203,N,02729.48677,E,054602.00,A,A*6F

[1499589963688]$GPRMC,054603.00,A,5355.77205,N,02729.48671,E,0.071,,090717,,,A*79

[1499589963688]$GPVTG,,T,,M,0.071,N,0.132,K,A*25

[1499589963688]$GPGGA,054603.00,5355.77205,N,02729.48671,E,1,10,0.96,216.5,M,25.0,M,,*52

[1499589963688]$GPGSA,A,3,10,24,01,17,13,19,11,28,15,12,,,2.11,0.96,1.88*09

[1499589963688]$GPGSV,3,1,12,01,14,038,34,10,13,316,32,11,06,026,11,12,23,243,37*77

[1499589963688]$GPGSV,3,2,12,13,33,181,29,15,47,229,30,17,54,095,37,18,10,290,*7B

[1499589963688]$GPGSV,3,3,12,19,49,137,41,24,51,289,36,28,28,064,35,30,01,113,*7E

[1499589963688]$GPGLL,5355.77205,N,02729.48671,E,054603.00,A,A*6E

[1499589964692]$GPRMC,054604.00,A,5355.77203,N,02729.48663,E,0.027,,090717,,,A*78

[1499589964692]$GPVTG,,T,,M,0.027,N,0.050,K,A*23

[1499589964692]$GPGGA,054604.00,5355.77203,N,02729.48663,E,1,10,0.96,216.8,M,25.0,M,,*5D

[1499589964692]$GPGSA,A,3,10,24,01,17,13,19,11,28,15,12,,,2.11,0.96,1.88*09

[1499589964692]$GPGSV,3,1,12,01,14,038,35,10,13,316,31,11,06,026,11,12,23,243,36*74

[1499589964692]$GPGSV,3,2,12,13,33,181,26,15,47,229,34,17,54,095,35,18,10,290,*72

[1499589964692]$GPGSV,3,3,12,19,49,137,41,24,51,289,33,28,28,064,36,30,01,113,*78

[1499589964692]$GPGLL,5355.77203,N,02729.48663,E,054604.00,A,A*6C

[1499589965687]$GPRMC,054605.00,A,5355.77204,N,02729.48661,E,0.056,,090717,,,A*7A

[1499589965687]$GPVTG,,T,,M,0.056,N,0.105,K,A*24

[1499589965687]$GPGGA,054605.00,5355.77204,N,02729.48661,E,1,10,1.20,217.1,M,25.0,M,,*5D

[1499589965687]$GPGSA,A,3,10,24,01,17,13,19,11,28,15,12,,,2.45,1.20,2.14*02

[1499589965687]$GPGSV,3,1,12,01,14,038,35,10,13,316,31,11,06,026,11,12,23,243,35*77

[1499589965687]$GPGSV,3,2,12,13,33,181,26,15,47,229,32,17,54,095,36,18,10,290,*77

[1499589965687]$GPGSV,3,3,12,19,49,137,40,24,51,289,32,28,27,064,35,30,01,113,*74

[1499589965687]$GPGLL,5355.77204,N,02729.48661,E,054605.00,A,A*68

[1499589966697]$GPRMC,054606.00,A,5355.77203,N,02729.48655,E,0.029,,090717,,,A*71

[1499589966697]$GPVTG,,T,,M,0.029,N,0.054,K,A*29

[1499589966697]$GPGGA,054606.00,5355.77203,N,02729.48655,E,1,10,0.96,217.4,M,25.0,M,,*57

[1499589966697]$GPGSA,A,3,10,24,01,17,13,19,11,28,15,12,,,2.11,0.96,1.88*09

[1499589966697]$GPGSV,3,1,12,01,14,038,34,10,13,316,32,11,06,026,11,12,23,243,36*76

[1499589966697]$GPGSV,3,2,12,13,33,181,26,15,47,229,34,17,54,095,36,18,10,290,*71

[1499589966697]$GPGSV,3,3,12,19,49,137,42,24,51,289,35,28,27,064,36,30,01,113,*72

[1499589966697]$GPGLL,5355.77203,N,02729.48655,E,054606.00,A,A*6B

[1499589967697]$GPRMC,054607.00,A,5355.77204,N,02729.48655,E,0.022,,090717,,,A*7C

[1499589967697]$GPVTG,,T,,M,0.022,N,0.040,K,A*27

[1499589967697]$GPGGA,054607.00,5355.77204,N,02729.48655,E,1,10,0.98,217.6,M,25.0,M,,*5D

[1499589967697]$GPGSA,A,3,10,24,01,17,13,19,11,28,15,12,,,2.16,0.98,1.93*0A

[1499589967697]$GPGSV,3,1,12,01,14,038,36,10,13,316,32,11,06,026,11,12,23,243,37*75

[1499589967697]$GPGSV,3,2,12,13,33,181,28,15,47,229,31,17,54,095,35,18,10,290,14*7C

[1499589967697]$GPGSV,3,3,12,19,49,137,41,24,51,289,36,28,27,064,35,30,01,114,*76

[1499589967697]$GPGLL,5355.77204,N,02729.48655,E,054607.00,A,A*6D

[1499589968697]$GPRMC,054608.00,A,5355.77204,N,02729.48644,E,0.058,,090717,,,A*7E

[1499589968697]$GPVTG,,T,,M,0.058,N,0.107,K,A*28

[1499589968697]$GPGGA,054608.00,5355.77204,N,02729.48644,E,1,10,0.96,217.8,M,25.0,M,,*52

[1499589968697]$GPGSA,A,3,10,24,01,17,13,19,11,28,15,12,,,2.11,0.96,1.88*09

[1499589968697]$GPGSV,3,1,12,01,14,038,32,10,13,316,33,11,06,026,12,12,23,243,37*73

[1499589968697]$GPGSV,3,2,12,13,33,181,29,15,47,229,35,17,54,095,34,18,10,290,12*7E

[1499589968697]$GPGSV,3,3,12,19,49,137,43,24,51,289,37,28,27,064,34,30,01,114,*74

[1499589968697]$GPGLL,5355.77204,N,02729.48644,E,054608.00,A,A*62

[1499589969687]$GPRMC,054609.00,A,5355.77202,N,02729.48638,E,0.009,,090717,,,A*76

[1499589969687]$GPVTG,,T,,M,0.009,N,0.017,K,A*2C

[1499589969687]$GPGGA,054609.00,5355.77202,N,02729.48638,E,1,10,0.96,217.9,M,25.0,M,,*5F

[1499589969687]$GPGSA,A,3,10,24,01,17,13,19,11,28,15,12,,,2.11,0.96,1.88*09

[1499589969687]$GPGSV,3,1,12,01,14,038,30,10,13,316,32,11,06,026,12,12,23,243,37*70

[1499589969687]$GPGSV,3,2,12,13,33,181,30,15,47,229,31,17,54,095,34,18,10,290,10*70

[1499589969687]$GPGSV,3,3,12,19,49,137,42,24,51,289,37,28,27,064,35,30,01,114,*74

[1499589969687]$GPGLL,5355.77202,N,02729.48638,E,054609.00,A,A*6E

[1499589970697]$GPRMC,054610.00,A,5355.77199,N,02729.48637,E,0.052,,090717,,,A*7E

[1499589970697]$GPVTG,,T,,M,0.052,N,0.097,K,A*2A

[1499589970697]$GPGGA,054610.00,5355.77199,N,02729.48637,E,1,10,0.98,217.9,M,25.0,M,,*57

[1499589970697]$GPGSA,A,3,10,24,01,17,13,19,11,28,15,12,,,2.16,0.98,1.93*0A

[1499589970697]$GPGSV,3,1,12,01,14,038,35,10,13,316,32,11,06,026,12,12,23,243,37*75

[1499589970697]$GPGSV,3,2,12,13,33,181,30,15,47,229,31,17,54,095,33,18,10,290,10*77

[1499589970697]$GPGSV,3,3,12,19,49,137,42,24,51,289,38,28,27,064,35,30,01,114,*7B

[1499589970697]$GPGLL,5355.77199,N,02729.48637,E,054610.00,A,A*68

[1499589971689]$GPRMC,054611.00,A,5355.77203,N,02729.48633,E,0.018,,090717,,,A*75

[1499589971689]$GPVTG,,T,,M,0.018,N,0.034,K,A*2D

[1499589971689]$GPGGA,054611.00,5355.77203,N,02729.48633,E,1,10,0.96,218.2,M,25.0,M,,*58

[1499589971689]$GPGSA,A,3,10,24,01,17,13,19,11,28,15,12,,,2.11,0.96,1.88*09

[1499589971689]$GPGSV,3,1,12,01,14,038,34,10,13,316,32,11,06,026,12,12,23,243,38*7B

[1499589971689]$GPGSV,3,2,12,13,33,181,30,15,47,229,31,17,54,095,36,18,10,290,08*7B

[1499589971689]$GPGSV,3,3,12,19,49,137,42,24,51,289,38,28,27,064,35,30,01,114,*7B

[1499589971689]$GPGLL,5355.77203,N,02729.48633,E,054611.00,A,A*6D

[1499589972687]$GPRMC,054612.00,A,5355.77207,N,02729.48632,E,0.010,,090717,,,A*7B

[1499589972687]$GPVTG,,T,,M,0.010,N,0.019,K,A*2A

[1499589972687]$GPGGA,054612.00,5355.77207,N,02729.48632,E,1,10,0.98,218.2,M,25.0,M,,*50

[1499589972687]$GPGSA,A,3,10,24,01,17,13,19,11,28,15,12,,,2.16,0.98,1.93*0A

[1499589972687]$GPGSV,3,1,12,01,14,038,34,10,13,316,32,11,06,026,12,12,23,243,37*74

[1499589972687]$GPGSV,3,2,12,13,33,181,30,15,47,229,30,17,54,095,35,18,10,290,08*79

[1499589972687]$GPGSV,3,3,12,19,49,137,42,24,51,289,37,28,27,064,35,30,01,114,*74

[1499589972687]$GPGLL,5355.77207,N,02729.48632,E,054612.00,A,A*6B

[1499589973687]$GPRMC,054613.00,A,5355.77204,N,02729.48634,E,0.011,,090717,,,A*7E

[1499589973687]$GPVTG,,T,,M,0.011,N,0.020,K,A*21

[1499589973687]$GPGGA,054613.00,5355.77204,N,02729.48634,E,1,10,0.98,218.0,M,25.0,M,,*56

[1499589973687]$GPGSA,A,3,10,24,01,17,13,19,11,28,15,12,,,2.16,0.98,1.93*0A

[1499589973687]$GPGSV,3,1,12,01,14,038,32,10,13,316,32,11,06,026,12,12,23,243,37*72

[1499589973687]$GPGSV,3,2,12,13,33,181,30,15,47,229,29,17,54,095,36,18,10,290,*7A

[1499589973687]$GPGSV,3,3,12,19,49,137,41,24,51,289,39,28,27,064,34,30,01,114,*78

[1499589973687]$GPGLL,5355.77204,N,02729.48634,E,054613.00,A,A*6F

[1499589974690]$GPRMC,054614.00,A,5355.77200,N,02729.48633,E,0.042,,090717,,,A*7C

[1499589974690]$GPVTG,,T,,M,0.042,N,0.078,K,A*2A

[1499589974690]$GPGGA,054614.00,5355.77200,N,02729.48633,E,1,10,0.98,217.9,M,25.0,M,,*54

[1499589974690]$GPGSA,A,3,10,24,01,17,13,19,11,28,15,12,,,2.16,0.98,1.93*0A

[1499589974690]$GPGSV,3,1,12,01,14,038,33,10,13,316,32,11,06,026,10,12,23,243,38*7E

[1499589974690]$GPGSV,3,2,12,13,33,181,32,15,47,229,28,17,54,095,35,18,10,290,*7A

[1499589974690]$GPGSV,3,3,12,19,49,137,42,24,51,289,37,28,27,064,34,30,01,114,*75

[1499589974690]$GPGLL,5355.77200,N,02729.48633,E,054614.00,A,A*6B

[1499589975691]$GPRMC,054615.00,A,5355.77195,N,02729.48632,E,0.027,,090717,,,A*70

[1499589975691]$GPVTG,,T,,M,0.027,N,0.049,K,A*2B

[1499589975691]$GPGGA,054615.00,5355.77195,N,02729.48632,E,1,10,0.98,217.6,M,25.0,M,,*54

[1499589975691]$GPGSA,A,3,10,24,01,17,13,19,11,28,15,12,,,2.16,0.98,1.93*0A

[1499589975691]$GPGSV,3,1,12,01,14,038,33,10,13,316,32,11,06,026,10,12,23,243,38*7E

[1499589975691]$GPGSV,3,2,12,13,33,181,32,15,47,229,28,17,54,095,35,18,10,290,*7A

[1499589975691]$GPGSV,3,3,12,19,49,137,42,24,51,289,37,28,27,064,33,30,01,114,*72

[1499589975691]$GPGLL,5355.77195,N,02729.48632,E,054615.00,A,A*64

[1499589976687]$GPRMC,054616.00,A,5355.77187,N,02729.48631,E,0.014,,090717,,,A*73

[1499589976687]$GPVTG,,T,,M,0.014,N,0.026,K,A*22

[1499589976687]$GPGGA,054616.00,5355.77187,N,02729.48631,E,1,09,0.98,217.5,M,25.0,M,,*5C

[1499589976687]$GPGSA,A,3,10,24,01,17,13,19,28,15,12,,,,2.16,0.98,1.93*0A

[1499589976687]$GPGSV,3,1,12,01,14,038,32,10,13,316,32,11,06,026,10,12,23,243,38*7F

[1499589976687]$GPGSV,3,2,12,13,33,181,33,15,47,229,27,17,54,095,36,18,10,290,*77

[1499589976687]$GPGSV,3,3,12,19,49,137,42,24,51,289,37,28,27,064,33,30,01,114,*72

[1499589976687]$GPGLL,5355.77187,N,02729.48631,E,054616.00,A,A*67

[1499589977687]$GPRMC,054617.00,A,5355.77183,N,02729.48629,E,0.019,,090717,,,A*72

[1499589977687]$GPVTG,,T,,M,0.019,N,0.035,K,A*2D

[1499589977687]$GPGGA,054617.00,5355.77183,N,02729.48629,E,1,09,0.98,217.3,M,25.0,M,,*56

[1499589977687]$GPGSA,A,3,10,24,01,17,13,19,28,15,12,,,,2.16,0.98,1.93*0A

[1499589977687]$GPGSV,3,1,12,01,14,038,32,10,13,316,32,11,06,026,10,12,23,243,38*7F

[1499589977687]$GPGSV,3,2,12,13,33,181,33,15,47,229,27,17,54,095,36,18,10,290,*77

[1499589977687]$GPGSV,3,3,12,19,49,137,43,24,51,289,36,28,27,064,33,30,01,114,*72

[1499589977687]$GPGLL,5355.77183,N,02729.48629,E,054617.00,A,A*6B

[1499589978697]$GPRMC,054618.00,A,5355.77177,N,02729.48626,E,0.073,,090717,,,A*75

[1499589978697]$GPVTG,,T,,M,0.073,N,0.136,K,A*23

[1499589978697]$GPGGA,054618.00,5355.77177,N,02729.48626,E,1,09,0.96,217.3,M,25.0,M,,*53

[1499589978697]$GPGSA,A,3,10,24,01,17,13,19,28,15,12,,,,2.10,0.96,1.87*07

[1499589978697]$GPGSV,3,1,12,01,14,038,33,10,13,316,31,11,06,026,10,12,23,243,38*7D

[1499589978697]$GPGSV,3,2,12,13,33,181,33,15,47,229,27,17,54,095,36,18,10,290,*77

[1499589978697]$GPGSV,3,3,12,19,49,137,43,24,51,289,36,28,27,064,32,30,01,114,*73

[1499589978697]$GPGLL,5355.77177,N,02729.48626,E,054618.00,A,A*60

[1499589979690]$GPRMC,054619.00,A,5355.77173,N,02729.48624,E,0.025,,090717,,,A*71

[1499589979690]$GPVTG,,T,,M,0.025,N,0.047,K,A*27

[1499589979690]$GPGGA,054619.00,5355.77173,N,02729.48624,E,1,09,0.98,217.2,M,25.0,M,,*5B

[1499589979690]$GPGSA,A,3,10,24,01,17,13,19,28,15,12,,,,2.16,0.98,1.93*0A

[1499589979690]$GPGSV,3,1,12,01,14,038,33,10,13,316,31,11,06,026,10,12,23,243,38*7D

[1499589979690]$GPGSV,3,2,12,13,33,181,33,15,47,229,27,17,54,095,36,18,10,290,*77

[1499589979690]$GPGSV,3,3,12,19,49,137,43,24,51,289,36,28,27,064,34,30,01,114,*75

[1499589979690]$GPGLL,5355.77173,N,02729.48624,E,054619.00,A,A*67

[1499589980690]$GPRMC,054620.00,A,5355.77167,N,02729.48623,E,0.017,,090717,,,A*78

[1499589980690]$GPVTG,,T,,M,0.017,N,0.031,K,A*27

[1499589980690]$GPGGA,054620.00,5355.77167,N,02729.48623,E,1,09,0.98,216.8,M,25.0,M,,*58

[1499589980690]$GPGSA,A,3,10,24,01,17,13,19,28,15,12,,,,2.16,0.98,1.93*0A

[1499589980690]$GPGSV,3,1,12,01,14,038,33,10,13,316,31,11,06,026,09,12,23,243,38*75

[1499589980690]$GPGSV,3,2,12,13,33,181,33,15,47,229,28,17,54,095,36,18,10,290,*78

[1499589980690]$GPGSV,3,3,12,19,49,137,43,24,51,289,37,28,27,064,34,30,01,114,*74

[1499589980690]$GPGLL,5355.77167,N,02729.48623,E,054620.00,A,A*6F

[1499589981687]$GPRMC,054621.00,A,5355.77162,N,02729.48623,E,0.007,,090717,,,A*7D

[1499589981687]$GPVTG,,T,,M,0.007,N,0.013,K,A*26

[1499589981687]$GPGGA,054621.00,5355.77162,N,02729.48623,E,1,09,0.98,216.6,M,25.0,M,,*52

[1499589981687]$GPGSA,A,3,10,24,01,17,13,19,28,15,12,,,,2.16,0.98,1.93*0A

[1499589981687]$GPGSV,3,1,12,01,14,038,32,10,13,316,31,11,06,026,09,12,23,243,38*74

[1499589981687]$GPGSV,3,2,12,13,33,181,33,15,47,229,28,17,54,095,36,18,10,290,*78

[1499589981687]$GPGSV,3,3,12,19,49,137,43,24,51,289,37,28,27,064,34,30,01,114,*74

[1499589981687]$GPGLL,5355.77162,N,02729.48623,E,054621.00,A,A*6B

[1499589982697]$GPRMC,054622.00,A,5355.77159,N,02729.48620,E,0.018,,090717,,,A*7B

[1499589982697]$GPVTG,,T,,M,0.018,N,0.033,K,A*2A

[1499589982697]$GPGGA,054622.00,5355.77159,N,02729.48620,E,1,10,0.98,216.4,M,25.0,M,,*50

[1499589982697]$GPGSA,A,3,10,24,01,17,13,19,11,28,15,12,,,2.16,0.98,1.93*0A

[1499589982697]$GPGSV,3,1,12,01,14,038,31,10,13,316,31,11,06,026,09,12,23,243,39*76

[1499589982697]$GPGSV,3,2,12,13,33,181,33,15,47,229,28,17,54,095,36,18,10,290,12*7B

[1499589982697]$GPGSV,3,3,12,19,49,137,43,24,51,289,37,28,27,064,33,30,01,114,*73

[1499589982697]$GPGLL,5355.77159,N,02729.48620,E,054622.00,A,A*63

[1499589983691]$GPRMC,054623.00,A,5355.77155,N,02729.48618,E,0.016,,090717,,,A*73

[1499589983691]$GPVTG,,T,,M,0.016,N,0.029,K,A*2F

[1499589983691]$GPGGA,054623.00,5355.77155,N,02729.48618,E,1,10,0.98,216.2,M,25.0,M,,*50

[1499589983691]$GPGSA,A,3,10,24,01,17,13,19,11,28,15,12,,,2.16,0.98,1.93*0A

[1499589983691]$GPGSV,3,1,12,01,14,038,31,10,13,316,30,11,06,026,09,12,23,243,38*76

[1499589983691]$GPGSV,3,2,12,13,33,181,32,15,47,229,27,17,54,095,36,18,10,290,11*76

[1499589983691]$GPGSV,3,3,12,19,49,137,43,24,51,289,37,28,27,064,34,30,01,114,*74

[1499589983691]$GPGLL,5355.77155,N,02729.48618,E,054623.00,A,A*65

[1499589984697]$GPRMC,054624.00,A,5355.77149,N,02729.48617,E,0.071,,090717,,,A*77

[1499589984697]$GPVTG,,T,,M,0.071,N,0.131,K,A*26

[1499589984697]$GPGGA,054624.00,5355.77149,N,02729.48617,E,1,10,0.98,215.9,M,25.0,M,,*5D

[1499589984697]$GPGSA,A,3,10,24,01,17,13,19,11,28,15,12,,,2.16,0.98,1.93*0A

[1499589984697]$GPGSV,3,1,12,01,14,038,31,10,13,316,29,11,06,026,09,12,23,243,39*7F

[1499589984697]$GPGSV,3,2,12,13,33,181,32,15,47,229,27,17,54,095,36,18,10,290,09*7F

[1499589984697]$GPGSV,3,3,12,19,49,137,43,24,51,289,37,28,27,064,34,30,01,114,*74

[1499589984697]$GPGLL,5355.77149,N,02729.48617,E,054624.00,A,A*60

[1499589985687]$GPRMC,054625.00,A,5355.77144,N,02729.48615,E,0.021,,090717,,,A*7C

[1499589985687]$GPVTG,,T,,M,0.021,N,0.040,K,A*24

[1499589985687]$GPGGA,054625.00,5355.77144,N,02729.48615,E,1,10,0.96,215.6,M,25.0,M,,*52

[1499589985687]$GPGSA,A,3,10,24,01,17,13,19,11,28,15,12,,,2.10,0.96,1.87*07

[1499589985687]$GPGSV,3,1,12,01,14,038,31,10,13,316,29,11,06,026,09,12,23,243,39*7F

[1499589985687]$GPGSV,3,2,12,13,33,181,33,15,47,229,27,17,54,095,36,18,10,290,09*7E

[1499589985687]$GPGSV,3,3,12,19,49,137,43,24,51,289,37,28,27,064,34,30,01,114,*74

[1499589985687]$GPGLL,5355.77144,N,02729.48615,E,054625.00,A,A*6E

[1499589986698]$GPRMC,054626.00,A,5355.77139,N,02729.48611,E,0.025,,090717,,,A*75

[1499589986698]$GPVTG,,T,,M,0.025,N,0.046,K,A*26

[1499589986698]$GPGGA,054626.00,5355.77139,N,02729.48611,E,1,10,0.96,215.4,M,25.0,M,,*5D

[1499589986698]$GPGSA,A,3,10,24,01,17,13,19,11,28,15,12,,,2.10,0.96,1.87*07

[1499589986698]$GPGSV,3,1,12,01,14,038,32,10,13,316,29,11,06,026,14,12,23,243,39*70

[1499589986698]$GPGSV,3,2,12,13,33,181,33,15,47,229,27,17,54,095,36,18,10,290,*77

[1499589986698]$GPGSV,3,3,12,19,49,137,43,24,51,289,37,28,27,064,34,30,01,114,*74

[1499589986698]$GPGLL,5355.77139,N,02729.48611,E,054626.00,A,A*63

[1499589987687]$GPRMC,054627.00,A,5355.77136,N,02729.48609,E,0.017,,090717,,,A*73

[1499589987687]$GPVTG,,T,,M,0.017,N,0.031,K,A*27

[1499589987687]$GPGGA,054627.00,5355.77136,N,02729.48609,E,1,10,0.96,215.2,M,25.0,M,,*5C

[1499589987687]$GPGSA,A,3,10,24,01,17,13,19,11,28,15,12,,,2.10,0.96,1.87*07

[1499589987687]$GPGSV,3,1,12,01,14,038,32,10,13,316,29,11,06,026,14,12,23,243,39*70

[1499589987687]$GPGSV,3,2,12,13,33,181,32,15,47,229,27,17,54,095,36,18,10,290,*76

[1499589987687]$GPGSV,3,3,12,19,49,137,43,24,51,289,37,28,27,064,34,30,01,114,*74

[1499589987687]$GPGLL,5355.77136,N,02729.48609,E,054627.00,A,A*64

[1499589988697]$GPRMC,054628.00,A,5355.77132,N,02729.48609,E,0.010,,090717,,,A*7F

[1499589988697]$GPVTG,,T,,M,0.010,N,0.019,K,A*2A

[1499589988697]$GPGGA,054628.00,5355.77132,N,02729.48609,E,1,10,0.98,214.9,M,25.0,M,,*53

[1499589988697]$GPGSA,A,3,10,24,01,17,13,19,11,28,15,12,,,2.16,0.98,1.92*0B

[1499589988697]$GPGSV,3,1,12,01,14,038,32,10,13,316,29,11,06,026,14,12,23,243,39*70

[1499589988697]$GPGSV,3,2,12,13,33,181,32,15,47,229,27,17,54,095,37,18,10,290,*77

[1499589988697]$GPGSV,3,3,12,19,49,137,43,24,51,289,37,28,27,064,33,30,01,114,*73

[1499589988697]$GPGLL,5355.77132,N,02729.48609,E,054628.00,A,A*6F

[1499589989698]$GPRMC,054629.00,A,5355.77130,N,02729.48610,E,0.022,,090717,,,A*75

[1499589989698]$GPVTG,,T,,M,0.022,N,0.041,K,A*26

[1499589989698]$GPGGA,054629.00,5355.77130,N,02729.48610,E,1,10,0.98,214.8,M,25.0,M,,*59

[1499589989698]$GPGSA,A,3,10,24,01,17,13,19,11,28,15,12,,,2.16,0.98,1.92*0B

[1499589989698]$GPGSV,3,1,12,01,14,038,32,10,13,316,29,11,06,026,14,12,23,243,39*70

[1499589989698]$GPGSV,3,2,12,13,33,181,33,15,47,229,27,17,54,095,36,18,10,290,*77

[1499589989698]$GPGSV,3,3,12,19,49,137,43,24,51,289,36,28,27,064,33,30,01,114,*72

[1499589989698]$GPGLL,5355.77130,N,02729.48610,E,054629.00,A,A*64

[1499589990687]$GPRMC,054630.00,A,5355.77127,N,02729.48611,E,0.008,,090717,,,A*72

[1499589990687]$GPVTG,,T,,M,0.008,N,0.016,K,A*2C

[1499589990687]$GPGGA,054630.00,5355.77127,N,02729.48611,E,1,10,0.98,214.5,M,25.0,M,,*5B

[1499589990687]$GPGSA,A,3,10,24,01,17,13,19,11,28,15,12,,,2.16,0.98,1.92*0B

[1499589990687]$GPGSV,3,1,12,01,14,038,33,10,13,316,29,11,06,026,14,12,23,243,39*71

[1499589990687]$GPGSV,3,2,12,13,33,181,33,15,47,229,27,17,54,095,36,18,10,290,*77

[1499589990687]$GPGSV,3,3,12,19,49,137,43,24,51,289,37,28,27,064,33,30,01,114,*73

[1499589990687]$GPGLL,5355.77127,N,02729.48611,E,054630.00,A,A*6B

[1499589991688]$GPRMC,054631.00,A,5355.77126,N,02729.48613,E,0.023,,090717,,,A*79

[1499589991688]$GPVTG,,T,,M,0.023,N,0.042,K,A*24

[1499589991688]$GPGGA,054631.00,5355.77126,N,02729.48613,E,1,09,0.98,214.4,M,25.0,M,,*50

[1499589991688]$GPGSA,A,3,10,24,01,17,13,19,28,15,12,,,,2.16,0.98,1.92*0B

[1499589991688]$GPGSV,3,1,12,01,14,038,32,10,13,316,29,11,06,026,,12,23,243,39*75

[1499589991688]$GPGSV,3,2,12,13,33,181,33,15,47,229,27,17,54,095,37,18,10,290,*76

[1499589991688]$GPGSV,3,3,12,19,49,137,43,24,51,289,37,28,27,064,33,30,01,114,*73

[1499589991688]$GPGLL,5355.77126,N,02729.48613,E,054631.00,A,A*69

[1499589992687]$GPRMC,054632.00,A,5355.77126,N,02729.48613,E,0.018,,090717,,,A*72

[1499589992687]$GPVTG,,T,,M,0.018,N,0.033,K,A*2A

[1499589992687]$GPGGA,054632.00,5355.77126,N,02729.48613,E,1,09,0.98,214.3,M,25.0,M,,*54

[1499589992687]$GPGSA,A,3,10,24,01,17,13,19,28,15,12,,,,2.16,0.98,1.92*0B

[1499589992687]$GPGSV,3,1,12,01,14,038,31,10,13,316,30,11,06,026,,12,24,243,39*79

[1499589992687]$GPGSV,3,2,12,13,33,181,33,15,47,229,26,17,54,095,37,18,10,290,*77

[1499589992687]$GPGSV,3,3,12,19,49,137,43,24,51,289,36,28,27,064,33,30,01,114,*72

[1499589992687]$GPGLL,5355.77126,N,02729.48613,E,054632.00,A,A*6A

[1499589993688]$GPRMC,054633.00,A,5355.77125,N,02729.48614,E,0.027,,090717,,,A*7B

[1499589993688]$GPVTG,,T,,M,0.027,N,0.050,K,A*23

[1499589993688]$GPGGA,054633.00,5355.77125,N,02729.48614,E,1,09,0.98,214.2,M,25.0,M,,*50

[1499589993688]$GPGSA,A,3,10,24,01,17,13,19,28,15,12,,,,2.16,0.98,1.92*0B

[1499589993688]$GPGSV,3,1,12,01,14,038,30,10,13,316,29,11,06,026,,12,24,243,39*70

[1499589993688]$GPGSV,3,2,12,13,32,181,33,15,47,229,27,17,54,095,37,18,10,290,*77

[1499589993688]$GPGSV,3,3,12,19,49,137,43,24,51,289,36,28,27,064,33,30,01,114,*72

[1499589993688]$GPGLL,5355.77125,N,02729.48614,E,054633.00,A,A*6F

[1499589994688]$GPRMC,054634.00,A,5355.77126,N,02729.48613,E,0.027,,090717,,,A*78

[1499589994688]$GPVTG,,T,,M,0.027,N,0.050,K,A*23

[1499589994688]$GPGGA,054634.00,5355.77126,N,02729.48613,E,1,09,0.98,214.2,M,25.0,M,,*53

[1499589994688]$GPGSA,A,3,10,24,01,17,13,19,28,15,12,,,,2.16,0.98,1.92*0B

[1499589994688]$GPGSV,3,1,12,01,14,038,30,10,13,316,29,11,06,026,,12,24,243,39*70

[1499589994688]$GPGSV,3,2,12,13,32,181,33,15,47,229,26,17,54,095,37,18,10,290,*76

[1499589994688]$GPGSV,3,3,12,19,49,137,43,24,51,289,36,28,27,064,33,30,01,114,*72

[1499589994688]$GPGLL,5355.77126,N,02729.48613,E,054634.00,A,A*6C

[1499589995688]$GPRMC,054635.00,A,5355.77125,N,02729.48610,E,0.021,,090717,,,A*7F

[1499589995688]$GPVTG,,T,,M,0.021,N,0.039,K,A*2A

[1499589995688]$GPGGA,054635.00,5355.77125,N,02729.48610,E,1,09,0.98,214.1,M,25.0,M,,*51

[1499589995688]$GPGSA,A,3,10,24,01,17,13,19,28,15,12,,,,2.16,0.98,1.92*0B

[1499589995688]$GPGSV,3,1,12,01,14,038,30,10,13,316,29,11,06,026,,12,24,243,39*70

[1499589995688]$GPGSV,3,2,12,13,32,181,33,15,46,229,26,17,54,095,37,18,10,290,*77

[1499589995688]$GPGSV,3,3,12,19,49,137,43,24,51,289,36,28,27,064,33,30,01,114,*72

[1499589995688]$GPGLL,5355.77125,N,02729.48610,E,054635.00,A,A*6D

[1499589996690]$GPRMC,054636.00,A,5355.77123,N,02729.48609,E,0.023,,090717,,,A*70

[1499589996690]$GPVTG,,T,,M,0.023,N,0.043,K,A*25

[1499589996690]$GPGGA,054636.00,5355.77123,N,02729.48609,E,1,09,0.98,214.1,M,25.0,M,,*5C

[1499589996690]$GPGSA,A,3,10,24,01,17,13,19,28,15,12,,,,2.16,0.98,1.92*0B

[1499589996690]$GPGSV,3,1,12,01,14,038,30,10,13,316,29,11,06,026,,12,24,243,39*70

[1499589996690]$GPGSV,3,2,12,13,32,181,33,15,46,229,27,17,54,095,37,18,10,290,*76

[1499589996690]$GPGSV,3,3,12,19,49,137,43,24,51,289,36,28,27,064,33,30,01,114,*72

[1499589996690]$GPGLL,5355.77123,N,02729.48609,E,054636.00,A,A*60

[1499589997687]$GPRMC,054637.00,A,5355.77123,N,02729.48612,E,0.029,,090717,,,A*71

[1499589997687]$GPVTG,,T,,M,0.029,N,0.053,K,A*2E

[1499589997687]$GPGGA,054637.00,5355.77123,N,02729.48612,E,1,09,0.98,213.9,M,25.0,M,,*58

[1499589997687]$GPGSA,A,3,10,24,01,17,13,19,28,15,12,,,,2.15,0.98,1.92*08

[1499589997687]$GPGSV,3,1,12,01,14,038,31,10,13,316,29,11,06,026,,12,24,243,39*71

[1499589997687]$GPGSV,3,2,12,13,32,181,33,15,46,229,27,17,54,094,37,18,10,290,*77

[1499589997687]$GPGSV,3,3,12,19,49,137,43,24,51,289,36,28,27,064,33,30,01,114,*72

[1499589997687]$GPGLL,5355.77123,N,02729.48612,E,054637.00,A,A*6B

[1499589998688]$GPRMC,054638.00,A,5355.77124,N,02729.48611,E,0.019,,090717,,,A*79

[1499589998688]$GPVTG,,T,,M,0.019,N,0.035,K,A*2D

[1499589998688]$GPGGA,054638.00,5355.77124,N,02729.48611,E,1,09,0.96,213.9,M,25.0,M,,*5D

[1499589998688]$GPGSA,A,3,10,24,01,17,13,19,28,15,12,,,,2.10,0.96,1.87*07

[1499589998688]$GPGSV,3,1,12,01,14,038,31,10,13,316,29,11,06,026,,12,24,243,39*71

[1499589998688]$GPGSV,3,2,12,13,32,181,33,15,46,229,27,17,54,094,37,18,10,290,*77

[1499589998688]$GPGSV,3,3,12,19,49,137,42,24,51,289,36,28,27,064,33,30,01,114,*73

[1499589998688]$GPGLL,5355.77124,N,02729.48611,E,054638.00,A,A*60

[1499589999692]$GPRMC,054639.00,A,5355.77125,N,02729.48610,E,0.021,,090717,,,A*73

[1499589999692]$GPVTG,,T,,M,0.021,N,0.038,K,A*2B

[1499589999692]$GPGGA,054639.00,5355.77125,N,02729.48610,E,1,09,0.96,213.7,M,25.0,M,,*52

[1499589999692]$GPGSA,A,3,10,24,01,17,13,19,28,15,12,,,,2.10,0.96,1.87*07

[1499589999692]$GPGSV,3,1,12,01,14,038,31,10,13,316,29,11,06,026,,12,24,243,39*71

[1499589999692]$GPGSV,3,2,12,13,32,181,33,15,46,229,27,17,54,094,37,18,10,290,*77

[1499589999692]$GPGSV,3,3,12,19,49,137,42,24,51,289,36,28,27,064,33,30,01,114,*73

[1499589999692]$GPGLL,5355.77125,N,02729.48610,E,054639.00,A,A*61

[1499590000697]$GPRMC,054640.00,A,5355.77124,N,02729.48610,E,0.011,,090717,,,A*7F

[1499590000697]$GPVTG,,T,,M,0.011,N,0.020,K,A*21

[1499590000697]$GPGGA,054640.00,5355.77124,N,02729.48610,E,1,09,0.96,213.6,M,25.0,M,,*5C

[1499590000697]$GPGSA,A,3,10,24,01,17,13,19,28,15,12,,,,2.10,0.96,1.87*07

[1499590000697]$GPGSV,3,1,12,01,14,038,30,10,13,316,28,11,06,026,06,12,24,243,39*77

[1499590000697]$GPGSV,3,2,12,13,32,181,33,15,46,229,27,17,54,094,37,18,10,290,*77

[1499590000697]$GPGSV,3,3,12,19,49,137,42,24,51,289,37,28,27,064,33,30,01,114,*72

[1499590000697]$GPGLL,5355.77124,N,02729.48610,E,054640.00,A,A*6E

[1499590001687]$GPRMC,054641.00,A,5355.77123,N,02729.48611,E,0.036,,090717,,,A*7D

[1499590001687]$GPVTG,,T,,M,0.036,N,0.067,K,A*27

[1499590001687]$GPGGA,054641.00,5355.77123,N,02729.48611,E,1,09,0.96,213.4,M,25.0,M,,*59

[1499590001687]$GPGSA,A,3,10,24,01,17,13,19,28,15,12,,,,2.10,0.96,1.87*07

[1499590001687]$GPGSV,3,1,12,01,14,038,30,10,13,316,29,11,06,026,10,12,24,243,40*7F

[1499590001687]$GPGSV,3,2,12,13,32,181,33,15,46,229,28,17,54,094,37,18,10,290,*78

[1499590001687]$GPGSV,3,3,12,19,49,137,42,24,51,289,36,28,27,064,33,30,01,114,*73

[1499590001687]$GPGLL,5355.77123,N,02729.48611,E,054641.00,A,A*69

[1499590002701]$GPRMC,054642.00,A,5355.77125,N,02729.48616,E,0.027,,090717,,,A*7F

[1499590002701]$GPVTG,,T,,M,0.027,N,0.049,K,A*2B

[1499590002701]$GPGGA,054642.00,5355.77125,N,02729.48616,E,1,09,0.96,213.3,M,25.0,M,,*5C

[1499590002701]$GPGSA,A,3,10,24,01,17,13,19,28,15,12,,,,2.10,0.96,1.87*07

[1499590002701]$GPGSV,3,1,12,01,14,038,29,10,13,316,29,11,06,026,11,12,24,243,40*76

[1499590002701]$GPGSV,3,2,12,13,32,181,33,15,46,229,28,17,54,094,37,18,10,290,*78

[1499590002701]$GPGSV,3,3,12,19,49,137,42,24,51,289,36,28,27,064,33,30,01,114,*73

[1499590002701]$GPGLL,5355.77125,N,02729.48616,E,054642.00,A,A*6B

[1499590003687]$GPRMC,054643.00,A,5355.77127,N,02729.48619,E,0.024,,090717,,,A*70

[1499590003687]$GPVTG,,T,,M,0.024,N,0.044,K,A*25

[1499590003687]$GPGGA,054643.00,5355.77127,N,02729.48619,E,1,09,0.96,213.2,M,25.0,M,,*51

[1499590003687]$GPGSA,A,3,10,24,01,17,13,19,28,15,12,,,,2.10,0.96,1.87*07

[1499590003687]$GPGSV,3,1,12,01,14,038,30,10,13,316,28,11,06,026,12,12,24,243,40*7C

[1499590003687]$GPGSV,3,2,12,13,32,181,33,15,46,229,29,17,54,094,37,18,10,290,*79

[1499590003687]$GPGSV,3,3,12,19,49,137,43,24,51,289,36,28,27,064,33,30,01,114,*72

[1499590003687]$GPGLL,5355.77127,N,02729.48619,E,054643.00,A,A*67

[1499590004698]$GPRMC,054644.00,A,5355.77129,N,02729.48620,E,0.021,,090717,,,A*76

[1499590004698]$GPVTG,,T,,M,0.021,N,0.039,K,A*2A

[1499590004698]$GPGGA,054644.00,5355.77129,N,02729.48620,E,1,10,0.96,213.3,M,25.0,M,,*5B

[1499590004698]$GPGSA,A,3,10,24,01,17,13,19,11,28,15,12,,,2.10,0.96,1.87*07

[1499590004698]$GPGSV,3,1,12,01,14,038,29,10,13,316,29,11,06,026,12,12,24,243,40*75

[1499590004698]$GPGSV,3,2,12,13,32,181,33,15,46,229,29,17,54,094,37,18,10,290,*79

[1499590004698]$GPGSV,3,3,12,19,49,137,43,24,51,289,36,28,27,064,33,30,01,114,*72

[1499590004698]$GPGLL,5355.77129,N,02729.48620,E,054644.00,A,A*64

[1499590005687]$GPRMC,054645.00,A,5355.77130,N,02729.48621,E,0.023,,090717,,,A*7C

[1499590005687]$GPVTG,,T,,M,0.023,N,0.043,K,A*25

[1499590005687]$GPGGA,054645.00,5355.77130,N,02729.48621,E,1,10,0.96,213.2,M,25.0,M,,*52

[1499590005687]$GPGSA,A,3,10,24,01,17,13,19,11,28,15,12,,,2.10,0.96,1.87*07

[1499590005687]$GPGSV,3,1,12,01,14,038,29,10,13,316,29,11,06,026,12,12,24,243,40*75

[1499590005687]$GPGSV,3,2,12,13,32,181,33,15,46,229,29,17,54,094,37,18,10,290,*79

[1499590005687]$GPGSV,3,3,12,19,49,137,43,24,51,289,36,28,27,064,33,30,01,114,*72

[1499590005687]$GPGLL,5355.77130,N,02729.48621,E,054645.00,A,A*6C

[1499590006698]$GPRMC,054646.00,A,5355.77130,N,02729.48620,E,0.004,,090717,,,A*7B

[1499590006698]$GPVTG,,T,,M,0.004,N,0.007,K,A*20

[1499590006698]$GPGGA,054646.00,5355.77130,N,02729.48620,E,1,10,0.96,213.1,M,25.0,M,,*53

[1499590006698]$GPGSA,A,3,10,24,01,17,13,19,11,28,15,12,,,2.10,0.96,1.87*07

[1499590006698]$GPGSV,3,1,12,01,14,038,29,10,13,316,29,11,06,026,12,12,24,243,40*75

[1499590006698]$GPGSV,3,2,12,13,32,181,33,15,46,229,30,17,54,094,37,18,10,290,*71

[1499590006698]$GPGSV,3,3,12,19,49,137,43,24,51,289,36,28,27,064,33,30,01,114,*72

[1499590006698]$GPGLL,5355.77130,N,02729.48620,E,054646.00,A,A*6E

[1499590007691]$GPRMC,054647.00,A,5355.77129,N,02729.48618,E,0.024,,090717,,,A*7B

[1499590007691]$GPVTG,,T,,M,0.024,N,0.045,K,A*24

[1499590007691]$GPGGA,054647.00,5355.77129,N,02729.48618,E,1,10,0.96,212.9,M,25.0,M,,*58

[1499590007691]$GPGSA,A,3,10,24,01,17,13,19,11,28,15,12,,,2.10,0.96,1.87*07

[1499590007691]$GPGSV,3,1,12,01,14,038,30,10,13,316,29,11,06,026,12,12,24,243,40*7D

[1499590007691]$GPGSV,3,2,12,13,32,181,33,15,46,229,30,17,54,094,37,18,10,290,*71

[1499590007691]$GPGSV,3,3,12,19,49,137,43,24,51,289,37,28,27,064,33,30,01,114,*73

[1499590007691]$GPGLL,5355.77129,N,02729.48618,E,054647.00,A,A*6C

[1499590008698]$GPRMC,054648.00,A,5355.77130,N,02729.48618,E,0.010,,090717,,,A*7B

[1499590008698]$GPVTG,,T,,M,0.010,N,0.019,K,A*2A

[1499590008698]$GPGGA,054648.00,5355.77130,N,02729.48618,E,1,10,0.96,212.8,M,25.0,M,,*5E

[1499590008698]$GPGSA,A,3,10,24,01,17,13,19,11,28,15,12,,,2.10,0.96,1.87*07

[1499590008698]$GPGSV,3,1,12,01,14,038,30,10,13,316,29,11,06,026,13,12,24,243,40*7C

[1499590008698]$GPGSV,3,2,12,13,32,181,32,15,46,229,29,17,54,094,37,18,10,290,*78

[1499590008698]$GPGSV,3,3,12,19,49,137,43,24,51,289,37,28,27,065,33,30,01,114,*72

[1499590008698]$GPGLL,5355.77130,N,02729.48618,E,054648.00,A,A*6B

[1499590009688]$GPRMC,054649.00,A,5355.77131,N,02729.48618,E,0.025,,090717,,,A*7D

[1499590009688]$GPVTG,,T,,M,0.025,N,0.047,K,A*27

[1499590009688]$GPGGA,054649.00,5355.77131,N,02729.48618,E,1,10,0.96,212.7,M,25.0,M,,*51

[1499590009688]$GPGSA,A,3,10,24,01,17,13,19,11,28,15,12,,,2.10,0.96,1.87*07

[1499590009688]$GPGSV,3,1,12,01,14,038,29,10,13,316,30,11,06,026,12,12,24,243,40*7D

[1499590009688]$GPGSV,3,2,12,13,32,181,32,15,46,229,29,17,54,094,37,18,10,290,*78

[1499590009688]$GPGSV,3,3,12,19,49,137,43,24,51,289,37,28,27,065,32,30,01,114,*73

[1499590009688]$GPGLL,5355.77131,N,02729.48618,E,054649.00,A,A*6B

[1499590010687]$GPRMC,054650.00,A,5355.77135,N,02729.48619,E,0.015,,090717,,,A*73

[1499590010687]$GPVTG,,T,,M,0.015,N,0.028,K,A*2D

[1499590010687]$GPGGA,054650.00,5355.77135,N,02729.48619,E,1,10,0.96,212.6,M,25.0,M,,*5D

[1499590010687]$GPGSA,A,3,10,24,01,17,13,19,11,28,15,12,,,2.10,0.96,1.87*07

[1499590010687]$GPGSV,3,1,12,01,14,038,29,10,13,316,30,11,06,026,10,12,24,243,40*7F

[1499590010687]$GPGSV,3,2,12,13,32,181,33,15,46,229,29,17,54,094,37,18,10,290,*79

[1499590010687]$GPGSV,3,3,12,19,49,137,43,24,51,289,36,28,27,065,33,30,01,114,*73

[1499590010687]$GPGLL,5355.77135,N,02729.48619,E,054650.00,A,A*66

[1499590011687]$GPRMC,054651.00,A,5355.77137,N,02729.48620,E,0.023,,090717,,,A*7F

[1499590011687]$GPVTG,,T,,M,0.023,N,0.042,K,A*24

[1499590011687]$GPGGA,054651.00,5355.77137,N,02729.48620,E,1,10,0.96,212.7,M,25.0,M,,*55

[1499590011687]$GPGSA,A,3,10,24,01,17,13,19,11,28,15,12,,,2.10,0.96,1.87*07

[1499590011687]$GPGSV,3,1,12,01,14,038,28,10,13,316,31,11,06,026,11,12,24,243,40*7E

[1499590011687]$GPGSV,3,2,12,13,32,181,33,15,46,229,30,17,54,094,37,18,10,290,*71

[1499590011687]$GPGSV,3,3,12,19,49,137,43,24,51,289,36,28,27,065,33,30,01,114,*73

[1499590011687]$GPGLL,5355.77137,N,02729.48620,E,054651.00,A,A*6F

[1499590012688]$GPRMC,054652.00,A,5355.77140,N,02729.48621,E,0.003,,090717,,,A*7F

[1499590012688]$GPVTG,,T,,M,0.003,N,0.005,K,A*25

[1499590012688]$GPGGA,054652.00,5355.77140,N,02729.48621,E,1,09,0.96,212.7,M,25.0,M,,*5F

[1499590012688]$GPGSA,A,3,10,24,01,17,13,19,28,15,12,,,,2.10,0.96,1.87*07

[1499590012688]$GPGSV,3,1,12,01,14,038,28,10,13,316,30,11,06,026,11,12,24,243,40*7F

[1499590012688]$GPGSV,3,2,12,13,32,181,32,15,46,229,30,17,54,094,37,18,10,290,*70

[1499590012688]$GPGSV,3,3,12,19,49,137,43,24,51,289,37,28,27,065,33,30,01,114,*72

[1499590012688]$GPGLL,5355.77140,N,02729.48621,E,054652.00,A,A*6D

[1499590013687]$GPRMC,054653.00,A,5355.77142,N,02729.48622,E,0.015,,090717,,,A*78

[1499590013687]$GPVTG,,T,,M,0.015,N,0.028,K,A*2D

[1499590013687]$GPGGA,054653.00,5355.77142,N,02729.48622,E,1,09,0.96,212.7,M,25.0,M,,*5F

[1499590013687]$GPGSA,A,3,10,24,01,17,13,19,28,15,12,,,,2.10,0.96,1.87*07

[1499590013687]$GPGSV,3,1,12,01,14,038,28,10,13,316,30,11,06,026,11,12,24,243,40*7F

[1499590013687]$GPGSV,3,2,12,13,32,181,32,15,46,229,30,17,54,094,37,18,10,290,*70

[1499590013687]$GPGSV,3,3,12,19,49,137,43,24,51,289,36,28,27,065,32,30,01,114,*72

[1499590013687]$GPGLL,5355.77142,N,02729.48622,E,054653.00,A,A*6D

[1499590014698]$GPRMC,054654.00,A,5355.77142,N,02729.48624,E,0.033,,090717,,,A*7D

[1499590014698]$GPVTG,,T,,M,0.033,N,0.062,K,A*27

[1499590014698]$GPGGA,054654.00,5355.77142,N,02729.48624,E,1,09,0.96,212.6,M,25.0,M,,*5F

[1499590014698]$GPGSA,A,3,10,24,01,17,13,19,28,15,12,,,,2.10,0.96,1.87*07

[1499590014698]$GPGSV,3,1,12,01,14,038,28,10,13,316,30,11,06,026,11,12,24,243,40*7F

[1499590014698]$GPGSV,3,2,12,13,32,181,32,15,46,229,30,17,54,094,37,18,10,290,*70

[1499590014698]$GPGSV,3,3,12,19,49,137,42,24,51,289,36,28,27,065,32,30,01,114,*73

[1499590014698]$GPGLL,5355.77142,N,02729.48624,E,054654.00,A,A*6C

[1499590015691]$GPRMC,054655.00,A,5355.77145,N,02729.48627,E,0.025,,090717,,,A*7F

[1499590015691]$GPVTG,,T,,M,0.025,N,0.046,K,A*26

[1499590015691]$GPGGA,054655.00,5355.77145,N,02729.48627,E,1,09,0.96,212.6,M,25.0,M,,*5A

[1499590015691]$GPGSA,A,3,10,24,01,17,13,19,28,15,12,,,,2.10,0.96,1.87*07

[1499590015691]$GPGSV,3,1,12,01,14,038,29,10,13,316,31,11,06,026,11,12,24,243,40*7F

[1499590015691]$GPGSV,3,2,12,13,32,181,33,15,46,229,30,17,54,094,37,18,10,290,*71

[1499590015691]$GPGSV,3,3,12,19,49,137,43,24,51,289,36,28,27,065,32,30,01,114,*72

[1499590015691]$GPGLL,5355.77145,N,02729.48627,E,054655.00,A,A*69

[1499590016687]$GPRMC,054656.00,A,5355.77147,N,02729.48631,E,0.043,,090717,,,A*79

[1499590016687]$GPVTG,,T,,M,0.043,N,0.080,K,A*2C

[1499590016687]$GPGGA,054656.00,5355.77147,N,02729.48631,E,1,09,0.96,212.6,M,25.0,M,,*5C

[1499590016687]$GPGSA,A,3,10,24,01,17,13,19,28,15,12,,,,2.10,0.96,1.86*06

[1499590016687]$GPGSV,3,1,12,01,14,038,29,10,13,316,31,11,06,026,05,12,24,243,39*74

[1499590016687]$GPGSV,3,2,12,13,32,181,33,15,46,229,31,17,54,094,37,18,10,290,*70

[1499590016687]$GPGSV,3,3,12,19,49,137,42,24,51,289,37,28,27,065,32,30,01,114,*72

[1499590016687]$GPGLL,5355.77147,N,02729.48631,E,054656.00,A,A*6F

[1499590017688]$GPRMC,054657.00,A,5355.77151,N,02729.48635,E,0.010,,090717,,,A*7D

[1499590017688]$GPVTG,,T,,M,0.010,N,0.018,K,A*2B

[1499590017688]$GPGGA,054657.00,5355.77151,N,02729.48635,E,1,09,0.96,212.6,M,25.0,M,,*5E

[1499590017688]$GPGSA,A,3,10,24,01,17,13,19,28,15,12,,,,2.10,0.96,1.86*06

[1499590017688]$GPGSV,3,1,12,01,14,038,28,10,13,316,31,11,06,026,05,12,24,243,40*7B

[1499590017688]$GPGSV,3,2,12,13,32,181,32,15,46,229,31,17,54,094,37,18,10,290,*71

[1499590017688]$GPGSV,3,3,12,19,49,137,42,24,51,289,37,28,27,065,32,30,01,114,*72

[1499590017688]$GPGLL,5355.77151,N,02729.48635,E,054657.00,A,A*6D

