[1499589742688]$GPRMC,054222.00,A,5355.76944,N,02729.48802,E,0.032,,090717,,,A*7C

[1499589742688]$GPVTG,,T,,M,0.032,N,0.059,K,A*2E

[1499589742688]$GPGGA,054222.00,5355.76944,N,02729.48802,E,1,11,0.94,205.4,M,25.0,M,,*50

[1499589742688]$GPGSA,A,3,10,24,01,17,13,19,11,18,28,15,12,,2.05,0.94,1.82*0D

[1499589742688]$GPGSV,3,1,12,01,14,040,31,10,13,318,30,11,07,027,09,12,22,242,07*7B

[1499589742688]$GPGSV,3,2,12,13,34,181,29,15,48,231,25,17,54,098,41,18,11,292,11*71

[1499589742688]$GPGSV,3,3,12,19,47,139,37,24,49,289,33,28,29,064,31,30,03,113,17*72

[1499589742688]$GPGLL,5355.76944,N,02729.48802,E,054222.00,A,A*6C

[1499589743691]$GPRMC,054223.00,A,5355.76942,N,02729.48799,E,0.073,,090717,,,A*73

[1499589743691]$GPVTG,,T,,M,0.073,N,0.136,K,A*23

[1499589743691]$GPGGA,054223.00,5355.76942,N,02729.48799,E,1,11,0.94,205.3,M,25.0,M,,*5D

[1499589743691]$GPGSA,A,3,10,24,01,17,13,19,11,18,28,15,12,,2.05,0.94,1.82*0D

[1499589743691]$GPGSV,3,1,12,01,14,040,30,10,13,318,30,11,07,027,09,12,22,242,07*7A

[1499589743691]$GPGSV,3,2,12,13,34,181,28,15,48,231,24,17,54,098,40,18,11,292,11*70

[1499589743691]$GPGSV,3,3,12,19,47,139,35,24,49,289,32,28,29,064,30,30,03,113,16*71

[1499589743691]$GPGLL,5355.76942,N,02729.48799,E,054223.00,A,A*66

[1499589744698]$GPRMC,054224.00,A,5355.76940,N,02729.48793,E,0.037,,090717,,,A*7C

[1499589744698]$GPVTG,,T,,M,0.037,N,0.069,K,A*28

[1499589744698]$GPGGA,054224.00,5355.76940,N,02729.48793,E,1,11,0.94,205.1,M,25.0,M,,*50

[1499589744698]$GPGSA,A,3,10,24,01,17,13,19,11,18,28,15,12,,2.05,0.94,1.82*0D

[1499589744698]$GPGSV,3,1,12,01,14,040,31,10,13,318,30,11,07,027,09,12,22,242,07*7B

[1499589744698]$GPGSV,3,2,12,13,34,181,29,15,48,231,24,17,54,098,41,18,11,292,11*70

[1499589744698]$GPGSV,3,3,12,19,47,139,37,24,49,289,33,28,29,064,31,30,03,113,17*72

[1499589744698]$GPGLL,5355.76940,N,02729.48793,E,054224.00,A,A*69

[1499589745687]$GPRMC,054225.00,A,5355.76939,N,02729.48790,E,0.043,,090717,,,A*73

[1499589745687]$GPVTG,,T,,M,0.043,N,0.080,K,A*2C

[1499589745687]$GPGGA,054225.00,5355.76939,N,02729.48790,E,1,11,0.94,204.9,M,25.0,M,,*55

[1499589745687]$GPGSA,A,3,10,24,01,17,13,19,11,18,28,15,12,,2.05,0.94,1.82*0D

[1499589745687]$GPGSV,3,1,12,01,14,040,31,10,13,318,30,11,07,027,09,12,22,242,07*7B

[1499589745687]$GPGSV,3,2,12,13,34,181,29,15,48,231,24,17,54,098,42,18,11,292,11*73

[1499589745687]$GPGSV,3,3,12,19,47,139,37,24,49,289,33,28,29,064,32,30,03,113,17*71

[1499589745687]$GPGLL,5355.76939,N,02729.48790,E,054225.00,A,A*65

[1499589746687]$GPRMC,054226.00,A,5355.76935,N,02729.48784,E,0.056,,090717,,,A*7D

[1499589746687]$GPVTG,,T,,M,0.056,N,0.103,K,A*22

[1499589746687]$GPGGA,054226.00,5355.76935,N,02729.48784,E,1,10,0.95,204.7,M,25.0,M,,*51

[1499589746687]$GPGSA,A,3,10,24,01,17,13,19,11,28,15,12,,,2.02,0.95,1.79*06

[1499589746687]$GPGSV,3,1,12,01,14,040,31,10,13,318,30,11,07,027,08,12,22,242,15*79

[1499589746687]$GPGSV,3,2,12,13,34,181,29,15,48,231,25,17,54,098,42,18,11,292,*72

[1499589746687]$GPGSV,3,3,12,19,47,139,37,24,50,289,33,28,29,064,32,30,03,113,17*79

[1499589746687]$GPGLL,5355.76935,N,02729.48784,E,054226.00,A,A*6F

[1499589747687]$GPRMC,054227.00,A,5355.76931,N,02729.48778,E,0.031,,090717,,,A*7A

[1499589747687]$GPVTG,,T,,M,0.031,N,0.057,K,A*23

[1499589747687]$GPGGA,054227.00,5355.76931,N,02729.48778,E,1,10,0.95,204.6,M,25.0,M,,*56

[1499589747687]$GPGSA,A,3,10,24,01,17,13,19,11,28,15,12,,,2.02,0.95,1.79*06

[1499589747687]$GPGSV,3,1,12,01,14,040,31,10,13,318,30,11,07,027,08,12,22,242,15*79

[1499589747687]$GPGSV,3,2,12,13,34,181,29,15,48,231,26,17,54,098,42,18,11,292,*71

[1499589747687]$GPGSV,3,3,12,19,47,139,36,24,50,289,33,28,29,064,32,30,03,113,16*79

[1499589747687]$GPGLL,5355.76931,N,02729.48778,E,054227.00,A,A*69

[1499589748697]$GPRMC,054228.00,A,5355.76926,N,02729.48774,E,0.068,,090717,,,A*73

[1499589748697]$GPVTG,,T,,M,0.068,N,0.125,K,A*2B

[1499589748697]$GPGGA,054228.00,5355.76926,N,02729.48774,E,1,10,0.95,204.7,M,25.0,M,,*52

[1499589748697]$GPGSA,A,3,10,24,01,17,13,19,11,28,15,12,,,2.02,0.95,1.79*06

[1499589748697]$GPGSV,3,1,12,01,14,040,32,10,13,318,30,11,07,027,08,12,22,242,15*7A

[1499589748697]$GPGSV,3,2,12,13,34,181,29,15,48,231,26,17,54,098,42,18,11,292,*71

[1499589748697]$GPGSV,3,3,12,19,47,139,36,24,50,289,33,28,29,064,32,30,03,113,15*7A

[1499589748697]$GPGLL,5355.76926,N,02729.48774,E,054228.00,A,A*6C

[1499589749698]$GPRMC,054229.00,A,5355.76923,N,02729.48769,E,0.032,,090717,,,A*74

[1499589749698]$GPVTG,,T,,M,0.032,N,0.060,K,A*24

[1499589749698]$GPGGA,054229.00,5355.76923,N,02729.48769,E,1,10,0.95,204.7,M,25.0,M,,*5A

[1499589749698]$GPGSA,A,3,10,24,01,17,13,19,11,28,15,12,,,2.02,0.95,1.79*06

[1499589749698]$GPGSV,3,1,12,01,14,040,31,10,13,318,30,11,07,027,08,12,22,242,15*79

[1499589749698]$GPGSV,3,2,12,13,34,181,29,15,48,231,26,17,54,098,42,18,11,292,14*74

[1499589749698]$GPGSV,3,3,12,19,47,139,36,24,50,289,33,28,29,064,32,30,03,113,14*7B

[1499589749698]$GPGLL,5355.76923,N,02729.48769,E,054229.00,A,A*64

[1499589750697]$GPRMC,054230.00,A,5355.76920,N,02729.48764,E,0.038,,090717,,,A*78

[1499589750697]$GPVTG,,T,,M,0.038,N,0.071,K,A*2E

[1499589750697]$GPGGA,054230.00,5355.76920,N,02729.48764,E,1,10,0.95,204.7,M,25.0,M,,*5C

[1499589750697]$GPGSA,A,3,10,24,01,17,13,19,11,28,15,12,,,2.02,0.95,1.79*06

[1499589750697]$GPGSV,3,1,12,01,14,040,31,10,13,318,30,11,07,027,08,12,22,242,15*79

[1499589750697]$GPGSV,3,2,12,13,34,181,29,15,48,231,26,17,54,098,42,18,11,292,13*73

[1499589750697]$GPGSV,3,3,12,19,47,139,36,24,50,289,33,28,29,064,32,30,03,113,12*7D

[1499589750697]$GPGLL,5355.76920,N,02729.48764,E,054230.00,A,A*62

[1499589751687]$GPRMC,054231.00,A,5355.76917,N,02729.48761,E,0.018,,090717,,,A*7A

[1499589751687]$GPVTG,,T,,M,0.018,N,0.032,K,A*2B

[1499589751687]$GPGGA,054231.00,5355.76917,N,02729.48761,E,1,10,0.95,204.6,M,25.0,M,,*5D

[1499589751687]$GPGSA,A,3,10,24,01,17,13,19,11,28,15,12,,,2.02,0.95,1.79*06

[1499589751687]$GPGSV,3,1,12,01,14,040,31,10,13,318,31,11,07,027,08,12,22,242,15*78

[1499589751687]$GPGSV,3,2,12,13,34,181,29,15,48,231,26,17,54,098,42,18,11,292,12*72

[1499589751687]$GPGSV,3,3,12,19,47,139,36,24,50,289,33,28,29,064,32,30,03,113,09*77

[1499589751687]$GPGLL,5355.76917,N,02729.48761,E,054231.00,A,A*62

[1499589752687]$GPRMC,054232.00,A,5355.76913,N,02729.48758,E,0.058,,090717,,,A*73

[1499589752687]$GPVTG,,T,,M,0.058,N,0.108,K,A*27

[1499589752687]$GPGGA,054232.00,5355.76913,N,02729.48758,E,1,10,0.95,204.5,M,25.0,M,,*53

[1499589752687]$GPGSA,A,3,10,24,01,17,13,19,11,28,15,12,,,2.02,0.95,1.79*06

[1499589752687]$GPGSV,3,1,12,01,14,040,32,10,13,318,30,11,07,027,08,12,22,242,15*7A

[1499589752687]$GPGSV,3,2,12,13,34,181,29,15,48,231,26,17,54,098,42,18,11,292,09*78

[1499589752687]$GPGSV,3,3,12,19,47,139,36,24,50,289,33,28,29,064,32,30,02,113,11*7F

[1499589752687]$GPGLL,5355.76913,N,02729.48758,E,054232.00,A,A*6F

[1499589753687]$GPRMC,054233.00,A,5355.76911,N,02729.48755,E,0.032,,090717,,,A*71

[1499589753687]$GPVTG,,T,,M,0.032,N,0.059,K,A*2E

[1499589753687]$GPGGA,054233.00,5355.76911,N,02729.48755,E,1,10,0.95,204.4,M,25.0,M,,*5C

[1499589753687]$GPGSA,A,3,10,24,01,17,13,19,11,28,15,12,,,2.02,0.95,1.79*06

[1499589753687]$GPGSV,3,1,12,01,14,040,32,10,13,318,30,11,07,027,08,12,22,242,18*77

[1499589753687]$GPGSV,3,2,12,13,34,181,29,15,48,231,26,17,54,098,42,18,11,292,08*79

[1499589753687]$GPGSV,3,3,12,19,47,139,36,24,50,289,33,28,29,064,32,30,02,113,11*7F

[1499589753687]$GPGLL,5355.76911,N,02729.48755,E,054233.00,A,A*61

[1499589754687]$GPRMC,054234.00,A,5355.76909,N,02729.48752,E,0.083,,090717,,,A*72

[1499589754687]$GPVTG,,T,,M,0.083,N,0.153,K,A*2F

[1499589754687]$GPGGA,054234.00,5355.76909,N,02729.48752,E,1,10,0.96,204.4,M,25.0,M,,*56

[1499589754687]$GPGSA,A,3,10,24,01,17,13,19,11,28,15,12,,,2.14,0.96,1.91*04

[1499589754687]$GPGSV,3,1,12,01,14,040,32,10,13,318,30,11,07,027,08,12,22,242,19*76

[1499589754687]$GPGSV,3,2,12,13,34,181,29,15,48,231,27,17,54,098,42,18,11,292,08*78

[1499589754687]$GPGSV,3,3,12,19,47,139,37,24,50,289,33,28,29,064,32,30,02,113,13*7C

[1499589754687]$GPGLL,5355.76909,N,02729.48752,E,054234.00,A,A*68

[1499589755688]$GPRMC,054235.00,A,5355.76908,N,02729.48747,E,0.038,,090717,,,A*76

[1499589755688]$GPVTG,,T,,M,0.038,N,0.070,K,A*2F

[1499589755688]$GPGGA,054235.00,5355.76908,N,02729.48747,E,1,10,0.96,204.3,M,25.0,M,,*55

[1499589755688]$GPGSA,A,3,10,24,01,17,13,19,11,28,15,12,,,2.14,0.96,1.91*04

[1499589755688]$GPGSV,3,1,12,01,14,040,31,10,13,318,29,11,07,027,08,12,22,242,18*7C

[1499589755688]$GPGSV,3,2,12,13,34,181,28,15,48,231,27,17,54,098,42,18,11,292,08*79

[1499589755688]$GPGSV,3,3,12,19,47,139,36,24,50,289,30,28,29,064,32,30,02,113,11*7C

[1499589755688]$GPGLL,5355.76908,N,02729.48747,E,054235.00,A,A*6C

[1499589756687]$GPRMC,054236.00,A,5355.76912,N,02729.48740,E,0.053,,090717,,,A*74

[1499589756687]$GPVTG,,T,,M,0.053,N,0.097,K,A*2B

[1499589756687]$GPGGA,054236.00,5355.76912,N,02729.48740,E,1,10,0.96,204.4,M,25.0,M,,*5D

[1499589756687]$GPGSA,A,3,10,24,01,17,13,19,11,28,15,12,,,2.14,0.96,1.91*04

[1499589756687]$GPGSV,3,1,12,01,14,040,32,10,13,318,30,11,07,027,08,12,22,242,21*7D

[1499589756687]$GPGSV,3,2,12,13,34,181,28,15,48,231,27,17,54,098,42,18,11,292,08*79

[1499589756687]$GPGSV,3,3,12,19,47,139,38,24,50,289,33,28,29,064,32,30,02,113,12*72

[1499589756687]$GPGLL,5355.76912,N,02729.48740,E,054236.00,A,A*63

[1499589757687]$GPRMC,054237.00,A,5355.76914,N,02729.48731,E,0.052,,090717,,,A*74

[1499589757687]$GPVTG,,T,,M,0.052,N,0.097,K,A*2A

[1499589757687]$GPGGA,054237.00,5355.76914,N,02729.48731,E,1,10,0.96,204.6,M,25.0,M,,*5E

[1499589757687]$GPGSA,A,3,10,24,01,17,13,19,11,28,15,12,,,2.14,0.96,1.91*04

[1499589757687]$GPGSV,3,1,12,01,14,040,32,10,13,318,30,11,07,027,08,12,22,242,22*7E

[1499589757687]$GPGSV,3,2,12,13,34,181,28,15,48,231,27,17,54,098,42,18,11,292,08*79

[1499589757687]$GPGSV,3,3,12,19,47,139,37,24,50,289,33,28,29,064,32,30,02,113,10*7F

[1499589757687]$GPGLL,5355.76914,N,02729.48731,E,054237.00,A,A*62

[1499589758688]$GPRMC,054238.00,A,5355.76912,N,02729.48728,E,0.030,,090717,,,A*71

[1499589758688]$GPVTG,,T,,M,0.030,N,0.055,K,A*20

[1499589758688]$GPGGA,054238.00,5355.76912,N,02729.48728,E,1,10,0.96,204.7,M,25.0,M,,*5E

[1499589758688]$GPGSA,A,3,10,24,01,17,13,19,11,28,15,12,,,2.14,0.96,1.91*04

[1499589758688]$GPGSV,3,1,12,01,14,040,33,10,13,318,30,11,07,027,07,12,22,242,22*70

[1499589758688]$GPGSV,3,2,12,13,34,181,29,15,48,231,27,17,54,098,42,18,11,292,*70

[1499589758688]$GPGSV,3,3,12,19,47,139,37,24,50,289,33,28,29,064,32,30,02,113,09*77

[1499589758688]$GPGLL,5355.76912,N,02729.48728,E,054238.00,A,A*63

[1499589759687]$GPRMC,054239.00,A,5355.76911,N,02729.48724,E,0.016,,090717,,,A*7B

[1499589759687]$GPVTG,,T,,M,0.016,N,0.030,K,A*27

[1499589759687]$GPGGA,054239.00,5355.76911,N,02729.48724,E,1,10,0.96,204.7,M,25.0,M,,*50

[1499589759687]$GPGSA,A,3,10,24,01,17,13,19,11,28,15,12,,,2.14,0.96,1.91*04

[1499589759687]$GPGSV,3,1,12,01,14,040,33,10,13,318,30,11,07,027,07,12,22,242,22*70

[1499589759687]$GPGSV,3,2,12,13,34,181,29,15,48,231,27,17,54,098,42,18,11,292,*70

[1499589759687]$GPGSV,3,3,12,19,47,139,37,24,50,289,33,28,29,064,32,30,02,113,09*77

[1499589759687]$GPGLL,5355.76911,N,02729.48724,E,054239.00,A,A*6D

[1499589760688]$GPRMC,054240.00,A,5355.76912,N,02729.48720,E,0.017,,090717,,,A*73

[1499589760688]$GPVTG,,T,,M,0.017,N,0.031,K,A*27

[1499589760688]$GPGGA,054240.00,5355.76912,N,02729.48720,E,1,09,0.96,204.7,M,25.0,M,,*51

[1499589760688]$GPGSA,A,3,10,24,01,17,13,19,28,15,12,,,,2.14,0.96,1.91*04

[1499589760688]$GPGSV,3,1,12,01,14,040,33,10,13,318,30,11,07,027,07,12,22,242,21*73

[1499589760688]$GPGSV,3,2,12,13,34,181,29,15,48,231,27,17,54,098,42,18,11,292,*70

[1499589760688]$GPGSV,3,3,12,19,47,139,37,24,50,289,33,28,29,064,32,30,02,113,09*77

[1499589760688]$GPGLL,5355.76912,N,02729.48720,E,054240.00,A,A*64

[1499589761687]$GPRMC,054241.00,A,5355.76915,N,02729.48717,E,0.074,,090717,,,A*74

[1499589761687]$GPVTG,,T,,M,0.074,N,0.136,K,A*24

[1499589761687]$GPGGA,054241.00,5355.76915,N,02729.48717,E,1,09,0.96,204.9,M,25.0,M,,*5D

[1499589761687]$GPGSA,A,3,10,24,01,17,13,19,28,15,12,,,,2.14,0.96,1.91*04

[1499589761687]$GPGSV,3,1,12,01,14,040,33,10,13,318,30,11,07,027,07,12,22,242,21*73

[1499589761687]$GPGSV,3,2,12,13,34,181,29,15,48,231,27,17,54,098,42,18,11,292,*70

[1499589761687]$GPGSV,3,3,12,19,47,139,37,24,50,289,32,28,29,064,32,30,02,113,09*76

[1499589761687]$GPGLL,5355.76915,N,02729.48717,E,054241.00,A,A*66

[1499589762687]$GPRMC,054242.00,A,5355.76915,N,02729.48713,E,0.070,,090717,,,A*77

[1499589762687]$GPVTG,,T,,M,0.070,N,0.129,K,A*2E

[1499589762687]$GPGGA,054242.00,5355.76915,N,02729.48713,E,1,09,0.96,205.1,M,25.0,M,,*53

[1499589762687]$GPGSA,A,3,10,24,01,17,13,19,28,15,12,,,,2.14,0.96,1.91*04

[1499589762687]$GPGSV,3,1,12,01,14,040,33,10,13,318,29,11,07,027,07,12,22,242,23*79

[1499589762687]$GPGSV,3,2,12,13,34,181,28,15,48,231,27,17,54,098,42,18,11,292,*71

[1499589762687]$GPGSV,3,3,12,19,47,139,37,24,50,289,32,28,29,064,32,30,02,113,09*76

[1499589762687]$GPGLL,5355.76915,N,02729.48713,E,054242.00,A,A*61

[1499589763687]$GPRMC,054243.00,A,5355.76916,N,02729.48712,E,0.015,,090717,,,A*77

[1499589763687]$GPVTG,,T,,M,0.015,N,0.028,K,A*2D

[1499589763687]$GPGGA,054243.00,5355.76916,N,02729.48712,E,1,09,0.96,205.2,M,25.0,M,,*53

[1499589763687]$GPGSA,A,3,10,24,01,17,13,19,28,15,12,,,,2.14,0.96,1.91*04

[1499589763687]$GPGSV,3,1,12,01,14,040,33,10,13,318,29,11,07,027,07,12,22,242,24*7E

[1499589763687]$GPGSV,3,2,12,13,34,181,28,15,48,231,28,17,54,098,42,18,11,292,*7E

[1499589763687]$GPGSV,3,3,12,19,47,139,37,24,50,289,33,28,29,064,32,30,02,113,09*77

[1499589763687]$GPGLL,5355.76916,N,02729.48712,E,054243.00,A,A*62

[1499589764687]$GPRMC,054244.00,A,5355.76914,N,02729.48710,E,0.020,,090717,,,A*76

[1499589764687]$GPVTG,,T,,M,0.020,N,0.037,K,A*25

[1499589764687]$GPGGA,054244.00,5355.76914,N,02729.48710,E,1,09,1.08,205.1,M,25.0,M,,*51

[1499589764687]$GPGSA,A,3,10,24,01,17,13,19,28,15,12,,,,2.46,1.08,2.21*0D

[1499589764687]$GPGSV,3,1,12,01,14,040,32,10,13,318,30,11,07,027,08,12,22,242,23*7F

[1499589764687]$GPGSV,3,2,12,13,34,181,32,15,48,231,29,17,54,098,40,18,11,292,*76

[1499589764687]$GPGSV,3,3,12,19,47,139,37,24,50,289,33,28,29,064,33,30,02,113,11*7F

[1499589764687]$GPGLL,5355.76914,N,02729.48710,E,054244.00,A,A*65

[1499589765689]$GPRMC,054245.00,A,5355.76910,N,02729.48709,E,0.019,,090717,,,A*71

[1499589765689]$GPVTG,,T,,M,0.019,N,0.035,K,A*2D

[1499589765689]$GPGGA,054245.00,5355.76910,N,02729.48709,E,1,09,0.96,205.1,M,25.0,M,,*5A

[1499589765689]$GPGSA,A,3,10,24,01,17,13,19,28,15,12,,,,2.14,0.96,1.91*04

[1499589765689]$GPGSV,3,1,12,01,14,040,33,10,13,318,30,11,07,027,08,12,22,242,22*7F

[1499589765689]$GPGSV,3,2,12,13,34,181,27,15,48,231,35,17,54,098,41,18,11,292,*7E

[1499589765689]$GPGSV,3,3,12,19,47,139,37,24,50,289,34,28,29,064,34,30,02,113,11*7F

[1499589765689]$GPGLL,5355.76910,N,02729.48709,E,054245.00,A,A*68

[1499589766687]$GPRMC,054246.00,A,5355.76912,N,02729.48707,E,0.071,,090717,,,A*70

[1499589766687]$GPVTG,,T,,M,0.071,N,0.131,K,A*26

[1499589766687]$GPGGA,054246.00,5355.76912,N,02729.48707,E,1,09,0.96,205.2,M,25.0,M,,*56

[1499589766687]$GPGSA,A,3,10,24,01,17,13,19,28,15,12,,,,2.14,0.96,1.91*04

[1499589766687]$GPGSV,3,1,12,01,14,040,32,10,13,318,30,11,07,027,,12,22,242,21*75

[1499589766687]$GPGSV,3,2,12,13,34,181,32,15,48,231,24,17,54,098,42,18,11,292,*79

[1499589766687]$GPGSV,3,3,12,19,47,139,38,24,50,289,31,28,29,064,33,30,02,113,11*72

[1499589766687]$GPGLL,5355.76912,N,02729.48707,E,054246.00,A,A*67

[1499589767688]$GPRMC,054247.00,A,5355.76915,N,02729.48704,E,0.031,,090717,,,A*71

[1499589767688]$GPVTG,,T,,M,0.031,N,0.057,K,A*23

[1499589767688]$GPGGA,054247.00,5355.76915,N,02729.48704,E,1,09,0.96,205.4,M,25.0,M,,*55

[1499589767688]$GPGSA,A,3,10,24,01,17,13,19,28,15,12,,,,2.14,0.96,1.91*04

[1499589767688]$GPGSV,3,1,12,01,14,040,33,10,13,318,29,11,07,027,,12,22,242,22*7F

[1499589767688]$GPGSV,3,2,12,13,34,181,31,15,48,231,26,17,54,098,42,18,11,292,*78

[1499589767688]$GPGSV,3,3,12,19,47,139,37,24,50,289,32,28,29,064,32,30,02,113,11*7F

[1499589767688]$GPGLL,5355.76915,N,02729.48704,E,054247.00,A,A*62

[1499589768687]$GPRMC,054248.00,A,5355.76919,N,02729.48703,E,0.029,,090717,,,A*7C

[1499589768687]$GPVTG,,T,,M,0.029,N,0.053,K,A*2E

[1499589768687]$GPGGA,054248.00,5355.76919,N,02729.48703,E,1,09,0.96,205.6,M,25.0,M,,*53

[1499589768687]$GPGSA,A,3,10,24,01,17,13,19,28,15,12,,,,2.14,0.96,1.91*04

[1499589768687]$GPGSV,3,1,12,01,14,040,33,10,13,318,29,11,07,027,,12,22,242,22*7F

[1499589768687]$GPGSV,3,2,12,13,34,181,30,15,48,231,27,17,54,098,42,18,11,292,*78

[1499589768687]$GPGSV,3,3,12,19,47,139,37,24,50,289,33,28,29,064,32,30,02,113,11*7E

[1499589768687]$GPGLL,5355.76919,N,02729.48703,E,054248.00,A,A*66

[1499589769687]$GPRMC,054249.00,A,5355.76919,N,02729.48702,E,0.033,,090717,,,A*77

[1499589769687]$GPVTG,,T,,M,0.033,N,0.061,K,A*24

[1499589769687]$GPGGA,054249.00,5355.76919,N,02729.48702,E,1,09,0.96,205.6,M,25.0,M,,*53

[1499589769687]$GPGSA,A,3,10,24,01,17,13,19,28,15,12,,,,2.14,0.96,1.91*04

[1499589769687]$GPGSV,3,1,12,01,14,040,34,10,13,318,29,11,07,027,04,12,22,242,23*7D

[1499589769687]$GPGSV,3,2,12,13,34,181,29,15,48,231,27,17,54,098,43,18,11,292,*71

[1499589769687]$GPGSV,3,3,12,19,47,139,37,24,50,289,34,28,29,064,33,30,02,113,11*78

[1499589769687]$GPGLL,5355.76919,N,02729.48702,E,054249.00,A,A*66

[1499589770688]$GPRMC,054250.00,A,5355.76917,N,02729.48702,E,0.037,,090717,,,A*75

[1499589770688]$GPVTG,,T,,M,0.037,N,0.069,K,A*28

[1499589770688]$GPGGA,054250.00,5355.76917,N,02729.48702,E,1,09,0.96,205.6,M,25.0,M,,*55

[1499589770688]$GPGSA,A,3,10,24,01,17,13,19,28,15,12,,,,2.14,0.96,1.91*04

[1499589770688]$GPGSV,3,1,12,01,14,040,34,10,13,318,28,11,07,027,06,12,22,242,23*7E

[1499589770688]$GPGSV,3,2,12,13,34,181,29,15,48,231,28,17,54,098,43,18,11,292,*7E

[1499589770688]$GPGSV,3,3,12,19,47,139,37,24,50,289,34,28,29,064,33,30,02,113,08*70

[1499589770688]$GPGLL,5355.76917,N,02729.48702,E,054250.00,A,A*60

[1499589771687]$GPRMC,054251.00,A,5355.76915,N,02729.48698,E,0.020,,090717,,,A*72

[1499589771687]$GPVTG,,T,,M,0.020,N,0.037,K,A*25

[1499589771687]$GPGGA,054251.00,5355.76915,N,02729.48698,E,1,09,0.96,205.7,M,25.0,M,,*55

[1499589771687]$GPGSA,A,3,10,24,01,17,13,19,28,15,12,,,,2.14,0.96,1.91*04

[1499589771687]$GPGSV,3,1,12,01,14,040,34,10,13,318,28,11,07,027,08,12,22,242,23*70

[1499589771687]$GPGSV,3,2,12,13,34,181,29,15,48,231,28,17,54,098,43,18,11,292,*7E

[1499589771687]$GPGSV,3,3,12,19,47,139,37,24,50,289,34,28,29,064,33,30,02,113,08*70

[1499589771687]$GPGLL,5355.76915,N,02729.48698,E,054251.00,A,A*61

[1499589772687]$GPRMC,054252.00,A,5355.76916,N,02729.48694,E,0.021,,090717,,,A*7F

[1499589772687]$GPVTG,,T,,M,0.021,N,0.039,K,A*2A

[1499589772687]$GPGGA,054252.00,5355.76916,N,02729.48694,E,1,09,0.96,205.7,M,25.0,M,,*59

[1499589772687]$GPGSA,A,3,10,24,01,17,13,19,28,15,12,,,,2.14,0.96,1.91*04

[1499589772687]$GPGSV,3,1,12,01,14,040,33,10,13,318,28,11,07,027,08,12,22,242,23*77

[1499589772687]$GPGSV,3,2,12,13,34,181,29,15,48,231,28,17,54,098,43,18,11,292,*7E

[1499589772687]$GPGSV,3,3,12,19,47,139,37,24,50,289,33,28,29,064,33,30,02,113,08*77

[1499589772687]$GPGLL,5355.76916,N,02729.48694,E,054252.00,A,A*6D

[1499589773688]$GPRMC,054253.00,A,5355.76917,N,02729.48693,E,0.020,,090717,,,A*79

[1499589773688]$GPVTG,,T,,M,0.020,N,0.038,K,A*2A

[1499589773688]$GPGGA,054253.00,5355.76917,N,02729.48693,E,1,09,0.96,205.8,M,25.0,M,,*51

[1499589773688]$GPGSA,A,3,10,24,01,17,13,19,28,15,12,,,,2.14,0.96,1.91*04

[1499589773688]$GPGSV,3,1,12,01,14,040,33,10,13,318,27,11,07,027,08,12,22,242,24*7F

[1499589773688]$GPGSV,3,2,12,13,34,181,29,15,48,231,29,17,54,098,43,18,11,292,*7F

[1499589773688]$GPGSV,3,3,12,19,47,139,37,24,50,289,34,28,29,064,33,30,02,113,08*70

[1499589773688]$GPGLL,5355.76917,N,02729.48693,E,054253.00,A,A*6A

[1499589774687]$GPRMC,054254.00,A,5355.76918,N,02729.48691,E,0.026,,090717,,,A*75

[1499589774687]$GPVTG,,T,,M,0.026,N,0.047,K,A*24

[1499589774687]$GPGGA,054254.00,5355.76918,N,02729.48691,E,1,09,0.96,205.8,M,25.0,M,,*5B

[1499589774687]$GPGSA,A,3,10,24,01,17,13,19,28,15,12,,,,2.14,0.96,1.91*04

[1499589774687]$GPGSV,3,1,12,01,14,040,33,10,13,318,27,11,07,027,08,12,22,242,24*7F

[1499589774687]$GPGSV,3,2,12,13,34,181,29,15,48,231,29,17,54,098,43,18,11,292,04*7B

[1499589774687]$GPGSV,3,3,12,19,47,139,37,24,50,289,33,28,29,064,33,30,02,113,08*77

[1499589774687]$GPGLL,5355.76918,N,02729.48691,E,054254.00,A,A*60

[1499589775687]$GPRMC,054255.00,A,5355.76919,N,02729.48691,E,0.050,,090717,,,A*74

[1499589775687]$GPVTG,,T,,M,0.050,N,0.093,K,A*2C

[1499589775687]$GPGGA,054255.00,5355.76919,N,02729.48691,E,1,09,0.96,205.8,M,25.0,M,,*5B

[1499589775687]$GPGSA,A,3,10,24,01,17,13,19,28,15,12,,,,2.14,0.96,1.91*04

[1499589775687]$GPGSV,3,1,12,01,14,040,33,10,13,317,27,11,07,027,,12,22,242,24*78

[1499589775687]$GPGSV,3,2,12,13,34,181,29,15,48,231,29,17,54,098,42,18,11,292,08*76

[1499589775687]$GPGSV,3,3,12,19,47,139,37,24,50,289,33,28,29,064,33,30,02,113,08*77

[1499589775687]$GPGLL,5355.76919,N,02729.48691,E,054255.00,A,A*60

[1499589776688]$GPRMC,054256.00,A,5355.76921,N,02729.48691,E,0.030,,090717,,,A*7A

[1499589776688]$GPVTG,,T,,M,0.030,N,0.056,K,A*23

[1499589776688]$GPGGA,054256.00,5355.76921,N,02729.48691,E,1,09,0.96,205.9,M,25.0,M,,*52

[1499589776688]$GPGSA,A,3,10,24,01,17,13,19,28,15,12,,,,2.14,0.96,1.91*04

[1499589776688]$GPGSV,3,1,12,01,14,040,32,10,13,317,28,11,07,027,,12,22,242,24*76

[1499589776688]$GPGSV,3,2,12,13,34,181,29,15,48,231,29,17,54,098,42,18,11,292,09*77

[1499589776688]$GPGSV,3,3,12,19,47,139,37,24,50,289,33,28,29,064,33,30,02,113,09*76

[1499589776688]$GPGLL,5355.76921,N,02729.48691,E,054256.00,A,A*68

[1499589777689]$GPRMC,054257.00,A,5355.76924,N,02729.48688,E,0.017,,090717,,,A*73

[1499589777689]$GPVTG,,T,,M,0.017,N,0.032,K,A*24

[1499589777689]$GPGGA,054257.00,5355.76924,N,02729.48688,E,1,09,0.96,206.1,M,25.0,M,,*55

[1499589777689]$GPGSA,A,3,10,24,01,17,13,19,28,15,12,,,,2.14,0.96,1.91*04

[1499589777689]$GPGSV,3,1,12,01,14,040,32,10,13,317,28,11,07,027,05,12,22,242,25*72

[1499589777689]$GPGSV,3,2,12,13,34,181,29,15,48,231,29,17,54,098,42,18,11,292,08*76

[1499589777689]$GPGSV,3,3,12,19,47,139,37,24,50,289,33,28,29,064,32,30,02,113,09*77

[1499589777689]$GPGLL,5355.76924,N,02729.48688,E,054257.00,A,A*64

[1499589778693]$GPRMC,054258.00,A,5355.76928,N,02729.48686,E,0.013,,090717,,,A*7A

[1499589778693]$GPVTG,,T,,M,0.013,N,0.024,K,A*27

[1499589778693]$GPGGA,054258.00,5355.76928,N,02729.48686,E,1,09,0.96,206.2,M,25.0,M,,*5B

[1499589778693]$GPGSA,A,3,10,24,01,17,13,19,28,15,12,,,,2.14,0.96,1.91*04

[1499589778693]$GPGSV,3,1,12,01,14,040,32,10,13,317,28,11,07,027,06,12,22,242,24*70

[1499589778693]$GPGSV,3,2,12,13,34,181,29,15,48,231,30,17,54,098,42,18,11,292,08*7E

[1499589778693]$GPGSV,3,3,12,19,47,139,38,24,50,289,33,28,29,064,33,30,02,113,09*79

[1499589778693]$GPGLL,5355.76928,N,02729.48686,E,054258.00,A,A*69

[1499589779687]$GPRMC,054259.00,A,5355.76934,N,02729.48683,E,0.011,,090717,,,A*71

[1499589779687]$GPVTG,,T,,M,0.011,N,0.020,K,A*21

[1499589779687]$GPGGA,054259.00,5355.76934,N,02729.48683,E,1,09,0.96,206.4,M,25.0,M,,*54

[1499589779687]$GPGSA,A,3,10,24,01,17,13,19,28,15,12,,,,2.14,0.96,1.91*04

[1499589779687]$GPGSV,3,1,12,01,14,040,32,10,13,317,27,11,07,027,08,12,22,242,24*71

[1499589779687]$GPGSV,3,2,12,13,34,181,29,15,48,231,30,17,54,098,43,18,11,292,08*7F

[1499589779687]$GPGSV,3,3,12,19,47,139,38,24,50,289,33,28,29,064,33,30,02,113,09*79

[1499589779687]$GPGLL,5355.76934,N,02729.48683,E,054259.00,A,A*60

[1499589780687]$GPRMC,054300.00,A,5355.76940,N,02729.48679,E,0.026,,090717,,,A*7E

[1499589780687]$GPVTG,,T,,M,0.026,N,0.048,K,A*2B

[1499589780687]$GPGGA,054300.00,5355.76940,N,02729.48679,E,1,09,0.96,206.6,M,25.0,M,,*5D

[1499589780687]$GPGSA,A,3,10,24,01,17,13,19,28,15,12,,,,2.14,0.96,1.91*04

[1499589780687]$GPGSV,3,1,12,01,14,040,32,10,13,317,27,11,07,027,08,12,22,242,24*71

[1499589780687]$GPGSV,3,2,12,13,34,181,28,15,47,231,30,17,54,098,43,18,11,292,08*71

[1499589780687]$GPGSV,3,3,12,19,47,139,38,24,50,289,33,28,29,064,32,30,02,113,09*78

[1499589780687]$GPGLL,5355.76940,N,02729.48679,E,054300.00,A,A*6B

[1499589781687]$GPRMC,054301.00,A,5355.76948,N,02729.48676,E,0.049,,090717,,,A*71

[1499589781687]$GPVTG,,T,,M,0.049,N,0.091,K,A*26

[1499589781687]$GPGGA,054301.00,5355.76948,N,02729.48676,E,1,09,0.96,206.7,M,25.0,M,,*5A

[1499589781687]$GPGSA,A,3,10,24,01,17,13,19,28,15,12,,,,2.14,0.96,1.91*04

[1499589781687]$GPGSV,3,1,12,01,14,040,32,10,13,317,27,11,07,027,08,12,22,242,24*71

[1499589781687]$GPGSV,3,2,12,13,34,181,28,15,47,231,30,17,54,098,43,18,11,292,08*71

[1499589781687]$GPGSV,3,3,12,19,47,139,38,24,50,289,33,28,29,064,33,30,02,113,09*79

[1499589781687]$GPGLL,5355.76948,N,02729.48676,E,054301.00,A,A*6D

[1499589782688]$GPRMC,054302.00,A,5355.76953,N,02729.48673,E,0.029,,090717,,,A*7B

[1499589782688]$GPVTG,,T,,M,0.029,N,0.055,K,A*28

[1499589782688]$GPGGA,054302.00,5355.76953,N,02729.48673,E,1,09,0.96,206.8,M,25.0,M,,*59

[1499589782688]$GPGSA,A,3,10,24,01,17,13,19,28,15,12,,,,2.14,0.96,1.91*04

[1499589782688]$GPGSV,3,1,12,01,14,040,32,10,13,317,27,11,07,027,07,12,22,242,24*7E

[1499589782688]$GPGSV,3,2,12,13,34,181,28,15,47,231,30,17,54,097,43,18,11,292,*76

[1499589782688]$GPGSV,3,3,12,19,47,139,38,24,50,289,33,28,29,064,33,30,02,113,11*70

[1499589782688]$GPGLL,5355.76953,N,02729.48673,E,054302.00,A,A*61

[1499589783691]$GPRMC,054303.00,A,5355.76959,N,02729.48669,E,0.036,,090717,,,A*75

[1499589783691]$GPVTG,,T,,M,0.036,N,0.067,K,A*27

[1499589783691]$GPGGA,054303.00,5355.76959,N,02729.48669,E,1,10,0.96,206.9,M,25.0,M,,*50

[1499589783691]$GPGSA,A,3,10,24,01,17,13,19,11,28,15,12,,,2.14,0.96,1.91*04

[1499589783691]$GPGSV,3,1,12,01,14,040,32,10,13,317,28,11,07,027,07,12,22,242,24*71

[1499589783691]$GPGSV,3,2,12,13,34,181,29,15,47,231,30,17,54,097,43,18,11,292,*77

[1499589783691]$GPGSV,3,3,12,19,47,139,38,24,50,289,33,28,29,064,33,30,02,113,11*70

[1499589783691]$GPGLL,5355.76959,N,02729.48669,E,054303.00,A,A*61

[1499589784687]$GPRMC,054304.00,A,5355.76968,N,02729.48667,E,0.049,,090717,,,A*76

[1499589784687]$GPVTG,,T,,M,0.049,N,0.090,K,A*27

[1499589784687]$GPGGA,054304.00,5355.76968,N,02729.48667,E,1,09,0.96,207.1,M,25.0,M,,*5A

[1499589784687]$GPGSA,A,3,10,24,01,17,13,19,28,15,12,,,,2.14,0.96,1.91*04

[1499589784687]$GPGSV,3,1,12,01,14,040,32,10,13,317,27,11,07,027,07,12,22,242,24*7E

[1499589784687]$GPGSV,3,2,12,13,34,181,29,15,47,231,29,17,54,097,42,18,11,292,*7E

[1499589784687]$GPGSV,3,3,12,19,48,139,38,24,50,289,33,28,29,064,33,30,02,113,11*7F

[1499589784687]$GPGLL,5355.76968,N,02729.48667,E,054304.00,A,A*6A

[1499589785690]$GPRMC,054305.00,A,5355.76975,N,02729.48663,E,0.041,,090717,,,A*77

[1499589785690]$GPVTG,,T,,M,0.041,N,0.076,K,A*27

[1499589785690]$GPGGA,054305.00,5355.76975,N,02729.48663,E,1,09,0.96,207.3,M,25.0,M,,*51

[1499589785690]$GPGSA,A,3,10,24,01,17,13,19,28,15,12,,,,2.14,0.96,1.91*04

[1499589785690]$GPGSV,3,1,12,01,14,040,32,10,13,317,27,11,07,027,07,12,22,242,24*7E

[1499589785690]$GPGSV,3,2,12,13,34,181,29,15,47,231,29,17,54,097,42,18,11,292,*7E

[1499589785690]$GPGSV,3,3,12,19,48,139,38,24,50,289,33,28,29,064,33,30,02,113,11*7F

[1499589785690]$GPGLL,5355.76975,N,02729.48663,E,054305.00,A,A*63

[1499589786687]$GPRMC,054306.00,A,5355.76982,N,02729.48660,E,0.029,,090717,,,A*71

[1499589786687]$GPVTG,,T,,M,0.029,N,0.054,K,A*29

[1499589786687]$GPGGA,054306.00,5355.76982,N,02729.48660,E,1,09,0.96,207.5,M,25.0,M,,*5F

[1499589786687]$GPGSA,A,3,10,24,01,17,13,19,28,15,12,,,,2.14,0.96,1.91*04

[1499589786687]$GPGSV,3,1,12,01,14,040,32,10,13,317,27,11,07,027,07,12,22,242,25*7F

[1499589786687]$GPGSV,3,2,12,13,34,181,29,15,47,231,29,17,54,097,42,18,11,292,*7E

[1499589786687]$GPGSV,3,3,12,19,48,139,38,24,50,289,33,28,29,064,33,30,02,113,11*7F

[1499589786687]$GPGLL,5355.76982,N,02729.48660,E,054306.00,A,A*6B

[1499589787687]$GPRMC,054307.00,A,5355.76988,N,02729.48656,E,0.065,,090717,,,A*77

[1499589787687]$GPVTG,,T,,M,0.065,N,0.121,K,A*22

[1499589787687]$GPGGA,054307.00,5355.76988,N,02729.48656,E,1,09,0.96,207.7,M,25.0,M,,*53

[1499589787687]$GPGSA,A,3,10,24,01,17,13,19,28,15,12,,,,2.14,0.96,1.91*04

[1499589787687]$GPGSV,3,1,12,01,14,040,32,10,13,317,27,11,07,027,07,12,22,242,24*7E

[1499589787687]$GPGSV,3,2,12,13,34,181,29,15,47,231,30,17,54,097,42,18,11,292,*76

[1499589787687]$GPGSV,3,3,12,19,48,139,38,24,50,289,33,28,29,064,33,30,02,113,11*7F

[1499589787687]$GPGLL,5355.76988,N,02729.48656,E,054307.00,A,A*65

[1499589788690]$GPRMC,054308.00,A,5355.76994,N,02729.48650,E,0.062,,090717,,,A*74

[1499589788690]$GPVTG,,T,,M,0.062,N,0.115,K,A*22

[1499589788690]$GPGGA,054308.00,5355.76994,N,02729.48650,E,1,09,0.96,207.9,M,25.0,M,,*59

[1499589788690]$GPGSA,A,3,10,24,01,17,13,19,28,15,12,,,,2.14,0.96,1.91*04

[1499589788690]$GPGSV,3,1,12,01,14,040,32,10,13,317,27,11,07,027,05,12,22,242,24*7C

[1499589788690]$GPGSV,3,2,12,13,34,181,29,15,47,231,29,17,54,097,42,18,11,292,*7E

[1499589788690]$GPGSV,3,3,12,19,48,139,38,24,50,289,33,28,29,064,33,30,02,113,11*7F

[1499589788690]$GPGLL,5355.76994,N,02729.48650,E,054308.00,A,A*61

[1499589789688]$GPRMC,054309.00,A,5355.77000,N,02729.48650,E,0.047,,090717,,,A*77

[1499589789688]$GPVTG,,T,,M,0.047,N,0.088,K,A*20

[1499589789688]$GPGGA,054309.00,5355.77000,N,02729.48650,E,1,09,0.96,208.0,M,25.0,M,,*5B

[1499589789688]$GPGSA,A,3,10,24,01,17,13,19,28,15,12,,,,2.14,0.96,1.91*04

[1499589789688]$GPGSV,3,1,12,01,14,040,32,10,13,317,27,11,07,027,05,12,22,242,23*7B

[1499589789688]$GPGSV,3,2,12,13,34,181,29,15,47,231,29,17,54,097,42,18,11,292,*7E

[1499589789688]$GPGSV,3,3,12,19,48,139,37,24,50,289,33,28,29,064,33,30,02,113,11*70

[1499589789688]$GPGLL,5355.77000,N,02729.48650,E,054309.00,A,A*65

[1499589790687]$GPRMC,054310.00,A,5355.77004,N,02729.48648,E,0.109,,090717,,,A*79

[1499589790687]$GPVTG,,T,,M,0.109,N,0.202,K,A*2B

[1499589790687]$GPGGA,054310.00,5355.77004,N,02729.48648,E,1,09,0.96,208.1,M,25.0,M,,*5F

[1499589790687]$GPGSA,A,3,10,24,01,17,13,19,28,15,12,,,,2.14,0.96,1.91*04

[1499589790687]$GPGSV,3,1,12,01,14,040,32,10,13,317,27,11,07,027,05,12,22,242,23*7B

[1499589790687]$GPGSV,3,2,12,13,34,181,29,15,47,231,30,17,54,097,41,18,11,292,*75

[1499589790687]$GPGSV,3,3,12,19,48,139,38,24,50,289,33,28,29,064,32,30,02,113,11*7E

[1499589790687]$GPGLL,5355.77004,N,02729.48648,E,054310.00,A,A*60

[1499589791691]$GPRMC,054311.00,A,5355.77007,N,02729.48646,E,0.009,,090717,,,A*74

[1499589791691]$GPVTG,,T,,M,0.009,N,0.017,K,A*2C

[1499589791691]$GPGGA,054311.00,5355.77007,N,02729.48646,E,1,09,0.96,208.3,M,25.0,M,,*51

[1499589791691]$GPGSA,A,3,10,24,01,17,13,19,28,15,12,,,,2.14,0.96,1.91*04

[1499589791691]$GPGSV,3,1,12,01,14,040,32,10,13,317,27,11,07,027,05,12,22,242,23*7B

[1499589791691]$GPGSV,3,2,12,13,34,181,29,15,47,231,30,17,54,097,41,18,11,292,*75

[1499589791691]$GPGSV,3,3,12,19,48,139,38,24,50,289,33,28,29,064,32,30,02,113,11*7E

[1499589791691]$GPGLL,5355.77007,N,02729.48646,E,054311.00,A,A*6C

[1499589792687]$GPRMC,054312.00,A,5355.77010,N,02729.48648,E,0.046,,090717,,,A*74

[1499589792687]$GPVTG,,T,,M,0.046,N,0.085,K,A*2C

[1499589792687]$GPGGA,054312.00,5355.77010,N,02729.48648,E,1,09,0.96,208.4,M,25.0,M,,*5D

[1499589792687]$GPGSA,A,3,10,24,01,17,13,19,28,15,12,,,,2.14,0.96,1.91*04

[1499589792687]$GPGSV,3,1,12,01,14,040,31,10,13,317,28,11,07,027,05,12,22,242,23*77

[1499589792687]$GPGSV,3,2,12,13,34,181,29,15,47,231,30,17,54,097,41,18,11,292,*75

[1499589792687]$GPGSV,3,3,12,19,48,139,38,24,50,289,33,28,29,064,32,30,02,113,11*7E

[1499589792687]$GPGLL,5355.77010,N,02729.48648,E,054312.00,A,A*67

[1499589793687]$GPRMC,054313.00,A,5355.77015,N,02729.48650,E,0.013,,090717,,,A*79

[1499589793687]$GPVTG,,T,,M,0.013,N,0.025,K,A*26

[1499589793687]$GPGGA,054313.00,5355.77015,N,02729.48650,E,1,09,0.96,208.6,M,25.0,M,,*52

[1499589793687]$GPGSA,A,3,10,24,01,17,13,19,28,15,12,,,,2.14,0.96,1.91*04

[1499589793687]$GPGSV,3,1,12,01,14,040,31,10,13,317,27,11,07,027,05,12,22,242,25*7E

[1499589793687]$GPGSV,3,2,12,13,34,181,29,15,47,231,31,17,54,097,41,18,11,292,*74

[1499589793687]$GPGSV,3,3,12,19,48,139,38,24,50,289,33,28,28,064,31,30,02,113,*7C

[1499589793687]$GPGLL,5355.77015,N,02729.48650,E,054313.00,A,A*6A

[1499589794687]$GPRMC,054314.00,A,5355.77019,N,02729.48648,E,0.050,,090717,,,A*7C

[1499589794687]$GPVTG,,T,,M,0.050,N,0.093,K,A*2C

[1499589794687]$GPGGA,054314.00,5355.77019,N,02729.48648,E,1,09,0.96,208.8,M,25.0,M,,*5E

[1499589794687]$GPGSA,A,3,10,24,01,17,13,19,28,15,12,,,,2.14,0.96,1.91*04

[1499589794687]$GPGSV,3,1,12,01,14,040,31,10,13,317,27,11,07,027,06,12,22,242,24*7C

[1499589794687]$GPGSV,3,2,12,13,34,181,29,15,47,231,32,17,54,097,41,18,11,292,*77

[1499589794687]$GPGSV,3,3,12,19,48,139,38,24,50,289,33,28,28,064,31,30,02,113,*7C

[1499589794687]$GPGLL,5355.77019,N,02729.48648,E,054314.00,A,A*68

[1499589795689]$GPRMC,054315.00,A,5355.77016,N,02729.48646,E,0.040,,090717,,,A*7D

[1499589795689]$GPVTG,,T,,M,0.040,N,0.074,K,A*24

[1499589795689]$GPGGA,054315.00,5355.77016,N,02729.48646,E,1,09,0.96,208.7,M,25.0,M,,*51

[1499589795689]$GPGSA,A,3,10,24,01,17,13,19,28,15,12,,,,2.14,0.96,1.91*04

[1499589795689]$GPGSV,3,1,12,01,14,040,30,10,13,317,27,11,07,027,06,12,22,242,25*7C

[1499589795689]$GPGSV,3,2,12,13,34,181,29,15,47,231,31,17,54,097,41,18,11,292,*74

[1499589795689]$GPGSV,3,3,12,19,48,139,38,24,50,289,32,28,28,064,32,30,02,113,*7E

[1499589795689]$GPGLL,5355.77016,N,02729.48646,E,054315.00,A,A*68

[1499589796687]$GPRMC,054316.00,A,5355.77017,N,02729.48648,E,0.031,,090717,,,A*77

[1499589796687]$GPVTG,,T,,M,0.031,N,0.057,K,A*23

[1499589796687]$GPGGA,054316.00,5355.77017,N,02729.48648,E,1,09,0.96,208.7,M,25.0,M,,*5D

[1499589796687]$GPGSA,A,3,10,24,01,17,13,19,28,15,12,,,,2.14,0.96,1.91*04

[1499589796687]$GPGSV,3,1,12,01,14,040,30,10,13,317,27,11,07,027,,12,22,242,26*79

[1499589796687]$GPGSV,3,2,12,13,34,181,29,15,47,231,32,17,54,097,41,18,11,292,*77

[1499589796687]$GPGSV,3,3,12,19,48,139,38,24,50,289,32,28,28,064,31,30,02,113,*7D

[1499589796687]$GPGLL,5355.77017,N,02729.48648,E,054316.00,A,A*64

[1499589797687]$GPRMC,054317.00,A,5355.77021,N,02729.48650,E,0.010,,090717,,,A*79

[1499589797687]$GPVTG,,T,,M,0.010,N,0.019,K,A*2A

[1499589797687]$GPGGA,054317.00,5355.77021,N,02729.48650,E,1,09,0.96,208.7,M,25.0,M,,*50

[1499589797687]$GPGSA,A,3,10,24,01,17,13,19,28,15,12,,,,2.14,0.96,1.91*04

[1499589797687]$GPGSV,3,1,12,01,14,040,30,10,13,317,27,11,07,027,,12,22,242,26*79

[1499589797687]$GPGSV,3,2,12,13,34,181,29,15,47,231,31,17,54,097,41,18,11,292,*74

[1499589797687]$GPGSV,3,3,12,19,48,139,38,24,50,289,32,28,28,064,31,30,02,113,*7D

[1499589797687]$GPGLL,5355.77021,N,02729.48650,E,054317.00,A,A*69

[1499589798687]$GPRMC,054318.00,A,5355.77023,N,02729.48655,E,0.020,,090717,,,A*72

[1499589798687]$GPVTG,,T,,M,0.020,N,0.037,K,A*25

[1499589798687]$GPGGA,054318.00,5355.77023,N,02729.48655,E,1,09,0.96,208.6,M,25.0,M,,*59

[1499589798687]$GPGSA,A,3,10,24,01,17,13,19,28,15,12,,,,2.14,0.96,1.91*04

[1499589798687]$GPGSV,3,1,12,01,14,040,29,10,13,317,27,11,07,027,,12,22,242,26*71

[1499589798687]$GPGSV,3,2,12,13,34,181,29,15,47,231,31,17,54,097,41,18,11,292,*74

[1499589798687]$GPGSV,3,3,12,19,48,139,38,24,50,289,32,28,28,064,31,30,02,113,15*79

[1499589798687]$GPGLL,5355.77023,N,02729.48655,E,054318.00,A,A*61

[1499589799693]$GPRMC,054319.00,A,5355.77027,N,02729.48661,E,0.038,,090717,,,A*79

[1499589799693]$GPVTG,,T,,M,0.038,N,0.070,K,A*2F

[1499589799693]$GPGGA,054319.00,5355.77027,N,02729.48661,E,1,09,0.96,208.6,M,25.0,M,,*5B

[1499589799693]$GPGSA,A,3,10,24,01,17,13,19,28,15,12,,,,2.14,0.96,1.91*04

[1499589799693]$GPGSV,3,1,12,01,14,040,29,10,13,317,27,11,07,027,23,12,22,242,26*70

[1499589799693]$GPGSV,3,2,12,13,34,181,29,15,47,231,31,17,54,097,41,18,11,292,*74

[1499589799693]$GPGSV,3,3,12,19,48,139,38,24,50,289,33,28,28,064,31,30,02,113,14*79

[1499589799693]$GPGLL,5355.77027,N,02729.48661,E,054319.00,A,A*63

[1499589800688]$GPRMC,054320.00,A,5355.77027,N,02729.48662,E,0.034,,090717,,,A*7C

[1499589800688]$GPVTG,,T,,M,0.034,N,0.063,K,A*21

[1499589800688]$GPGGA,054320.00,5355.77027,N,02729.48662,E,1,09,0.96,208.6,M,25.0,M,,*52

[1499589800688]$GPGSA,A,3,10,24,01,17,13,19,28,15,12,,,,2.14,0.96,1.91*04

[1499589800688]$GPGSV,3,1,12,01,14,040,30,10,13,317,27,11,07,027,19,12,22,242,25*72

[1499589800688]$GPGSV,3,2,12,13,34,181,30,15,47,231,31,17,54,097,41,18,11,292,*7C

[1499589800688]$GPGSV,3,3,12,19,48,139,39,24,50,289,33,28,28,064,31,30,02,113,13*7F

[1499589800688]$GPGLL,5355.77027,N,02729.48662,E,054320.00,A,A*6A

[1499589801687]$GPRMC,054321.00,A,5355.77030,N,02729.48662,E,0.021,,090717,,,A*7F

[1499589801687]$GPVTG,,T,,M,0.021,N,0.039,K,A*2A

[1499589801687]$GPGGA,054321.00,5355.77030,N,02729.48662,E,1,09,0.96,208.5,M,25.0,M,,*56

[1499589801687]$GPGSA,A,3,10,24,01,17,13,19,28,15,12,,,,2.14,0.96,1.91*04

[1499589801687]$GPGSV,3,1,12,01,14,040,31,10,13,317,28,11,07,027,16,12,22,242,24*72

[1499589801687]$GPGSV,3,2,12,13,34,181,30,15,47,231,31,17,54,097,41,18,11,292,*7C

[1499589801687]$GPGSV,3,3,12,19,48,139,39,24,50,289,32,28,28,064,31,30,02,113,10*7D

[1499589801687]$GPGLL,5355.77030,N,02729.48662,E,054321.00,A,A*6D

[1499589802687]$GPRMC,054322.00,A,5355.77036,N,02729.48664,E,0.009,,090717,,,A*76

[1499589802687]$GPVTG,,T,,M,0.009,N,0.016,K,A*2D

[1499589802687]$GPGGA,054322.00,5355.77036,N,02729.48664,E,1,09,0.96,208.5,M,25.0,M,,*55

[1499589802687]$GPGSA,A,3,10,24,01,17,13,19,28,15,12,,,,2.14,0.96,1.91*04

[1499589802687]$GPGSV,3,1,12,01,14,040,30,10,13,317,27,11,07,027,14,12,22,242,24*7E

[1499589802687]$GPGSV,3,2,12,13,34,181,30,15,47,231,30,17,54,097,41,18,11,292,*7D

[1499589802687]$GPGSV,3,3,12,19,48,139,39,24,50,289,32,28,28,064,31,30,02,113,09*75

[1499589802687]$GPGLL,5355.77036,N,02729.48664,E,054322.00,A,A*6E

[1499589803689]$GPRMC,054323.00,A,5355.77042,N,02729.48661,E,0.031,,090717,,,A*7A

[1499589803689]$GPVTG,,T,,M,0.031,N,0.058,K,A*2C

[1499589803689]$GPGGA,054323.00,5355.77042,N,02729.48661,E,1,09,0.96,208.4,M,25.0,M,,*53

[1499589803689]$GPGSA,A,3,10,24,01,17,13,19,28,15,12,,,,2.14,0.96,1.91*04

[1499589803689]$GPGSV,3,1,12,01,14,040,31,10,13,317,27,11,07,027,10,12,22,242,24*7B

[1499589803689]$GPGSV,3,2,12,13,34,181,30,15,47,231,30,17,54,097,41,18,11,292,*7D

[1499589803689]$GPGSV,3,3,12,19,48,139,40,24,50,289,32,28,28,064,32,30,02,113,08*79

[1499589803689]$GPGLL,5355.77042,N,02729.48661,E,054323.00,A,A*69

[1499589804690]$GPRMC,054324.00,A,5355.77050,N,02729.48661,E,0.010,,090717,,,A*7D

[1499589804690]$GPVTG,,T,,M,0.010,N,0.018,K,A*2B

[1499589804690]$GPGGA,054324.00,5355.77050,N,02729.48661,E,1,09,0.96,208.4,M,25.0,M,,*57

[1499589804690]$GPGSA,A,3,10,24,01,17,13,19,28,15,12,,,,2.14,0.96,1.91*04

[1499589804690]$GPGSV,3,1,12,01,14,040,29,10,13,317,28,11,07,027,08,12,22,242,24*74

[1499589804690]$GPGSV,3,2,12,13,34,181,30,15,47,231,30,17,54,097,39,18,11,292,*72

[1499589804690]$GPGSV,3,3,12,19,48,139,39,24,50,289,32,28,28,064,31,30,02,113,08*74

[1499589804690]$GPGLL,5355.77050,N,02729.48661,E,054324.00,A,A*6D

[1499589805689]$GPRMC,054325.00,A,5355.77057,N,02729.48663,E,0.016,,090717,,,A*7F

[1499589805689]$GPVTG,,T,,M,0.016,N,0.029,K,A*2F

[1499589805689]$GPGGA,054325.00,5355.77057,N,02729.48663,E,1,09,0.96,208.5,M,25.0,M,,*52

[1499589805689]$GPGSA,A,3,10,24,01,17,13,19,28,15,12,,,,2.14,0.96,1.91*04

[1499589805689]$GPGSV,3,1,12,01,14,040,28,10,13,317,28,11,07,027,08,12,22,242,26*77

[1499589805689]$GPGSV,3,2,12,13,34,181,29,15,47,231,30,17,54,097,40,18,11,292,*74

[1499589805689]$GPGSV,3,3,12,19,48,139,39,24,50,289,33,28,28,064,30,30,02,113,08*74

[1499589805689]$GPGLL,5355.77057,N,02729.48663,E,054325.00,A,A*69

[1499589806697]$GPRMC,054326.00,A,5355.77063,N,02729.48665,E,0.052,,090717,,,A*7D

[1499589806697]$GPVTG,,T,,M,0.052,N,0.097,K,A*2A

[1499589806697]$GPGGA,054326.00,5355.77063,N,02729.48665,E,1,10,0.95,208.7,M,25.0,M,,*59

[1499589806697]$GPGSA,A,3,10,24,01,17,13,19,11,28,15,12,,,2.02,0.95,1.78*07

[1499589806697]$GPGSV,3,1,12,01,14,040,27,10,13,317,28,11,07,027,11,12,22,242,27*71

[1499589806697]$GPGSV,3,2,12,13,34,181,29,15,47,231,30,17,54,097,40,18,11,292,*74

[1499589806697]$GPGSV,3,3,12,19,48,139,39,24,50,289,33,28,28,064,30,30,02,113,08*74

[1499589806697]$GPGLL,5355.77063,N,02729.48665,E,054326.00,A,A*6B

[1499589807687]$GPRMC,054327.00,A,5355.77073,N,02729.48664,E,0.015,,090717,,,A*7F

[1499589807687]$GPVTG,,T,,M,0.015,N,0.027,K,A*22

[1499589807687]$GPGGA,054327.00,5355.77073,N,02729.48664,E,1,10,0.95,208.8,M,25.0,M,,*57

[1499589807687]$GPGSA,A,3,10,24,01,17,13,19,11,28,15,12,,,2.02,0.95,1.78*07

[1499589807687]$GPGSV,3,1,12,01,14,040,26,10,13,317,28,11,07,027,11,12,22,242,27*70

[1499589807687]$GPGSV,3,2,12,13,34,181,29,15,47,231,30,17,54,097,40,18,11,292,*74

[1499589807687]$GPGSV,3,3,12,19,48,139,39,24,50,289,33,28,28,064,30,30,02,113,08*74

[1499589807687]$GPGLL,5355.77073,N,02729.48664,E,054327.00,A,A*6A

[1499589808697]$GPRMC,054328.00,A,5355.77081,N,02729.48665,E,0.040,,090717,,,A*7C

[1499589808697]$GPVTG,,T,,M,0.040,N,0.074,K,A*24

[1499589808697]$GPGGA,054328.00,5355.77081,N,02729.48665,E,1,10,0.95,208.9,M,25.0,M,,*55

[1499589808697]$GPGSA,A,3,10,24,01,17,13,19,11,28,15,12,,,2.01,0.95,1.78*04

[1499589808697]$GPGSV,3,1,12,01,14,040,26,10,13,317,28,11,07,027,11,12,22,242,27*70

[1499589808697]$GPGSV,3,2,12,13,34,181,28,15,47,231,30,17,54,097,40,18,11,292,*75

[1499589808697]$GPGSV,3,3,12,19,48,139,39,24,50,289,33,28,28,064,30,30,02,113,08*74

[1499589808697]$GPGLL,5355.77081,N,02729.48665,E,054328.00,A,A*69

[1499589809697]$GPRMC,054329.00,A,5355.77087,N,02729.48667,E,0.023,,090717,,,A*7C

[1499589809697]$GPVTG,,T,,M,0.023,N,0.043,K,A*25

[1499589809697]$GPGGA,054329.00,5355.77087,N,02729.48667,E,1,10,0.95,209.0,M,25.0,M,,*58

[1499589809697]$GPGSA,A,3,10,24,01,17,13,19,11,28,15,12,,,2.01,0.95,1.78*04

[1499589809697]$GPGSV,3,1,12,01,14,040,26,10,13,317,28,11,07,027,11,12,22,242,28*7F

[1499589809697]$GPGSV,3,2,12,13,34,181,29,15,47,231,31,17,54,097,40,18,11,292,*75

[1499589809697]$GPGSV,3,3,12,19,48,139,39,24,50,289,33,28,28,064,30,30,02,113,08*74

[1499589809697]$GPGLL,5355.77087,N,02729.48667,E,054329.00,A,A*6C

[1499589810687]$GPRMC,054330.00,A,5355.77094,N,02729.48668,E,0.027,,090717,,,A*7D

[1499589810687]$GPVTG,,T,,M,0.027,N,0.049,K,A*2B

[1499589810687]$GPGGA,054330.00,5355.77094,N,02729.48668,E,1,10,0.95,209.1,M,25.0,M,,*5C

[1499589810687]$GPGSA,A,3,10,24,01,17,13,19,11,28,15,12,,,2.01,0.95,1.78*04

[1499589810687]$GPGSV,3,1,12,01,14,039,26,10,13,317,28,11,07,027,11,12,22,242,27*7E

[1499589810687]$GPGSV,3,2,12,13,34,181,29,15,47,231,31,17,54,097,40,18,11,292,*75

[1499589810687]$GPGSV,3,3,12,19,48,139,39,24,50,289,34,28,28,064,30,30,02,113,08*73

[1499589810687]$GPGLL,5355.77094,N,02729.48668,E,054330.00,A,A*69

[1499589811687]$GPRMC,054331.00,A,5355.77102,N,02729.48676,E,0.070,,090717,,,A*7F

[1499589811687]$GPVTG,,T,,M,0.070,N,0.130,K,A*26

[1499589811687]$GPGGA,054331.00,5355.77102,N,02729.48676,E,1,10,0.95,209.2,M,25.0,M,,*5F

[1499589811687]$GPGSA,A,3,10,24,01,17,13,19,11,28,15,12,,,2.01,0.95,1.78*04

[1499589811687]$GPGSV,3,1,12,01,14,039,26,10,13,317,29,11,07,027,11,12,22,242,27*7F

[1499589811687]$GPGSV,3,2,12,13,34,181,29,15,47,231,32,17,54,097,40,18,11,292,*76

[1499589811687]$GPGSV,3,3,12,19,48,139,39,24,50,289,34,28,28,064,30,30,02,113,08*73

[1499589811687]$GPGLL,5355.77102,N,02729.48676,E,054331.00,A,A*69

[1499589812689]$GPRMC,054332.00,A,5355.77107,N,02729.48681,E,0.010,,090717,,,A*77

[1499589812689]$GPVTG,,T,,M,0.010,N,0.019,K,A*2A

[1499589812689]$GPGGA,054332.00,5355.77107,N,02729.48681,E,1,09,0.96,209.3,M,25.0,M,,*5B

[1499589812689]$GPGSA,A,3,10,24,01,17,13,19,28,15,12,,,,2.14,0.96,1.91*04

[1499589812689]$GPGSV,3,1,12,01,14,039,26,10,13,317,29,11,07,027,06,12,22,242,26*78

[1499589812689]$GPGSV,3,2,12,13,34,181,29,15,47,231,32,17,54,097,39,18,11,292,*78

[1499589812689]$GPGSV,3,3,12,19,48,139,39,24,50,289,34,28,28,064,30,30,02,113,07*7C

[1499589812689]$GPGLL,5355.77107,N,02729.48681,E,054332.00,A,A*67

[1499589813687]$GPRMC,054333.00,A,5355.77110,N,02729.48685,E,0.023,,090717,,,A*74

[1499589813687]$GPVTG,,T,,M,0.023,N,0.043,K,A*25

[1499589813687]$GPGGA,054333.00,5355.77110,N,02729.48685,E,1,09,0.96,209.5,M,25.0,M,,*5E

[1499589813687]$GPGSA,A,3,10,24,01,17,13,19,28,15,12,,,,2.13,0.96,1.91*03

[1499589813687]$GPGSV,3,1,12,01,14,039,26,10,13,317,29,11,07,027,06,12,22,242,26*78

[1499589813687]$GPGSV,3,2,12,13,34,181,29,15,47,231,32,17,54,097,39,18,11,292,*78

[1499589813687]$GPGSV,3,3,12,19,48,139,39,24,50,289,34,28,28,064,31,30,02,113,07*7D

[1499589813687]$GPGLL,5355.77110,N,02729.48685,E,054333.00,A,A*64

[1499589814687]$GPRMC,054334.00,A,5355.77113,N,02729.48688,E,0.061,,090717,,,A*7B

[1499589814687]$GPVTG,,T,,M,0.061,N,0.113,K,A*27

[1499589814687]$GPGGA,054334.00,5355.77113,N,02729.48688,E,1,09,0.96,209.6,M,25.0,M,,*54

[1499589814687]$GPGSA,A,3,10,24,01,17,13,19,28,15,12,,,,2.13,0.96,1.91*03

[1499589814687]$GPGSV,3,1,12,01,14,039,26,10,13,317,29,11,07,027,06,12,22,242,26*78

[1499589814687]$GPGSV,3,2,12,13,34,181,29,15,47,231,32,17,54,097,39,18,11,292,*78

[1499589814687]$GPGSV,3,3,12,19,48,139,39,24,50,289,34,28,28,064,30,30,02,113,*7B

[1499589814687]$GPGLL,5355.77113,N,02729.48688,E,054334.00,A,A*6D

[1499589815691]$GPRMC,054335.00,A,5355.77115,N,02729.48691,E,0.001,,090717,,,A*72

[1499589815691]$GPVTG,,T,,M,0.001,N,0.002,K,A*20

[1499589815691]$GPGGA,054335.00,5355.77115,N,02729.48691,E,1,09,0.96,209.7,M,25.0,M,,*5A

[1499589815691]$GPGSA,A,3,10,24,01,17,13,19,28,15,12,,,,2.13,0.96,1.91*03

[1499589815691]$GPGSV,3,1,12,01,14,039,26,10,13,317,29,11,07,027,06,12,22,242,25*7B

[1499589815691]$GPGSV,3,2,12,13,34,181,29,15,47,231,32,17,54,097,39,18,11,292,*78

[1499589815691]$GPGSV,3,3,12,19,48,139,39,24,50,289,35,28,28,064,31,30,02,113,*7B

[1499589815691]$GPGLL,5355.77115,N,02729.48691,E,054335.00,A,A*62

[1499589816687]$GPRMC,054336.00,A,5355.77120,N,02729.48694,E,0.074,,090717,,,A*70

[1499589816687]$GPVTG,,T,,M,0.074,N,0.138,K,A*2A

[1499589816687]$GPGGA,054336.00,5355.77120,N,02729.48694,E,1,09,0.96,209.8,M,25.0,M,,*55

[1499589816687]$GPGSA,A,3,10,24,01,17,13,19,28,15,12,,,,2.13,0.96,1.90*02

[1499589816687]$GPGSV,3,1,12,01,14,039,27,10,13,317,29,11,07,027,06,12,22,242,25*7A

[1499589816687]$GPGSV,3,2,12,13,34,181,29,15,47,231,32,17,54,097,39,18,11,292,*78

[1499589816687]$GPGSV,3,3,12,19,48,139,39,24,50,289,35,28,28,064,31,30,02,113,*7B

[1499589816687]$GPGLL,5355.77120,N,02729.48694,E,054336.00,A,A*62

[1499589817687]$GPRMC,054337.00,A,5355.77124,N,02729.48698,E,0.032,,090717,,,A*7B

[1499589817687]$GPVTG,,T,,M,0.032,N,0.060,K,A*24

[1499589817687]$GPGGA,054337.00,5355.77124,N,02729.48698,E,1,09,0.96,209.9,M,25.0,M,,*5D

[1499589817687]$GPGSA,A,3,10,24,01,17,13,19,28,15,12,,,,2.13,0.96,1.90*02

[1499589817687]$GPGSV,3,1,12,01,14,039,28,10,13,317,28,11,07,027,06,12,22,242,25*74

[1499589817687]$GPGSV,3,2,12,13,34,181,29,15,47,231,32,17,54,097,39,18,11,292,05*7D

[1499589817687]$GPGSV,3,3,12,19,48,139,39,24,50,289,35,28,28,064,31,30,02,113,*7B

[1499589817687]$GPGLL,5355.77124,N,02729.48698,E,054337.00,A,A*6B

[1499589818688]$GPRMC,054338.00,A,5355.77127,N,02729.48705,E,0.013,,090717,,,A*71

[1499589818688]$GPVTG,,T,,M,0.013,N,0.024,K,A*27

[1499589818688]$GPGGA,054338.00,5355.77127,N,02729.48705,E,1,09,0.96,210.0,M,25.0,M,,*55

[1499589818688]$GPGSA,A,3,10,24,01,17,13,19,28,15,12,,,,2.13,0.96,1.90*02

[1499589818688]$GPGSV,3,1,12,01,14,039,28,10,13,317,28,11,07,027,07,12,22,242,26*76

[1499589818688]$GPGSV,3,2,12,13,34,181,29,15,47,231,31,17,54,097,39,18,11,292,07*7C

[1499589818688]$GPGSV,3,3,12,19,48,139,38,24,50,289,35,28,28,064,31,30,02,113,*7A

[1499589818688]$GPGLL,5355.77127,N,02729.48705,E,054338.00,A,A*62

[1499589819690]$GPRMC,054339.00,A,5355.77129,N,02729.48713,E,0.018,,090717,,,A*72

[1499589819690]$GPVTG,,T,,M,0.018,N,0.034,K,A*2D

[1499589819690]$GPGGA,054339.00,5355.77129,N,02729.48713,E,1,09,0.96,210.1,M,25.0,M,,*5C

[1499589819690]$GPGSA,A,3,10,24,01,17,13,19,28,15,12,,,,2.13,0.96,1.90*02

[1499589819690]$GPGSV,3,1,12,01,14,039,28,10,13,317,28,11,07,027,07,12,22,242,26*76

[1499589819690]$GPGSV,3,2,12,13,34,181,29,15,47,231,31,17,54,097,39,18,11,292,10*7A

[1499589819690]$GPGSV,3,3,12,19,48,139,38,24,50,289,35,28,28,064,31,30,02,113,*7A

[1499589819690]$GPGLL,5355.77129,N,02729.48713,E,054339.00,A,A*6A

[1499589820687]$GPRMC,054340.00,A,5355.77133,N,02729.48724,E,0.046,,090717,,,A*78

[1499589820687]$GPVTG,,T,,M,0.046,N,0.085,K,A*2C

[1499589820687]$GPGGA,054340.00,5355.77133,N,02729.48724,E,1,09,0.96,210.2,M,25.0,M,,*5E

[1499589820687]$GPGSA,A,3,10,24,01,17,13,19,28,15,12,,,,2.13,0.96,1.90*02

[1499589820687]$GPGSV,3,1,12,01,14,039,28,10,13,317,29,11,07,027,,12,22,243,26*71

[1499589820687]$GPGSV,3,2,12,13,34,181,29,15,47,231,31,17,54,097,39,18,11,292,11*7B

[1499589820687]$GPGSV,3,3,12,19,48,139,38,24,50,289,35,28,28,064,31,30,02,113,*7A

[1499589820687]$GPGLL,5355.77133,N,02729.48724,E,054340.00,A,A*6B

[1499589821688]$GPRMC,054341.00,A,5355.77136,N,02729.48733,E,0.035,,090717,,,A*7E

[1499589821688]$GPVTG,,T,,M,0.035,N,0.065,K,A*26

[1499589821688]$GPGGA,054341.00,5355.77136,N,02729.48733,E,1,09,0.96,210.5,M,25.0,M,,*5B

[1499589821688]$GPGSA,A,3,10,24,01,17,13,19,28,15,12,,,,2.13,0.96,1.90*02

[1499589821688]$GPGSV,3,1,12,01,14,039,28,10,13,317,29,11,07,027,,12,22,243,26*71

[1499589821688]$GPGSV,3,2,12,13,34,181,29,15,47,231,31,17,54,097,39,18,11,292,12*78

[1499589821688]$GPGSV,3,3,12,19,48,139,39,24,50,289,35,28,28,064,31,30,02,113,*7B

[1499589821688]$GPGLL,5355.77136,N,02729.48733,E,054341.00,A,A*69

[1499589822687]$GPRMC,054342.00,A,5355.77138,N,02729.48743,E,0.041,,090717,,,A*77

[1499589822687]$GPVTG,,T,,M,0.041,N,0.077,K,A*26

[1499589822687]$GPGGA,054342.00,5355.77138,N,02729.48743,E,1,10,0.96,210.7,M,25.0,M,,*5B

[1499589822687]$GPGSA,A,3,10,24,01,17,13,19,18,28,15,12,,,2.13,0.96,1.90*0B

[1499589822687]$GPGSV,3,1,12,01,14,039,28,10,13,317,29,11,07,027,,12,22,243,27*70

[1499589822687]$GPGSV,3,2,12,13,34,181,29,15,47,231,31,17,54,097,39,18,11,292,12*78

[1499589822687]$GPGSV,3,3,12,19,48,139,39,24,50,289,35,28,28,064,32,30,02,113,*78

[1499589822687]$GPGLL,5355.77138,N,02729.48743,E,054342.00,A,A*63

[1499589823691]$GPRMC,054343.00,A,5355.77140,N,02729.48755,E,0.050,,090717,,,A*7E

[1499589823691]$GPVTG,,T,,M,0.050,N,0.093,K,A*2C

[1499589823691]$GPGGA,054343.00,5355.77140,N,02729.48755,E,1,10,0.96,210.9,M,25.0,M,,*5C

[1499589823691]$GPGSA,A,3,10,24,01,17,13,19,18,28,15,12,,,2.13,0.96,1.90*0B

[1499589823691]$GPGSV,3,1,12,01,14,039,28,10,13,317,29,11,07,027,,12,22,243,26*71

[1499589823691]$GPGSV,3,2,12,13,34,181,28,15,47,230,31,17,54,097,39,18,11,292,13*79

[1499589823691]$GPGSV,3,3,12,19,48,139,39,24,50,289,36,28,28,064,32,30,02,113,*7B

[1499589823691]$GPGLL,5355.77140,N,02729.48755,E,054343.00,A,A*6A

[1499589824689]$GPRMC,054344.00,A,5355.77141,N,02729.48761,E,0.058,,090717,,,A*77

[1499589824689]$GPVTG,,T,,M,0.058,N,0.108,K,A*27

[1499589824689]$GPGGA,054344.00,5355.77141,N,02729.48761,E,1,10,0.96,210.9,M,25.0,M,,*5D

[1499589824689]$GPGSA,A,3,10,24,01,17,13,19,18,28,15,12,,,2.13,0.96,1.90*0B

[1499589824689]$GPGSV,3,1,12,01,14,039,27,10,13,317,29,11,07,027,,12,22,243,27*7F

[1499589824689]$GPGSV,3,2,12,13,34,181,28,15,47,230,31,17,54,097,39,18,11,292,14*7E

[1499589824689]$GPGSV,3,3,12,19,48,139,39,24,50,289,35,28,28,064,32,30,02,113,*78

[1499589824689]$GPGLL,5355.77141,N,02729.48761,E,054344.00,A,A*6B

[1499589825687]$GPRMC,054345.00,A,5355.77137,N,02729.48767,E,0.029,,090717,,,A*77

[1499589825687]$GPVTG,,T,,M,0.029,N,0.053,K,A*2E

[1499589825687]$GPGGA,054345.00,5355.77137,N,02729.48767,E,1,10,0.96,211.0,M,25.0,M,,*53

[1499589825687]$GPGSA,A,3,10,24,01,17,13,19,18,28,15,12,,,2.13,0.96,1.90*0B

[1499589825687]$GPGSV,3,1,12,01,14,039,27,10,13,317,29,11,07,027,,12,22,243,27*7F

[1499589825687]$GPGSV,3,2,12,13,34,181,29,15,47,230,31,17,54,097,39,18,11,292,12*79

[1499589825687]$GPGSV,3,3,12,19,48,139,39,24,50,289,35,28,28,064,32,30,02,113,*78

[1499589825687]$GPGLL,5355.77137,N,02729.48767,E,054345.00,A,A*6D

[1499589826687]$GPRMC,054346.00,A,5355.77134,N,02729.48772,E,0.016,,090717,,,A*7F

[1499589826687]$GPVTG,,T,,M,0.016,N,0.030,K,A*27

[1499589826687]$GPGGA,054346.00,5355.77134,N,02729.48772,E,1,10,0.96,210.9,M,25.0,M,,*5F

[1499589826687]$GPGSA,A,3,10,24,01,17,13,19,18,28,15,12,,,2.13,0.96,1.90*0B

[1499589826687]$GPGSV,3,1,12,01,14,039,28,10,13,317,30,11,07,027,,12,22,243,27*78

[1499589826687]$GPGSV,3,2,12,13,34,181,29,15,47,230,31,17,54,097,39,18,11,291,11*79

[1499589826687]$GPGSV,3,3,12,19,48,139,39,24,50,289,35,28,28,064,32,30,02,113,*78

[1499589826687]$GPGLL,5355.77134,N,02729.48772,E,054346.00,A,A*69

[1499589827688]$GPRMC,054347.00,A,5355.77130,N,02729.48776,E,0.009,,090717,,,A*70

[1499589827688]$GPVTG,,T,,M,0.009,N,0.017,K,A*2C

[1499589827688]$GPGGA,054347.00,5355.77130,N,02729.48776,E,1,10,0.96,210.8,M,25.0,M,,*5F

[1499589827688]$GPGSA,A,3,10,24,01,17,13,19,18,28,15,12,,,2.13,0.96,1.90*0B

[1499589827688]$GPGSV,3,1,12,01,14,039,28,10,13,317,30,11,07,027,,12,22,243,27*78

[1499589827688]$GPGSV,3,2,12,13,34,181,29,15,47,230,32,17,54,097,39,18,11,291,11*7A

[1499589827688]$GPGSV,3,3,12,19,48,138,39,24,50,289,35,28,28,064,32,30,02,113,*79

[1499589827688]$GPGLL,5355.77130,N,02729.48776,E,054347.00,A,A*68

[1499589828689]$GPRMC,054348.00,A,5355.77129,N,02729.48783,E,0.024,,090717,,,A*72

[1499589828689]$GPVTG,,T,,M,0.024,N,0.044,K,A*25

[1499589828689]$GPGGA,054348.00,5355.77129,N,02729.48783,E,1,10,0.96,210.9,M,25.0,M,,*53

[1499589828689]$GPGSA,A,3,10,24,01,17,13,19,18,28,15,12,,,2.13,0.96,1.90*0B

[1499589828689]$GPGSV,3,1,12,01,14,039,28,10,13,317,30,11,07,027,02,12,22,243,27*7A

[1499589828689]$GPGSV,3,2,12,13,34,181,29,15,47,230,31,17,54,097,39,18,11,291,11*79

[1499589828689]$GPGSV,3,3,12,19,48,138,39,24,50,289,35,28,28,064,32,30,02,113,*79

[1499589828689]$GPGLL,5355.77129,N,02729.48783,E,054348.00,A,A*65

[1499589829687]$GPRMC,054349.00,A,5355.77129,N,02729.48787,E,0.013,,090717,,,A*73

[1499589829687]$GPVTG,,T,,M,0.013,N,0.023,K,A*20

[1499589829687]$GPGGA,054349.00,5355.77129,N,02729.48787,E,1,10,0.96,211.0,M,25.0,M,,*5E

[1499589829687]$GPGSA,A,3,10,24,01,17,13,19,18,28,15,12,,,2.13,0.96,1.90*0B

[1499589829687]$GPGSV,3,1,12,01,14,039,28,10,13,317,30,11,07,027,06,12,22,243,27*7E

[1499589829687]$GPGSV,3,2,12,13,34,181,28,15,47,230,31,17,54,097,39,18,11,291,11*78

[1499589829687]$GPGSV,3,3,12,19,48,138,39,24,50,289,35,28,28,064,32,30,02,113,*79

[1499589829687]$GPGLL,5355.77129,N,02729.48787,E,054349.00,A,A*60

[1499589830687]$GPRMC,054350.00,A,5355.77132,N,02729.48792,E,0.038,,090717,,,A*7C

[1499589830687]$GPVTG,,T,,M,0.038,N,0.071,K,A*2E

[1499589830687]$GPGGA,054350.00,5355.77132,N,02729.48792,E,1,10,0.96,211.1,M,25.0,M,,*59

[1499589830687]$GPGSA,A,3,10,24,01,17,13,19,18,28,15,12,,,2.13,0.96,1.90*0B

[1499589830687]$GPGSV,3,1,12,01,14,039,29,10,13,317,30,11,07,027,10,12,22,243,28*77

[1499589830687]$GPGSV,3,2,12,13,34,181,29,15,47,230,30,17,54,097,39,18,11,291,11*78

[1499589830687]$GPGSV,3,3,12,19,48,138,39,24,50,289,35,28,28,064,32,30,02,113,*79

[1499589830687]$GPGLL,5355.77132,N,02729.48792,E,054350.00,A,A*66

[1499589831687]$GPRMC,054351.00,A,5355.77132,N,02729.48802,E,0.038,,090717,,,A*7B

[1499589831687]$GPVTG,,T,,M,0.038,N,0.070,K,A*2F

[1499589831687]$GPGGA,054351.00,5355.77132,N,02729.48802,E,1,10,0.96,211.3,M,25.0,M,,*5C

[1499589831687]$GPGSA,A,3,10,24,01,17,13,19,18,28,15,12,,,2.13,0.96,1.90*0B

[1499589831687]$GPGSV,3,1,12,01,14,039,29,10,13,317,30,11,07,027,11,12,22,243,28*76

[1499589831687]$GPGSV,3,2,12,13,34,181,29,15,47,230,31,17,54,097,39,18,11,291,11*79

[1499589831687]$GPGSV,3,3,12,19,48,138,39,24,50,289,35,28,28,064,33,30,02,113,*78

[1499589831687]$GPGLL,5355.77132,N,02729.48802,E,054351.00,A,A*61

[1499589832698]$GPRMC,054352.00,A,5355.77138,N,02729.48801,E,0.006,,090717,,,A*7C

[1499589832698]$GPVTG,,T,,M,0.006,N,0.011,K,A*25

[1499589832698]$GPGGA,054352.00,5355.77138,N,02729.48801,E,1,10,0.96,211.6,M,25.0,M,,*53

[1499589832698]$GPGSA,A,3,10,24,01,17,13,19,18,28,15,12,,,2.13,0.96,1.90*0B

[1499589832698]$GPGSV,3,1,12,01,14,039,29,10,13,317,30,11,07,027,11,12,22,243,28*76

[1499589832698]$GPGSV,3,2,12,13,34,181,29,15,47,230,31,17,54,097,39,18,11,291,11*79

[1499589832698]$GPGSV,3,3,12,19,48,138,39,24,50,289,35,28,28,064,33,30,02,113,*78

[1499589832698]$GPGLL,5355.77138,N,02729.48801,E,054352.00,A,A*6B

[1499589833687]$GPRMC,054353.00,A,5355.77140,N,02729.48802,E,0.030,,090717,,,A*74

[1499589833687]$GPVTG,,T,,M,0.030,N,0.056,K,A*23

[1499589833687]$GPGGA,054353.00,5355.77140,N,02729.48802,E,1,11,0.96,211.8,M,25.0,M,,*51

[1499589833687]$GPGSA,A,3,10,24,01,17,13,19,11,18,28,15,12,,2.13,0.96,1.90*0B

[1499589833687]$GPGSV,3,1,12,01,14,039,29,10,13,317,30,11,07,027,11,12,22,243,29*77

[1499589833687]$GPGSV,3,2,12,13,34,181,29,15,47,230,31,17,54,097,38,18,11,291,11*78

[1499589833687]$GPGSV,3,3,12,19,48,138,39,24,50,289,35,28,28,064,33,30,02,113,*78

[1499589833687]$GPGLL,5355.77140,N,02729.48802,E,054353.00,A,A*66

[1499589834687]$GPRMC,054354.00,A,5355.77141,N,02729.48804,E,0.021,,090717,,,A*74

[1499589834687]$GPVTG,,T,,M,0.021,N,0.039,K,A*2A

[1499589834687]$GPGGA,054354.00,5355.77141,N,02729.48804,E,1,11,0.96,212.0,M,25.0,M,,*5A

[1499589834687]$GPGSA,A,3,10,24,01,17,13,19,11,18,28,15,12,,2.13,0.96,1.90*0B

[1499589834687]$GPGSV,3,1,12,01,14,039,29,10,13,317,30,11,07,027,12,12,22,243,29*74

[1499589834687]$GPGSV,3,2,12,13,34,181,29,15,47,230,32,17,54,097,38,18,11,291,11*7B

[1499589834687]$GPGSV,3,3,12,19,48,138,39,24,50,289,35,28,28,064,33,30,02,113,*78

[1499589834687]$GPGLL,5355.77141,N,02729.48804,E,054354.00,A,A*66

[1499589835687]$GPRMC,054355.00,A,5355.77141,N,02729.48805,E,0.048,,090717,,,A*7B

[1499589835687]$GPVTG,,T,,M,0.048,N,0.089,K,A*2E

[1499589835687]$GPGGA,054355.00,5355.77141,N,02729.48805,E,1,11,0.94,212.2,M,25.0,M,,*5A

[1499589835687]$GPGSA,A,3,10,24,01,17,13,19,11,18,28,15,12,,2.03,0.94,1.80*09

[1499589835687]$GPGSV,3,1,12,01,14,039,29,10,13,317,30,11,07,027,13,12,22,243,29*75

[1499589835687]$GPGSV,3,2,12,13,34,181,29,15,47,230,32,17,54,097,38,18,11,291,11*7B

[1499589835687]$GPGSV,3,3,12,19,48,138,37,24,50,289,34,28,28,064,33,30,02,113,*77

[1499589835687]$GPGLL,5355.77141,N,02729.48805,E,054355.00,A,A*66

[1499589836697]$GPRMC,054356.00,A,5355.77141,N,02729.48804,E,0.028,,090717,,,A*7F

[1499589836697]$GPVTG,,T,,M,0.028,N,0.052,K,A*2E

[1499589836697]$GPGGA,054356.00,5355.77141,N,02729.48804,E,1,11,0.94,212.5,M,25.0,M,,*5F

[1499589836697]$GPGSA,A,3,10,24,01,17,13,19,11,18,28,15,12,,2.03,0.94,1.80*09

[1499589836697]$GPGSV,3,1,12,01,14,039,29,10,13,317,30,11,07,027,12,12,22,243,29*74

[1499589836697]$GPGSV,3,2,12,13,34,181,29,15,47,230,33,17,54,097,38,18,11,291,16*7D

[1499589836697]$GPGSV,3,3,12,19,48,138,38,24,50,289,34,28,28,064,33,30,02,113,*78

[1499589836697]$GPGLL,5355.77141,N,02729.48804,E,054356.00,A,A*64

[1499589837687]$GPRMC,054357.00,A,5355.77141,N,02729.48805,E,0.030,,090717,,,A*76

[1499589837687]$GPVTG,,T,,M,0.030,N,0.056,K,A*23

[1499589837687]$GPGGA,054357.00,5355.77141,N,02729.48805,E,1,11,0.94,212.8,M,25.0,M,,*52

[1499589837687]$GPGSA,A,3,10,24,01,17,13,19,11,18,28,15,12,,2.03,0.94,1.80*09

[1499589837687]$GPGSV,3,1,12,01,14,039,29,10,13,317,30,11,07,027,10,12,22,243,29*76

[1499589837687]$GPGSV,3,2,12,13,34,181,30,15,47,230,33,17,54,097,38,18,11,291,16*75

[1499589837687]$GPGSV,3,3,12,19,48,138,38,24,50,289,34,28,28,064,33,30,02,113,*78

[1499589837687]$GPGLL,5355.77141,N,02729.48805,E,054357.00,A,A*64

[1499589838687]$GPRMC,054358.00,A,5355.77140,N,02729.48806,E,0.034,,090717,,,A*7F

[1499589838687]$GPVTG,,T,,M,0.034,N,0.063,K,A*21

[1499589838687]$GPGGA,054358.00,5355.77140,N,02729.48806,E,1,11,0.94,213.0,M,25.0,M,,*56

[1499589838687]$GPGSA,A,3,10,24,01,17,13,19,11,18,28,15,12,,2.03,0.94,1.80*09

[1499589838687]$GPGSV,3,1,12,01,14,039,29,10,13,317,30,11,07,027,10,12,22,243,29*76

[1499589838687]$GPGSV,3,2,12,13,34,181,30,15,47,230,33,17,54,097,38,18,11,291,16*75

[1499589838687]$GPGSV,3,3,12,19,48,138,38,24,50,289,34,28,28,064,34,30,02,113,*7F

