[1499552312954]$GPRMC,191832.00,A,5357.23583,N,02741.21156,E,0.129,,080717,,,A*79

[1499552312954]$GPVTG,,T,,M,0.129,N,0.239,K,A*21

[1499552312954]$GPGGA,191832.00,5357.23583,N,02741.21156,E,1,10,1.17,245.7,M,24.7,M,,*55

[1499552312954]$GPGSA,A,3,11,14,01,32,22,03,19,17,31,23,,,2.07,1.17,1.71*0C

[1499552312954]$GPGSV,4,1,14,01,77,234,22,03,45,267,39,04,10,132,17,08,05,194,*74

[1499552312954]$GPGSV,4,2,14,10,02,085,18,11,53,201,31,12,02,022,,14,54,072,30*79

[1499552312954]$GPGSV,4,3,14,17,27,312,32,19,13,329,20,22,74,263,29,23,09,214,13*7B

[1499552312954]$GPGSV,4,4,14,31,24,114,17,32,37,057,29*76

[1499552312954]$GPGLL,5357.23583,N,02741.21156,E,191832.00,A,A*63

[1499552313949]$GPRMC,191833.00,A,5357.23579,N,02741.21154,E,0.129,,080717,,,A*7F

[1499552313949]$GPVTG,,T,,M,0.129,N,0.239,K,A*21

[1499552313949]$GPGGA,191833.00,5357.23579,N,02741.21154,E,1,10,1.17,245.8,M,24.7,M,,*5C

[1499552313949]$GPGSA,A,3,11,14,01,32,22,03,19,17,31,23,,,2.07,1.17,1.71*0C

[1499552313949]$GPGSV,4,1,14,01,77,234,21,03,45,267,39,04,10,132,17,08,05,194,*77

[1499552313949]$GPGSV,4,2,14,10,02,085,18,11,53,201,30,12,02,022,,14,54,072,30*78

[1499552313949]$GPGSV,4,3,14,17,27,312,31,19,13,329,22,22,74,263,28,23,09,214,12*7A

[1499552313949]$GPGSV,4,4,14,31,24,114,16,32,37,057,30*7F

[1499552313949]$GPGLL,5357.23579,N,02741.21154,E,191833.00,A,A*65

[1499552314961]$GPRMC,191834.00,A,5357.23576,N,02741.21153,E,0.083,,080717,,,A*71

[1499552314961]$GPVTG,,T,,M,0.083,N,0.154,K,A*28

[1499552314961]$GPGGA,191834.00,5357.23576,N,02741.21153,E,1,09,1.17,245.8,M,24.7,M,,*5B

[1499552314961]$GPGSA,A,3,11,14,01,32,22,03,19,17,31,,,,2.07,1.17,1.71*0D

[1499552314961]$GPGSV,4,1,14,01,77,234,20,03,45,267,39,04,10,132,17,08,05,194,*76

[1499552314961]$GPGSV,4,2,14,10,02,085,17,11,53,201,30,12,02,022,,14,54,072,29*7F

[1499552314961]$GPGSV,4,3,14,17,27,312,30,19,13,329,22,22,74,263,29,23,09,214,11*79

[1499552314961]$GPGSV,4,4,14,31,24,114,16,32,37,057,30*7F

[1499552314961]$GPGLL,5357.23576,N,02741.21153,E,191834.00,A,A*6A

[1499552315950]$GPRMC,191835.00,A,5357.23576,N,02741.21150,E,0.096,,080717,,,A*77

[1499552315950]$GPVTG,,T,,M,0.096,N,0.177,K,A*2D

[1499552315950]$GPGGA,191835.00,5357.23576,N,02741.21150,E,1,09,1.17,246.0,M,24.7,M,,*52

[1499552315950]$GPGSA,A,3,11,14,01,32,22,03,19,17,31,,,,2.07,1.17,1.71*0D

[1499552315950]$GPGSV,4,1,14,01,77,234,19,03,45,267,39,04,10,132,19,08,05,194,*72

[1499552315950]$GPGSV,4,2,14,10,02,085,17,11,53,201,30,12,02,022,,14,54,072,29*7F

[1499552315950]$GPGSV,4,3,14,17,27,312,31,19,13,329,20,22,74,263,28,23,09,214,10*7A

[1499552315950]$GPGSV,4,4,14,31,24,114,17,32,37,057,30*7E

[1499552315950]$GPGLL,5357.23576,N,02741.21150,E,191835.00,A,A*68

[1499552316950]$GPRMC,191836.00,A,5357.23571,N,02741.21152,E,0.075,,080717,,,A*7C

[1499552316950]$GPVTG,,T,,M,0.075,N,0.139,K,A*2A

[1499552316950]$GPGGA,191836.00,5357.23571,N,02741.21152,E,1,09,1.17,246.0,M,24.7,M,,*54

[1499552316950]$GPGSA,A,3,11,14,01,32,22,03,19,17,31,,,,2.07,1.17,1.71*0D

[1499552316950]$GPGSV,4,1,14,01,77,234,19,03,45,267,39,04,10,132,19,08,05,194,*72

[1499552316950]$GPGSV,4,2,14,10,02,085,17,11,53,201,31,12,02,022,,14,54,072,29*7E

[1499552316950]$GPGSV,4,3,14,17,27,312,30,19,13,329,19,22,74,263,29,23,09,214,09*78

[1499552316950]$GPGSV,4,4,14,31,24,114,18,32,37,057,30*71

[1499552316950]$GPGLL,5357.23571,N,02741.21152,E,191836.00,A,A*6E

[1499552317950]$GPRMC,191837.00,A,5357.23568,N,02741.21150,E,0.076,,080717,,,A*74

[1499552317950]$GPVTG,,T,,M,0.076,N,0.141,K,A*26

[1499552317950]$GPGGA,191837.00,5357.23568,N,02741.21150,E,1,09,1.17,245.9,M,24.7,M,,*55

[1499552317950]$GPGSA,A,3,11,14,01,32,22,03,19,17,31,,,,2.07,1.17,1.71*0D

[1499552317950]$GPGSV,4,1,14,01,77,234,21,03,45,267,39,04,10,132,21,08,05,194,*72

[1499552317950]$GPGSV,4,2,14,10,02,085,17,11,53,201,31,12,02,022,,14,54,072,30*76

[1499552317950]$GPGSV,4,3,14,17,27,312,29,19,13,329,18,22,74,263,28,23,09,214,11*79

[1499552317950]$GPGSV,4,4,14,31,24,114,18,32,37,057,30*71

[1499552317950]$GPGLL,5357.23568,N,02741.21150,E,191837.00,A,A*65

[1499552318950]$GPRMC,191838.00,A,5357.23570,N,02741.21150,E,0.103,,080717,,,A*71

[1499552318950]$GPVTG,,T,,M,0.103,N,0.191,K,A*28

[1499552318950]$GPGGA,191838.00,5357.23570,N,02741.21150,E,1,09,1.17,245.9,M,24.7,M,,*53

[1499552318950]$GPGSA,A,3,11,14,01,32,22,03,19,17,31,,,,2.07,1.17,1.71*0D

[1499552318950]$GPGSV,4,1,14,01,77,234,21,03,45,267,39,04,10,132,22,08,05,194,*71

[1499552318950]$GPGSV,4,2,14,10,02,085,16,11,53,201,32,12,02,022,,14,54,072,30*74

[1499552318950]$GPGSV,4,3,14,17,27,312,29,19,13,329,17,22,74,263,29,23,09,214,12*74

[1499552318950]$GPGSV,4,4,14,31,25,114,17,32,37,057,30*7F

[1499552318950]$GPGLL,5357.23570,N,02741.21150,E,191838.00,A,A*63

[1499552319950]$GPRMC,191839.00,A,5357.23565,N,02741.21158,E,0.159,,080717,,,A*73

[1499552319950]$GPVTG,,T,,M,0.159,N,0.294,K,A*21

[1499552319950]$GPGGA,191839.00,5357.23565,N,02741.21158,E,1,09,1.17,245.8,M,24.7,M,,*5F

[1499552319950]$GPGSA,A,3,11,14,01,32,22,03,19,17,31,,,,2.07,1.17,1.71*0D

[1499552319950]$GPGSV,4,1,14,01,77,234,20,03,45,267,39,04,10,132,22,08,05,194,*70

[1499552319950]$GPGSV,4,2,14,10,02,085,13,11,53,201,32,12,02,022,,14,54,072,30*71

[1499552319950]$GPGSV,4,3,14,17,27,312,29,19,13,329,16,22,74,263,28,23,09,214,11*77

[1499552319950]$GPGSV,4,4,14,31,25,114,15,32,36,057,30*7C

[1499552319950]$GPGLL,5357.23565,N,02741.21158,E,191839.00,A,A*6E

[1499552320950]$GPRMC,191840.00,A,5357.23563,N,02741.21163,E,0.111,,080717,,,A*7F

[1499552320950]$GPVTG,,T,,M,0.111,N,0.205,K,A*25

[1499552320950]$GPGGA,191840.00,5357.23563,N,02741.21163,E,1,10,1.17,245.7,M,24.7,M,,*58

[1499552320950]$GPGSA,A,3,11,14,01,32,22,03,19,17,31,23,,,2.07,1.17,1.71*0C

[1499552320950]$GPGSV,4,1,14,01,77,234,19,03,45,267,39,04,10,132,23,08,05,194,*7B

[1499552320950]$GPGSV,4,2,14,10,02,085,12,11,53,201,31,12,02,022,,14,54,072,30*73

[1499552320950]$GPGSV,4,3,14,17,27,312,29,19,13,329,17,22,74,263,28,23,09,214,13*74

[1499552320950]$GPGSV,4,4,14,31,25,114,13,32,36,057,29*72

[1499552320950]$GPGLL,5357.23563,N,02741.21163,E,191840.00,A,A*6E

[1499552321950]$GPRMC,191841.00,A,5357.23563,N,02741.21166,E,0.032,,080717,,,A*7B

[1499552321950]$GPVTG,,T,,M,0.032,N,0.059,K,A*2E

[1499552321950]$GPGGA,191841.00,5357.23563,N,02741.21166,E,1,10,1.17,245.6,M,24.7,M,,*5D

[1499552321950]$GPGSA,A,3,11,14,01,32,22,03,19,17,31,23,,,2.07,1.17,1.71*0C

[1499552321950]$GPGSV,4,1,14,01,77,234,18,03,45,267,39,04,10,132,23,08,05,194,06*7C

[1499552321950]$GPGSV,4,2,14,10,02,085,12,11,53,201,32,12,02,022,,14,54,072,30*70

[1499552321950]$GPGSV,4,3,14,17,27,312,28,19,13,329,17,22,74,263,28,23,09,214,15*73

[1499552321950]$GPGSV,4,4,14,31,25,114,13,32,36,057,29*72

[1499552321950]$GPGLL,5357.23563,N,02741.21166,E,191841.00,A,A*6A

[1499552322950]$GPRMC,191842.00,A,5357.23564,N,02741.21164,E,0.068,,080717,,,A*72

[1499552322950]$GPVTG,,T,,M,0.068,N,0.127,K,A*29

[1499552322950]$GPGGA,191842.00,5357.23564,N,02741.21164,E,1,10,1.17,245.5,M,24.7,M,,*58

[1499552322950]$GPGSA,A,3,11,14,01,32,22,03,19,17,31,23,,,2.07,1.17,1.71*0C

[1499552322950]$GPGSV,4,1,14,01,77,234,19,03,45,267,39,04,10,132,23,08,05,194,08*73

[1499552322950]$GPGSV,4,2,14,10,02,085,14,11,53,201,32,12,02,022,,14,54,072,30*76

[1499552322950]$GPGSV,4,3,14,17,27,312,29,19,13,329,16,22,74,263,28,23,09,214,17*71

[1499552322950]$GPGSV,4,4,14,31,25,114,11,32,36,057,30*78

[1499552322950]$GPGLL,5357.23564,N,02741.21164,E,191842.00,A,A*6C

[1499552323950]$GPRMC,191843.00,A,5357.23561,N,02741.21164,E,0.062,,080717,,,A*7C

[1499552323950]$GPVTG,,T,,M,0.062,N,0.114,K,A*23

[1499552323950]$GPGGA,191843.00,5357.23561,N,02741.21164,E,1,09,1.73,245.3,M,24.7,M,,*50

[1499552323950]$GPGSA,A,3,11,14,01,32,22,03,19,17,23,,,,3.30,1.73,2.80*04

[1499552323950]$GPGSV,4,1,14,01,77,234,19,03,45,267,39,04,10,132,23,08,05,194,08*73

[1499552323950]$GPGSV,4,2,14,10,02,085,16,11,53,201,32,12,02,022,,14,54,072,29*7C

[1499552323950]$GPGSV,4,3,14,17,27,312,29,19,13,329,16,22,74,263,28,23,09,214,18*7E

[1499552323950]$GPGSV,4,4,14,31,25,114,09,32,36,057,29*79

[1499552323950]$GPGLL,5357.23561,N,02741.21164,E,191843.00,A,A*68

[1499552324956]$GPRMC,191844.00,A,5357.23558,N,02741.21165,E,0.153,,080717,,,A*73

[1499552324956]$GPVTG,,T,,M,0.153,N,0.284,K,A*2A

[1499552324956]$GPGGA,191844.00,5357.23558,N,02741.21165,E,1,09,1.73,245.3,M,24.7,M,,*5C

[1499552324956]$GPGSA,A,3,11,14,01,32,22,03,19,17,23,,,,3.30,1.73,2.80*04

[1499552324956]$GPGSV,4,1,14,01,77,234,20,03,45,267,39,04,10,132,23,08,05,194,09*78

[1499552324956]$GPGSV,4,2,14,10,02,085,15,11,53,201,32,12,02,022,,14,54,072,29*7F

[1499552324956]$GPGSV,4,3,14,17,27,312,28,19,13,329,16,22,74,263,29,23,09,214,18*7E

[1499552324956]$GPGSV,4,4,14,31,25,114,08,32,36,057,30*70

[1499552324956]$GPGLL,5357.23558,N,02741.21165,E,191844.00,A,A*64

[1499552325950]$GPRMC,191845.00,A,5357.23556,N,02741.21159,E,0.093,,080717,,,A*7E

[1499552325950]$GPVTG,,T,,M,0.093,N,0.171,K,A*2E

[1499552325950]$GPGGA,191845.00,5357.23556,N,02741.21159,E,1,09,1.73,245.3,M,24.7,M,,*5C

[1499552325950]$GPGSA,A,3,11,14,01,32,22,03,19,17,23,,,,3.30,1.73,2.80*04

[1499552325950]$GPGSV,4,1,14,01,77,234,21,03,45,267,39,04,10,132,22,08,05,194,09*78

[1499552325950]$GPGSV,4,2,14,10,02,085,14,11,53,201,31,12,02,022,,14,54,072,29*7D

[1499552325950]$GPGSV,4,3,14,17,27,312,29,19,13,329,16,22,74,263,29,23,09,214,19*7E

[1499552325950]$GPGSV,4,4,14,31,25,114,08,32,36,057,30*70

[1499552325950]$GPGLL,5357.23556,N,02741.21159,E,191845.00,A,A*64

[1499552326950]$GPRMC,191846.00,A,5357.23553,N,02741.21159,E,0.038,,080717,,,A*79

[1499552326950]$GPVTG,,T,,M,0.038,N,0.070,K,A*2F

[1499552326950]$GPGGA,191846.00,5357.23553,N,02741.21159,E,1,09,1.73,245.0,M,24.7,M,,*59

[1499552326950]$GPGSA,A,3,11,14,01,32,22,03,19,17,23,,,,3.29,1.73,2.80*0C

[1499552326950]$GPGSV,4,1,14,01,77,234,22,03,45,267,39,04,10,132,21,08,05,194,10*70

[1499552326950]$GPGSV,4,2,14,10,02,085,15,11,53,201,32,12,02,022,,14,54,072,29*7F

[1499552326950]$GPGSV,4,3,14,17,27,312,31,19,13,329,15,22,74,263,30,23,09,214,19*7C

[1499552326950]$GPGSV,4,4,14,31,25,114,08,32,36,057,29*78

[1499552326950]$GPGLL,5357.23553,N,02741.21159,E,191846.00,A,A*62

[1499552327950]$GPRMC,191847.00,A,5357.23547,N,02741.21159,E,0.131,,080717,,,A*75

[1499552327950]$GPVTG,,T,,M,0.131,N,0.243,K,A*25

[1499552327950]$GPGGA,191847.00,5357.23547,N,02741.21159,E,1,09,1.73,244.7,M,24.7,M,,*5B

[1499552327950]$GPGSA,A,3,11,14,01,32,22,03,19,17,23,,,,3.29,1.73,2.80*0C

[1499552327950]$GPGSV,4,1,14,01,77,234,22,03,45,267,39,04,10,132,21,08,05,194,08*79

[1499552327950]$GPGSV,4,2,14,10,02,085,15,11,53,201,32,12,02,022,,14,54,072,29*7F

[1499552327950]$GPGSV,4,3,14,17,27,312,32,19,13,329,16,22,74,263,31,23,09,214,19*7D

[1499552327950]$GPGSV,4,4,14,31,25,114,08,32,36,057,29*78

[1499552327950]$GPGLL,5357.23547,N,02741.21159,E,191847.00,A,A*66

[1499552328961]$GPRMC,191848.00,A,5357.23540,N,02741.21163,E,0.053,,080717,,,A*71

[1499552328961]$GPVTG,,T,,M,0.053,N,0.098,K,A*24

[1499552328961]$GPGGA,191848.00,5357.23540,N,02741.21163,E,1,09,1.73,244.4,M,24.7,M,,*59

[1499552328961]$GPGSA,A,3,11,14,01,32,22,03,19,17,23,,,,3.29,1.73,2.80*0C

[1499552328961]$GPGSV,4,1,14,01,77,234,22,03,45,267,39,04,10,132,20,08,05,194,08*78

[1499552328961]$GPGSV,4,2,14,10,02,085,16,11,53,201,33,12,02,022,,14,54,072,29*7D

[1499552328961]$GPGSV,4,3,14,17,27,312,32,19,13,329,17,22,74,263,32,23,09,214,19*7F

[1499552328961]$GPGSV,4,4,14,31,25,114,08,32,36,057,29*78

[1499552328961]$GPGLL,5357.23540,N,02741.21163,E,191848.00,A,A*67

[1499552329952]$GPRMC,191849.00,A,5357.23538,N,02741.21171,E,0.052,,080717,,,A*7D

[1499552329952]$GPVTG,,T,,M,0.052,N,0.096,K,A*2B

[1499552329952]$GPGGA,191849.00,5357.23538,N,02741.21171,E,1,09,1.73,244.1,M,24.7,M,,*51

[1499552329952]$GPGSA,A,3,11,14,01,32,22,03,19,17,23,,,,3.29,1.73,2.80*0C

[1499552329952]$GPGSV,4,1,14,01,77,234,21,03,45,267,40,04,10,132,20,08,05,194,08*75

[1499552329952]$GPGSV,4,2,14,10,02,085,15,11,53,201,32,12,02,022,,14,54,072,29*7F

[1499552329952]$GPGSV,4,3,14,17,27,312,31,19,13,329,17,22,74,263,31,23,09,214,19*7F

[1499552329952]$GPGSV,4,4,14,31,25,114,08,32,36,057,29*78

[1499552329952]$GPGLL,5357.23538,N,02741.21171,E,191849.00,A,A*6A

[1499552330950]$GPRMC,191850.00,A,5357.23533,N,02741.21174,E,0.105,,080717,,,A*78

[1499552330950]$GPVTG,,T,,M,0.105,N,0.195,K,A*2A

[1499552330950]$GPGGA,191850.00,5357.23533,N,02741.21174,E,1,09,1.73,243.8,M,24.7,M,,*59

[1499552330950]$GPGSA,A,3,11,14,01,32,22,03,19,17,23,,,,3.29,1.73,2.80*0C

[1499552330950]$GPGSV,4,1,14,01,77,234,20,03,45,267,39,04,10,132,20,08,05,194,07*75

[1499552330950]$GPGSV,4,2,14,10,02,085,16,11,53,201,32,12,02,022,,14,54,072,29*7C

[1499552330950]$GPGSV,4,3,14,17,27,312,31,19,13,329,17,22,74,263,31,23,09,214,19*7F

[1499552330950]$GPGSV,4,4,14,31,25,114,15,32,36,057,28*75

[1499552330950]$GPGLL,5357.23533,N,02741.21174,E,191850.00,A,A*6C

[1499552331950]$GPRMC,191851.00,A,5357.23530,N,02741.21179,E,0.033,,080717,,,A*73

[1499552331950]$GPVTG,,T,,M,0.033,N,0.062,K,A*27

[1499552331950]$GPGGA,191851.00,5357.23530,N,02741.21179,E,1,09,1.73,243.4,M,24.7,M,,*5A

[1499552331950]$GPGSA,A,3,11,14,01,32,22,03,19,17,23,,,,3.29,1.73,2.80*0C

[1499552331950]$GPGSV,4,1,14,01,77,234,20,03,45,267,39,04,10,132,20,08,05,194,07*75

[1499552331950]$GPGSV,4,2,14,10,02,085,16,11,53,201,32,12,02,022,,14,54,072,30*74

[1499552331950]$GPGSV,4,3,14,17,27,312,30,19,13,329,17,22,74,263,32,23,09,214,20*77

[1499552331950]$GPGSV,4,4,14,31,25,114,08,32,36,057,28*79

[1499552331950]$GPGLL,5357.23530,N,02741.21179,E,191851.00,A,A*63

[1499552332960]$GPRMC,191852.00,A,5357.23522,N,02741.21179,E,0.048,,080717,,,A*7F

[1499552332960]$GPVTG,,T,,M,0.048,N,0.089,K,A*2E

[1499552332960]$GPGGA,191852.00,5357.23522,N,02741.21179,E,1,10,1.73,242.9,M,24.7,M,,*5E

[1499552332960]$GPGSA,A,3,11,14,01,32,22,03,19,17,31,23,,,3.29,1.73,2.80*0E

[1499552332960]$GPGSV,4,1,14,01,77,233,20,03,45,267,39,04,10,132,20,08,05,194,07*72

[1499552332960]$GPGSV,4,2,14,10,02,085,16,11,53,201,32,12,02,022,,14,54,072,30*74

[1499552332960]$GPGSV,4,3,14,17,27,312,30,19,13,329,16,22,74,263,32,23,09,214,21*77

[1499552332960]$GPGSV,4,4,14,31,25,114,18,32,36,057,28*78

[1499552332960]$GPGLL,5357.23522,N,02741.21179,E,191852.00,A,A*63

[1499552333950]$GPRMC,191853.00,A,5357.23510,N,02741.21182,E,0.106,,080717,,,A*70

[1499552333950]$GPVTG,,T,,M,0.106,N,0.197,K,A*2B

[1499552333950]$GPGGA,191853.00,5357.23510,N,02741.21182,E,1,10,1.73,242.1,M,24.7,M,,*52

[1499552333950]$GPGSA,A,3,11,14,01,32,22,03,19,17,31,23,,,3.29,1.73,2.80*0E

[1499552333950]$GPGSV,4,1,14,01,77,233,20,03,45,267,39,04,10,132,19,08,05,194,07*78

[1499552333950]$GPGSV,4,2,14,10,02,085,16,11,53,201,32,12,02,022,,14,54,072,29*7C

[1499552333950]$GPGSV,4,3,14,17,27,312,30,19,13,329,17,22,74,263,32,23,09,214,21*76

[1499552333950]$GPGSV,4,4,14,31,25,114,23,32,36,057,29*71

[1499552333950]$GPGLL,5357.23510,N,02741.21182,E,191853.00,A,A*67

[1499552334950]$GPRMC,191854.00,A,5357.23501,N,02741.21187,E,0.047,,080717,,,A*76

[1499552334950]$GPVTG,,T,,M,0.047,N,0.088,K,A*20

[1499552334950]$GPGGA,191854.00,5357.23501,N,02741.21187,E,1,10,1.73,241.4,M,24.7,M,,*56

[1499552334950]$GPGSA,A,3,11,14,01,32,22,03,19,17,31,23,,,3.29,1.73,2.80*0E

[1499552334950]$GPGSV,4,1,14,01,77,233,19,03,45,267,39,04,10,132,19,08,05,194,*75

[1499552334950]$GPGSV,4,2,14,10,02,085,16,11,53,201,32,12,02,022,,14,54,072,29*7C

[1499552334950]$GPGSV,4,3,14,17,27,312,31,19,13,329,19,22,74,263,32,23,09,214,21*79

[1499552334950]$GPGSV,4,4,14,31,25,114,24,32,36,057,30*7E

[1499552334950]$GPGLL,5357.23501,N,02741.21187,E,191854.00,A,A*65

[1499552335950]$GPRMC,191855.00,A,5357.23493,N,02741.21191,E,0.036,,080717,,,A*7C

[1499552335950]$GPVTG,,T,,M,0.036,N,0.067,K,A*27

[1499552335950]$GPGGA,191855.00,5357.23493,N,02741.21191,E,1,10,1.73,240.7,M,24.7,M,,*58

[1499552335950]$GPGSA,A,3,11,14,01,32,22,03,19,17,31,23,,,3.29,1.73,2.80*0E

[1499552335950]$GPGSV,4,1,14,01,77,233,18,03,45,267,39,04,11,132,19,08,05,194,*75

[1499552335950]$GPGSV,4,2,14,10,02,085,15,11,53,201,33,12,02,022,,14,54,072,29*7E

[1499552335950]$GPGSV,4,3,14,17,27,312,31,19,13,329,20,22,74,263,32,23,09,214,21*73

[1499552335950]$GPGSV,4,4,14,31,25,114,25,32,36,057,30*7F

[1499552335950]$GPGLL,5357.23493,N,02741.21191,E,191855.00,A,A*69

[1499552336950]$GPRMC,191856.00,A,5357.23488,N,02741.21192,E,0.011,,080717,,,A*73

[1499552336950]$GPVTG,,T,,M,0.011,N,0.021,K,A*20

[1499552336950]$GPGGA,191856.00,5357.23488,N,02741.21192,E,1,10,1.73,240.2,M,24.7,M,,*57

[1499552336950]$GPGSA,A,3,11,14,01,32,22,03,19,17,31,23,,,3.29,1.73,2.80*0E

[1499552336950]$GPGSV,4,1,14,01,77,233,18,03,45,267,39,04,11,132,17,08,05,194,*7B

[1499552336950]$GPGSV,4,2,14,10,02,085,15,11,53,201,33,12,02,022,,14,54,072,28*7F

[1499552336950]$GPGSV,4,3,14,17,27,312,32,19,13,329,19,22,74,263,32,23,09,214,21*7A

[1499552336950]$GPGSV,4,4,14,31,25,114,25,32,36,057,30*7F

[1499552336950]$GPGLL,5357.23488,N,02741.21192,E,191856.00,A,A*63

[1499552337957]$GPRMC,191857.00,A,5357.23477,N,02741.21195,E,0.121,,080717,,,A*77

[1499552337957]$GPVTG,,T,,M,0.121,N,0.224,K,A*25

[1499552337957]$GPGGA,191857.00,5357.23477,N,02741.21195,E,1,10,1.73,239.6,M,24.7,M,,*5B

[1499552337957]$GPGSA,A,3,11,14,01,32,22,03,19,17,31,23,,,3.29,1.73,2.80*0E

[1499552337957]$GPGSV,4,1,14,01,77,233,17,03,45,267,38,04,11,132,17,08,05,194,*75

[1499552337957]$GPGSV,4,2,14,10,02,085,16,11,53,201,34,12,02,022,,14,54,072,29*7A

[1499552337957]$GPGSV,4,3,14,17,27,312,33,19,13,329,20,22,74,263,32,23,09,214,21*71

[1499552337957]$GPGSV,4,4,14,31,25,114,24,32,36,057,30*7E

[1499552337957]$GPGLL,5357.23477,N,02741.21195,E,191857.00,A,A*65

[1499552338952]$GPRMC,191858.00,A,5357.23471,N,02741.21193,E,0.021,,080717,,,A*79

[1499552338952]$GPVTG,,T,,M,0.021,N,0.039,K,A*2A

[1499552338952]$GPGGA,191858.00,5357.23471,N,02741.21193,E,1,10,1.73,239.0,M,24.7,M,,*52

[1499552338952]$GPGSA,A,3,11,14,01,32,22,03,19,17,31,23,,,3.29,1.73,2.80*0E

[1499552338952]$GPGSV,4,1,14,01,77,233,17,03,45,267,38,04,11,132,18,08,05,194,*7A

[1499552338952]$GPGSV,4,2,14,10,02,085,15,11,53,201,34,12,02,022,,14,54,072,28*78

[1499552338952]$GPGSV,4,3,14,17,27,312,31,19,13,329,20,22,74,263,32,23,09,214,21*73

[1499552338952]$GPGSV,4,4,14,31,25,114,23,32,36,057,30*79

[1499552338952]$GPGLL,5357.23471,N,02741.21193,E,191858.00,A,A*6A

[1499552339950]$GPRMC,191859.00,A,5357.23464,N,02741.21195,E,0.073,,080717,,,A*7D

[1499552339950]$GPVTG,,T,,M,0.073,N,0.135,K,A*20

[1499552339950]$GPGGA,191859.00,5357.23464,N,02741.21195,E,1,10,1.73,238.5,M,24.7,M,,*55

[1499552339950]$GPGSA,A,3,11,14,01,32,22,03,19,17,31,23,,,3.29,1.73,2.80*0E

[1499552339950]$GPGSV,4,1,14,01,77,233,15,03,45,267,38,04,11,132,19,08,05,194,*79

[1499552339950]$GPGSV,4,2,14,10,02,085,14,11,53,201,34,12,02,022,,14,54,072,29*78

[1499552339950]$GPGSV,4,3,14,17,27,312,32,19,13,329,21,22,74,263,32,23,09,214,21*71

[1499552339950]$GPGSV,4,4,14,31,25,114,22,32,36,057,30*78

[1499552339950]$GPGLL,5357.23464,N,02741.21195,E,191859.00,A,A*69

[1499552340950]$GPRMC,191900.00,A,5357.23456,N,02741.21199,E,0.076,,080717,,,A*78

[1499552340950]$GPVTG,,T,,M,0.076,N,0.140,K,A*27

[1499552340950]$GPGGA,191900.00,5357.23456,N,02741.21199,E,1,10,1.73,238.1,M,24.7,M,,*51

[1499552340950]$GPGSA,A,3,11,14,01,32,22,03,19,17,31,23,,,3.29,1.73,2.80*0E

[1499552340950]$GPGSV,4,1,14,01,77,233,14,03,45,267,38,04,11,132,19,08,05,194,*78

[1499552340950]$GPGSV,4,2,14,10,02,085,13,11,53,201,34,12,02,022,,14,54,072,28*7E

[1499552340950]$GPGSV,4,3,14,17,27,312,31,19,13,329,21,22,74,263,32,23,09,214,21*72

[1499552340950]$GPGSV,4,4,14,31,25,114,22,32,36,057,30*78

[1499552340950]$GPGLL,5357.23456,N,02741.21199,E,191900.00,A,A*69

[1499552341950]$GPRMC,191901.00,A,5357.23450,N,02741.21201,E,0.079,,080717,,,A*72

[1499552341950]$GPVTG,,T,,M,0.079,N,0.147,K,A*2F

[1499552341950]$GPGGA,191901.00,5357.23450,N,02741.21201,E,1,10,1.73,237.7,M,24.7,M,,*5D

[1499552341950]$GPGSA,A,3,11,14,01,32,22,03,19,17,31,23,,,3.29,1.73,2.79*08

[1499552341950]$GPGSV,4,1,14,01,77,233,15,03,45,267,38,04,11,132,19,08,05,194,*79

[1499552341950]$GPGSV,4,2,14,10,02,086,13,11,53,201,34,12,02,022,,14,54,072,28*7D

[1499552341950]$GPGSV,4,3,14,17,27,312,30,19,13,329,20,22,74,263,31,23,09,214,21*71

[1499552341950]$GPGSV,4,4,14,31,25,114,22,32,36,057,30*78

[1499552341950]$GPGLL,5357.23450,N,02741.21201,E,191901.00,A,A*6C

[1499552342950]$GPRMC,191902.00,A,5357.23444,N,02741.21204,E,0.121,,080717,,,A*7D

[1499552342950]$GPVTG,,T,,M,0.121,N,0.225,K,A*24

[1499552342950]$GPGGA,191902.00,5357.23444,N,02741.21204,E,1,10,1.73,237.3,M,24.7,M,,*5A

[1499552342950]$GPGSA,A,3,11,14,01,32,22,03,19,17,31,23,,,3.28,1.73,2.79*09

[1499552342950]$GPGSV,4,1,14,01,77,233,16,03,45,267,39,04,11,132,18,08,05,194,*7A

[1499552342950]$GPGSV,4,2,14,10,02,086,12,11,53,200,34,12,02,022,,14,54,072,27*72

[1499552342950]$GPGSV,4,3,14,17,27,312,30,19,13,329,20,22,74,263,31,23,09,214,21*71

[1499552342950]$GPGSV,4,4,14,31,25,114,21,32,36,057,30*7B

[1499552342950]$GPGLL,5357.23444,N,02741.21204,E,191902.00,A,A*6F

[1499552343956]$GPRMC,191903.00,A,5357.23440,N,02741.21212,E,0.082,,080717,,,A*77

[1499552343956]$GPVTG,,T,,M,0.082,N,0.152,K,A*2F

[1499552343956]$GPGGA,191903.00,5357.23440,N,02741.21212,E,1,10,1.73,236.8,M,24.7,M,,*52

[1499552343956]$GPGSA,A,3,11,14,01,32,22,03,19,17,31,23,,,3.28,1.73,2.79*09

[1499552343956]$GPGSV,4,1,14,01,77,233,18,03,45,267,39,04,11,132,17,08,05,194,*7B

[1499552343956]$GPGSV,4,2,14,10,02,086,09,11,53,200,34,12,03,022,,14,54,072,27*79

[1499552343956]$GPGSV,4,3,14,17,27,312,33,19,13,329,20,22,74,263,31,23,09,214,21*72

[1499552343956]$GPGSV,4,4,14,31,25,114,21,32,36,057,30*7B

[1499552343956]$GPGLL,5357.23440,N,02741.21212,E,191903.00,A,A*6D

[1499552344950]$GPRMC,191904.00,A,5357.23435,N,02741.21216,E,0.155,,080717,,,A*7D

[1499552344950]$GPVTG,,T,,M,0.155,N,0.287,K,A*2F

[1499552344950]$GPGGA,191904.00,5357.23435,N,02741.21216,E,1,10,1.73,236.3,M,24.7,M,,*58

[1499552344950]$GPGSA,A,3,11,14,01,32,22,03,19,17,31,23,,,3.28,1.73,2.79*09

[1499552344950]$GPGSV,4,1,14,01,77,233,20,03,45,267,39,04,11,132,17,08,05,194,*70

[1499552344950]$GPGSV,4,2,14,10,02,086,09,11,53,200,33,12,03,022,,14,54,072,26*7F

[1499552344950]$GPGSV,4,3,14,17,27,312,32,19,13,329,20,22,74,263,30,23,09,214,20*73

[1499552344950]$GPGSV,4,4,14,31,25,114,21,32,36,057,30*7B

[1499552344950]$GPGLL,5357.23435,N,02741.21216,E,191904.00,A,A*6C

[1499552345950]$GPRMC,191905.00,A,5357.23426,N,02741.21222,E,0.071,,080717,,,A*7E

[1499552345950]$GPVTG,,T,,M,0.071,N,0.132,K,A*25

[1499552345950]$GPGGA,191905.00,5357.23426,N,02741.21222,E,1,10,1.73,235.6,M,24.7,M,,*5A

[1499552345950]$GPGSA,A,3,11,14,01,32,22,03,19,17,31,23,,,3.28,1.73,2.79*09

[1499552345950]$GPGSV,4,1,14,01,77,233,21,03,45,267,39,04,11,132,17,08,05,194,*71

[1499552345950]$GPGSV,4,2,14,10,02,086,11,11,53,200,34,12,03,022,,14,54,072,25*72

[1499552345950]$GPGSV,4,3,14,17,27,312,32,19,13,329,21,22,74,263,30,23,09,214,18*79

[1499552345950]$GPGSV,4,4,14,31,25,114,21,32,36,057,30*7B

[1499552345950]$GPGLL,5357.23426,N,02741.21222,E,191905.00,A,A*68

[1499552346952]$GPRMC,191906.00,A,5357.23420,N,02741.21228,E,0.083,,080717,,,A*7C

[1499552346952]$GPVTG,,T,,M,0.083,N,0.154,K,A*28

[1499552346952]$GPGGA,191906.00,5357.23420,N,02741.21228,E,1,10,1.73,234.9,M,24.7,M,,*5B

[1499552346952]$GPGSA,A,3,11,14,01,32,22,03,19,17,31,23,,,3.28,1.73,2.79*09

[1499552346952]$GPGSV,4,1,14,01,77,233,20,03,45,267,38,04,11,132,17,08,05,194,*71

[1499552346952]$GPGSV,4,2,14,10,02,086,13,11,53,200,33,12,03,022,,14,54,072,25*77

[1499552346952]$GPGSV,4,3,14,17,27,312,34,19,13,329,20,22,74,263,31,23,09,214,17*70

[1499552346952]$GPGSV,4,4,14,31,25,114,20,32,36,057,30*7A

[1499552346952]$GPGLL,5357.23420,N,02741.21228,E,191906.00,A,A*67

[1499552347950]$GPRMC,191907.00,A,5357.23413,N,02741.21234,E,0.156,,080717,,,A*79

[1499552347950]$GPVTG,,T,,M,0.156,N,0.288,K,A*23

[1499552347950]$GPGGA,191907.00,5357.23413,N,02741.21234,E,1,10,1.72,234.6,M,24.7,M,,*59

[1499552347950]$GPGSA,A,3,11,14,01,32,22,03,19,17,31,23,,,3.28,1.72,2.79*08

[1499552347950]$GPGSV,4,1,14,01,77,233,20,03,45,267,39,04,11,132,17,08,05,194,*70

[1499552347950]$GPGSV,4,2,14,10,02,086,13,11,53,200,33,12,03,022,,14,54,072,27*75

[1499552347950]$GPGSV,4,3,14,17,27,312,34,19,13,329,20,22,74,263,31,23,09,214,17*70

[1499552347950]$GPGSV,4,4,14,31,25,114,20,32,36,057,30*7A

[1499552347950]$GPGLL,5357.23413,N,02741.21234,E,191907.00,A,A*6B

[1499552348950]$GPRMC,191908.00,A,5357.23406,N,02741.21238,E,0.086,,080717,,,A*72

[1499552348950]$GPVTG,,T,,M,0.086,N,0.159,K,A*20

[1499552348950]$GPGGA,191908.00,5357.23406,N,02741.21238,E,1,10,1.72,234.3,M,24.7,M,,*5B

[1499552348950]$GPGSA,A,3,11,14,01,32,22,03,19,17,31,23,,,3.28,1.72,2.79*08

[1499552348950]$GPGSV,4,1,14,01,77,233,20,03,45,267,39,04,11,132,17,08,05,194,*70

[1499552348950]$GPGSV,4,2,14,10,02,086,14,11,53,200,33,12,03,022,,14,54,072,28*7D

[1499552348950]$GPGSV,4,3,14,17,28,311,34,19,13,329,21,22,74,263,31,23,09,214,15*7F

[1499552348950]$GPGSV,4,4,14,31,25,114,18,32,36,057,30*71

[1499552348950]$GPGLL,5357.23406,N,02741.21238,E,191908.00,A,A*6C

[1499552349952]$GPRMC,191909.00,A,5357.23401,N,02741.21243,E,0.097,,080717,,,A*78

[1499552349952]$GPVTG,,T,,M,0.097,N,0.180,K,A*24

[1499552349952]$GPGGA,191909.00,5357.23401,N,02741.21243,E,1,10,1.72,234.1,M,24.7,M,,*53

[1499552349952]$GPGSA,A,3,11,14,01,32,22,03,19,17,31,23,,,3.28,1.72,2.79*08

[1499552349952]$GPGSV,4,1,14,01,77,233,20,03,45,267,39,04,11,132,18,08,05,194,*7F

[1499552349952]$GPGSV,4,2,14,10,02,086,13,11,53,200,33,12,03,022,,14,54,072,28*7A

[1499552349952]$GPGSV,4,3,14,17,28,311,34,19,13,329,22,22,74,263,31,23,09,214,15*7C

[1499552349952]$GPGSV,4,4,14,31,25,114,17,32,36,057,30*7E

[1499552349952]$GPGLL,5357.23401,N,02741.21243,E,191909.00,A,A*66

[1499552350960]$GPRMC,191910.00,A,5357.23397,N,02741.21241,E,0.106,,080717,,,A*73

[1499552350960]$GPVTG,,T,,M,0.106,N,0.197,K,A*2B

[1499552350960]$GPGGA,191910.00,5357.23397,N,02741.21241,E,1,10,1.72,233.9,M,24.7,M,,*5E

[1499552350960]$GPGSA,A,3,11,14,01,32,22,03,19,17,31,23,,,3.28,1.72,2.79*08

[1499552350960]$GPGSV,4,1,14,01,77,233,20,03,45,267,39,04,11,132,18,08,05,194,16*78

[1499552350960]$GPGSV,4,2,14,10,02,086,13,11,53,200,33,12,03,022,,14,54,072,28*7A

[1499552350960]$GPGSV,4,3,14,17,28,311,34,19,13,329,22,22,74,263,31,23,09,214,14*7D

[1499552350960]$GPGSV,4,4,14,31,25,114,13,32,36,057,30*7A

[1499552350960]$GPGLL,5357.23397,N,02741.21241,E,191910.00,A,A*64

[1499552351960]$GPRMC,191911.00,A,5357.23391,N,02741.21238,E,0.164,,080717,,,A*7E

[1499552351960]$GPVTG,,T,,M,0.164,N,0.304,K,A*27

[1499552351960]$GPGGA,191911.00,5357.23391,N,02741.21238,E,1,09,1.72,233.7,M,24.7,M,,*51

[1499552351960]$GPGSA,A,3,11,14,01,32,22,03,19,17,31,,,,3.28,1.72,2.79*09

[1499552351960]$GPGSV,4,1,14,01,77,233,21,03,45,267,39,04,11,132,18,08,05,194,14*7B

[1499552351960]$GPGSV,4,2,14,10,02,086,14,11,53,200,33,12,03,022,,14,54,072,29*7C

[1499552351960]$GPGSV,4,3,14,17,28,311,34,19,13,329,22,22,74,263,30,23,09,214,*79

[1499552351960]$GPGSV,4,4,14,31,25,114,11,32,36,057,30*78

[1499552351960]$GPGLL,5357.23391,N,02741.21238,E,191911.00,A,A*6D

[1499552352950]$GPRMC,191912.00,A,5357.23391,N,02741.21236,E,0.109,,080717,,,A*78

[1499552352950]$GPVTG,,T,,M,0.109,N,0.201,K,A*28

[1499552352950]$GPGGA,191912.00,5357.23391,N,02741.21236,E,1,08,1.72,233.8,M,24.7,M,,*52

[1499552352950]$GPGSA,A,3,11,14,01,32,22,03,19,17,,,,,3.28,1.72,2.79*0B

[1499552352950]$GPGSV,4,1,14,01,77,233,22,03,45,267,39,04,11,132,17,08,05,194,13*70

[1499552352950]$GPGSV,4,2,14,10,02,086,14,11,53,200,33,12,03,022,,14,54,072,29*7C

[1499552352950]$GPGSV,4,3,14,17,28,311,34,19,13,329,21,22,74,263,30,23,09,214,*7A

[1499552352950]$GPGSV,4,4,14,31,25,114,08,32,36,057,29*78

[1499552352950]$GPGLL,5357.23391,N,02741.21236,E,191912.00,A,A*60

[1499552353940]$GPRMC,191913.00,A,5357.23387,N,02741.21233,E,0.119,,080717,,,A*7A

[1499552353940]$GPVTG,,T,,M,0.119,N,0.221,K,A*2B

[1499552353940]$GPGGA,191913.00,5357.23387,N,02741.21233,E,1,08,1.72,233.8,M,24.7,M,,*51

[1499552353940]$GPGSA,A,3,11,14,01,32,22,03,19,17,,,,,3.28,1.72,2.79*0B

[1499552353940]$GPGSV,4,1,14,01,77,233,22,03,45,267,39,04,11,132,16,08,05,194,11*73

[1499552353940]$GPGSV,4,2,14,10,02,086,15,11,53,200,32,12,03,022,,14,54,072,28*7D

[1499552353940]$GPGSV,4,3,14,17,28,311,34,19,13,329,22,22,74,263,30,23,09,214,*79

[1499552353940]$GPGSV,4,4,14,31,25,114,,32,36,057,30*78

[1499552353940]$GPGLL,5357.23387,N,02741.21233,E,191913.00,A,A*63

[1499552354952]$GPRMC,191914.00,A,5357.23385,N,02741.21230,E,0.075,,080717,,,A*77

[1499552354952]$GPVTG,,T,,M,0.075,N,0.140,K,A*24

[1499552354952]$GPGGA,191914.00,5357.23385,N,02741.21230,E,1,08,1.72,233.8,M,24.7,M,,*57

[1499552354952]$GPGSA,A,3,11,14,01,32,22,03,19,17,,,,,3.28,1.72,2.79*0B

[1499552354952]$GPGSV,4,1,14,01,77,233,22,03,45,267,39,04,11,132,14,08,05,194,09*78

[1499552354952]$GPGSV,4,2,14,10,02,086,15,11,53,200,32,12,03,022,,14,54,072,28*7D

[1499552354952]$GPGSV,4,3,14,17,28,311,34,19,13,329,21,22,74,263,30,23,10,214,*72

[1499552354952]$GPGSV,4,4,14,31,25,114,,32,36,057,29*70

[1499552354952]$GPGLL,5357.23385,N,02741.21230,E,191914.00,A,A*65

[1499552355956]$GPRMC,191915.00,A,5357.23382,N,02741.21228,E,0.113,,080717,,,A*79

[1499552355956]$GPVTG,,T,,M,0.113,N,0.210,K,A*23

[1499552355956]$GPGGA,191915.00,5357.23382,N,02741.21228,E,1,08,1.72,233.9,M,24.7,M,,*59

[1499552355956]$GPGSA,A,3,11,14,01,32,22,03,19,17,,,,,3.28,1.72,2.79*0B

[1499552355956]$GPGSV,4,1,14,01,77,233,23,03,45,267,39,04,11,132,14,08,05,194,08*78

[1499552355956]$GPGSV,4,2,14,10,02,086,14,11,53,200,33,12,03,022,,14,54,072,28*7D

[1499552355956]$GPGSV,4,3,14,17,28,311,34,19,13,329,22,22,74,263,29,23,10,214,*79

[1499552355956]$GPGSV,4,4,14,31,25,114,,32,36,057,29*70

[1499552355956]$GPGLL,5357.23382,N,02741.21228,E,191915.00,A,A*6A

[1499552356956]$GPRMC,191916.00,A,5357.23380,N,02741.21222,E,0.065,,080717,,,A*72

[1499552356956]$GPVTG,,T,,M,0.065,N,0.121,K,A*22

[1499552356956]$GPGGA,191916.00,5357.23380,N,02741.21222,E,1,08,1.72,234.0,M,24.7,M,,*5C

[1499552356956]$GPGSA,A,3,11,14,01,32,22,03,19,17,,,,,3.28,1.72,2.79*0B

[1499552356956]$GPGSV,4,1,14,01,77,233,25,03,45,267,39,04,11,132,14,08,05,194,08*7E

[1499552356956]$GPGSV,4,2,14,10,02,086,14,11,53,200,33,12,03,022,,14,54,072,29*7C

[1499552356956]$GPGSV,4,3,14,17,28,311,34,19,13,329,22,22,74,263,29,23,10,214,*79

[1499552356956]$GPGSV,4,4,14,31,25,114,18,32,36,057,29*79

[1499552356956]$GPGLL,5357.23380,N,02741.21222,E,191916.00,A,A*61

[1499552357952]$GPRMC,191917.00,A,5357.23375,N,02741.21216,E,0.052,,080717,,,A*7A

[1499552357952]$GPVTG,,T,,M,0.052,N,0.096,K,A*2B

[1499552357952]$GPGGA,191917.00,5357.23375,N,02741.21216,E,1,08,1.72,233.9,M,24.7,M,,*5E

[1499552357952]$GPGSA,A,3,11,14,01,32,22,03,19,17,,,,,3.28,1.72,2.79*0B

[1499552357952]$GPGSV,4,1,14,01,77,233,25,03,45,267,39,04,11,132,14,08,05,194,08*7E

[1499552357952]$GPGSV,4,2,14,10,02,086,14,11,53,200,32,12,03,022,,14,54,072,29*7D

[1499552357952]$GPGSV,4,3,14,17,28,311,33,19,13,329,23,22,74,263,29,23,10,214,*7F

[1499552357952]$GPGSV,4,4,14,31,25,114,17,32,36,057,30*7E

[1499552357952]$GPGLL,5357.23375,N,02741.21216,E,191917.00,A,A*6D

[1499552358950]$GPRMC,191918.00,A,5357.23373,N,02741.21218,E,0.037,,080717,,,A*7E

[1499552358950]$GPVTG,,T,,M,0.037,N,0.069,K,A*28

[1499552358950]$GPGGA,191918.00,5357.23373,N,02741.21218,E,1,08,1.72,233.8,M,24.7,M,,*58

[1499552358950]$GPGSA,A,3,11,14,01,32,22,03,19,17,,,,,3.27,1.72,2.79*04

[1499552358950]$GPGSV,4,1,14,01,77,233,25,03,45,267,39,04,11,132,13,08,05,194,08*79

[1499552358950]$GPGSV,4,2,14,10,02,086,13,11,53,200,32,12,03,022,,14,54,072,29*7A

[1499552358950]$GPGSV,4,3,14,17,28,311,32,19,13,329,24,22,74,263,29,23,10,214,*79

[1499552358950]$GPGSV,4,4,14,31,25,114,15,32,36,057,30*7C

[1499552358950]$GPGLL,5357.23373,N,02741.21218,E,191918.00,A,A*6A

[1499552359957]$GPRMC,191919.00,A,5357.23368,N,02741.21216,E,0.066,,080717,,,A*7F

[1499552359957]$GPVTG,,T,,M,0.066,N,0.123,K,A*23

[1499552359957]$GPGGA,191919.00,5357.23368,N,02741.21216,E,1,08,1.72,233.7,M,24.7,M,,*52

[1499552359957]$GPGSA,A,3,11,14,01,32,22,03,19,17,,,,,3.27,1.72,2.79*04

[1499552359957]$GPGSV,4,1,14,01,77,233,25,03,45,267,39,04,11,132,11,08,05,194,08*7B

[1499552359957]$GPGSV,4,2,14,10,02,086,11,11,53,200,32,12,03,022,,14,54,072,30*70

[1499552359957]$GPGSV,4,3,14,17,28,311,33,19,13,329,24,22,74,263,30,23,10,214,*70

[1499552359957]$GPGSV,4,4,14,31,25,114,14,32,36,057,29*75

[1499552359957]$GPGLL,5357.23368,N,02741.21216,E,191919.00,A,A*6F

