[1499589380687]$GPRMC,053620.00,A,5356.25868,N,02728.74892,E,0.039,,090717,,,A*7B

[1499589380687]$GPVTG,,T,,M,0.039,N,0.072,K,A*2C

[1499589380687]$GPGGA,053620.00,5356.25868,N,02728.74892,E,1,11,0.94,207.6,M,25.0,M,,*5C

[1499589380687]$GPGSA,A,3,10,24,01,17,13,19,11,18,28,15,12,,2.09,0.94,1.86*05

[1499589380687]$GPGSV,3,1,12,01,14,042,33,10,13,320,32,11,09,029,21,12,19,241,25*73

[1499589380687]$GPGSV,3,2,12,13,37,182,36,15,50,235,35,17,53,103,34,18,12,294,30*73

[1499589380687]$GPGSV,3,3,12,19,45,142,32,24,47,289,38,28,31,063,26,30,05,112,37*71

[1499589380687]$GPGLL,5356.25868,N,02728.74892,E,053620.00,A,A*60

[1499589381687]$GPRMC,053621.00,A,5356.25871,N,02728.74897,E,0.019,,090717,,,A*75

[1499589381687]$GPVTG,,T,,M,0.019,N,0.035,K,A*2D

[1499589381687]$GPGGA,053621.00,5356.25871,N,02728.74897,E,1,11,0.94,207.8,M,25.0,M,,*5E

[1499589381687]$GPGSA,A,3,10,24,01,17,13,19,11,18,28,15,12,,2.09,0.94,1.86*05

[1499589381687]$GPGSV,3,1,12,01,14,042,33,10,13,320,32,11,09,029,20,12,19,241,25*72

[1499589381687]$GPGSV,3,2,12,13,37,182,36,15,50,235,35,17,53,103,34,18,12,294,30*73

[1499589381687]$GPGSV,3,3,12,19,45,142,32,24,47,289,38,28,31,063,26,30,05,112,37*71

[1499589381687]$GPGLL,5356.25871,N,02728.74897,E,053621.00,A,A*6C

[1499589382687]$GPRMC,053622.00,A,5356.25874,N,02728.74903,E,0.038,,090717,,,A*7C

[1499589382687]$GPVTG,,T,,M,0.038,N,0.071,K,A*2E

[1499589382687]$GPGGA,053622.00,5356.25874,N,02728.74903,E,1,11,0.94,207.9,M,25.0,M,,*55

[1499589382687]$GPGSA,A,3,10,24,01,17,13,19,11,18,28,15,12,,2.09,0.94,1.86*05

[1499589382687]$GPGSV,3,1,12,01,14,042,33,10,13,320,32,11,09,029,19,12,19,241,25*78

[1499589382687]$GPGSV,3,2,12,13,37,182,36,15,50,235,35,17,53,103,35,18,12,294,29*7A

[1499589382687]$GPGSV,3,3,12,19,45,142,31,24,47,289,38,28,31,063,26,30,05,112,36*73

[1499589382687]$GPGLL,5356.25874,N,02728.74903,E,053622.00,A,A*66

[1499589383691]$GPRMC,053623.00,A,5356.25877,N,02728.74909,E,0.010,,090717,,,A*7E

[1499589383691]$GPVTG,,T,,M,0.010,N,0.019,K,A*2A

[1499589383691]$GPGGA,053623.00,5356.25877,N,02728.74909,E,1,11,0.94,208.0,M,25.0,M,,*5B

[1499589383691]$GPGSA,A,3,10,24,01,17,13,19,11,18,28,15,12,,2.09,0.94,1.86*05

[1499589383691]$GPGSV,3,1,12,01,14,042,33,10,13,320,30,11,09,029,20,12,19,241,25*70

[1499589383691]$GPGSV,3,2,12,13,37,182,36,15,50,235,35,17,53,103,35,18,12,294,29*7A

[1499589383691]$GPGSV,3,3,12,19,45,142,31,24,47,289,38,28,31,063,26,30,05,112,36*73

[1499589383691]$GPGLL,5356.25877,N,02728.74909,E,053623.00,A,A*6E

[1499589384687]$GPRMC,053624.00,A,5356.25880,N,02728.74914,E,0.008,,090717,,,A*74

[1499589384687]$GPVTG,,T,,M,0.008,N,0.016,K,A*2C

[1499589384687]$GPGGA,053624.00,5356.25880,N,02728.74914,E,1,11,0.94,208.1,M,25.0,M,,*59

[1499589384687]$GPGSA,A,3,10,24,01,17,13,19,11,18,28,15,12,,2.09,0.94,1.86*05

[1499589384687]$GPGSV,3,1,12,01,14,042,32,10,13,320,30,11,09,029,21,12,19,241,25*70

[1499589384687]$GPGSV,3,2,12,13,37,182,36,15,50,235,36,17,53,103,35,18,12,294,28*78

[1499589384687]$GPGSV,3,3,12,19,45,142,31,24,47,289,38,28,31,063,26,30,05,112,36*73

[1499589384687]$GPGLL,5356.25880,N,02728.74914,E,053624.00,A,A*6D

[1499589385687]$GPRMC,053625.00,A,5356.25881,N,02728.74920,E,0.025,,090717,,,A*7C

[1499589385687]$GPVTG,,T,,M,0.025,N,0.047,K,A*27

[1499589385687]$GPGGA,053625.00,5356.25881,N,02728.74920,E,1,11,0.94,208.1,M,25.0,M,,*5E

[1499589385687]$GPGSA,A,3,10,24,01,17,13,19,11,18,28,15,12,,2.09,0.94,1.86*05

[1499589385687]$GPGSV,3,1,12,01,14,042,32,10,13,320,30,11,09,029,22,12,19,241,25*73

[1499589385687]$GPGSV,3,2,12,13,37,182,36,15,50,235,36,17,53,103,35,18,12,294,28*78

[1499589385687]$GPGSV,3,3,12,19,45,142,32,24,47,289,38,28,31,063,25,30,05,112,36*73

[1499589385687]$GPGLL,5356.25881,N,02728.74920,E,053625.00,A,A*6A

[1499589386687]$GPRMC,053626.00,A,5356.25883,N,02728.74924,E,0.015,,090717,,,A*7A

[1499589386687]$GPVTG,,T,,M,0.015,N,0.028,K,A*2D

[1499589386687]$GPGGA,053626.00,5356.25883,N,02728.74924,E,1,11,0.94,208.1,M,25.0,M,,*5B

[1499589386687]$GPGSA,A,3,10,24,01,17,13,19,11,18,28,15,12,,2.09,0.94,1.86*05

[1499589386687]$GPGSV,3,1,12,01,14,042,32,10,13,320,30,11,09,029,23,12,19,241,24*73

[1499589386687]$GPGSV,3,2,12,13,37,182,36,15,50,235,36,17,53,103,35,18,12,294,28*78

[1499589386687]$GPGSV,3,3,12,19,45,142,32,24,47,289,38,28,31,063,26,30,05,112,36*70

[1499589386687]$GPGLL,5356.25883,N,02728.74924,E,053626.00,A,A*6F

[1499589387689]$GPRMC,053627.00,A,5356.25885,N,02728.74928,E,0.038,,090717,,,A*7E

[1499589387689]$GPVTG,,T,,M,0.038,N,0.069,K,A*27

[1499589387689]$GPGGA,053627.00,5356.25885,N,02728.74928,E,1,11,0.94,208.1,M,25.0,M,,*50

[1499589387689]$GPGSA,A,3,10,24,01,17,13,19,11,18,28,15,12,,2.09,0.94,1.86*05

[1499589387689]$GPGSV,3,1,12,01,14,042,32,10,13,320,30,11,09,029,23,12,19,241,23*74

[1499589387689]$GPGSV,3,2,12,13,37,182,36,15,50,235,36,17,53,103,35,18,12,294,28*78

[1499589387689]$GPGSV,3,3,12,19,45,142,32,24,47,289,38,28,31,063,26,30,05,112,36*70

[1499589387689]$GPGLL,5356.25885,N,02728.74928,E,053627.00,A,A*64

[1499589388691]$GPRMC,053628.00,A,5356.25887,N,02728.74930,E,0.021,,090717,,,A*72

[1499589388691]$GPVTG,,T,,M,0.021,N,0.040,K,A*24

[1499589388691]$GPGGA,053628.00,5356.25887,N,02728.74930,E,1,11,0.94,208.1,M,25.0,M,,*54

[1499589388691]$GPGSA,A,3,10,24,01,17,13,19,11,18,28,15,12,,2.09,0.94,1.86*05

[1499589388691]$GPGSV,3,1,12,01,14,042,33,10,13,320,31,11,09,029,23,12,19,241,23*74

[1499589388691]$GPGSV,3,2,12,13,37,182,36,15,50,235,36,17,53,103,35,18,12,294,29*79

[1499589388691]$GPGSV,3,3,12,19,45,142,31,24,47,289,38,28,31,063,27,30,05,112,36*72

[1499589388691]$GPGLL,5356.25887,N,02728.74930,E,053628.00,A,A*60

[1499589389688]$GPRMC,053629.00,A,5356.25888,N,02728.74932,E,0.042,,090717,,,A*7B

[1499589389688]$GPVTG,,T,,M,0.042,N,0.079,K,A*2B

[1499589389688]$GPGGA,053629.00,5356.25888,N,02728.74932,E,1,11,0.94,208.1,M,25.0,M,,*58

[1499589389688]$GPGSA,A,3,10,24,01,17,13,19,11,18,28,15,12,,2.09,0.94,1.86*05

[1499589389688]$GPGSV,3,1,12,01,14,042,33,10,13,320,31,11,08,029,22,12,19,241,23*74

[1499589389688]$GPGSV,3,2,12,13,37,182,36,15,50,235,36,17,53,103,35,18,12,294,29*79

[1499589389688]$GPGSV,3,3,12,19,45,142,31,24,47,289,38,28,31,063,27,30,05,112,36*72

[1499589389688]$GPGLL,5356.25888,N,02728.74932,E,053629.00,A,A*6C

[1499589390687]$GPRMC,053630.00,A,5356.25889,N,02728.74937,E,0.016,,090717,,,A*76

[1499589390687]$GPVTG,,T,,M,0.016,N,0.029,K,A*2F

[1499589390687]$GPGGA,053630.00,5356.25889,N,02728.74937,E,1,11,0.94,208.1,M,25.0,M,,*54

[1499589390687]$GPGSA,A,3,10,24,01,17,13,19,11,18,28,15,12,,2.09,0.94,1.86*05

[1499589390687]$GPGSV,3,1,12,01,14,042,33,10,13,320,32,11,08,029,22,12,19,241,23*77

[1499589390687]$GPGSV,3,2,12,13,37,182,36,15,50,235,36,17,53,103,35,18,12,294,30*71

[1499589390687]$GPGSV,3,3,12,19,45,142,32,24,47,289,38,28,31,063,27,30,05,112,36*71

[1499589390687]$GPGLL,5356.25889,N,02728.74937,E,053630.00,A,A*60

[1499589391677]$GPRMC,053631.00,A,5356.25889,N,02728.74940,E,0.025,,090717,,,A*77

[1499589391677]$GPVTG,,T,,M,0.025,N,0.046,K,A*26

[1499589391677]$GPGGA,053631.00,5356.25889,N,02728.74940,E,1,11,0.94,208.1,M,25.0,M,,*55

[1499589391677]$GPGSA,A,3,10,24,01,17,13,19,11,18,28,15,12,,2.09,0.94,1.86*05

[1499589391677]$GPGSV,3,1,12,01,14,042,32,10,13,320,32,11,08,029,22,12,19,241,23*76

[1499589391677]$GPGSV,3,2,12,13,37,182,36,15,50,235,36,17,53,103,36,18,12,294,29*7A

[1499589391677]$GPGSV,3,3,12,19,45,142,32,24,47,289,38,28,31,063,28,30,05,112,36*7E

[1499589391677]$GPGLL,5356.25889,N,02728.74940,E,053631.00,A,A*61

[1499589392687]$GPRMC,053632.00,A,5356.25890,N,02728.74943,E,0.020,,090717,,,A*7A

[1499589392687]$GPVTG,,T,,M,0.020,N,0.037,K,A*25

[1499589392687]$GPGGA,053632.00,5356.25890,N,02728.74943,E,1,11,0.94,208.0,M,25.0,M,,*5C

[1499589392687]$GPGSA,A,3,10,24,01,17,13,19,11,18,28,15,12,,2.09,0.94,1.86*05

[1499589392687]$GPGSV,3,1,12,01,14,042,32,10,13,320,32,11,08,029,22,12,19,241,23*76

[1499589392687]$GPGSV,3,2,12,13,37,182,36,15,50,235,36,17,53,103,36,18,12,294,29*7A

[1499589392687]$GPGSV,3,3,12,19,45,142,32,24,47,289,38,28,31,063,27,30,05,112,35*72

[1499589392687]$GPGLL,5356.25890,N,02728.74943,E,053632.00,A,A*69

[1499589393687]$GPRMC,053633.00,A,5356.25889,N,02728.74960,E,0.429,,090717,,,A*7F

[1499589393687]$GPVTG,,T,,M,0.429,N,0.795,K,A*27

[1499589393687]$GPGGA,053633.00,5356.25889,N,02728.74960,E,1,11,0.94,207.9,M,25.0,M,,*52

[1499589393687]$GPGSA,A,3,10,24,01,17,13,19,11,18,28,15,12,,2.09,0.94,1.86*05

[1499589393687]$GPGSV,3,1,12,01,14,042,33,10,13,320,32,11,08,029,22,12,19,241,24*70

[1499589393687]$GPGSV,3,2,12,13,37,182,36,15,49,234,36,17,53,103,33,18,12,294,29*76

[1499589393687]$GPGSV,3,3,12,19,45,142,32,24,47,289,38,28,31,063,26,30,05,112,36*70

[1499589393687]$GPGLL,5356.25889,N,02728.74960,E,053633.00,A,A*61

[1499589394687]$GPRMC,053634.00,A,5356.25879,N,02728.75049,E,2.315,101.20,090717,,,A*62

[1499589394687]$GPVTG,101.20,T,,M,2.315,N,4.287,K,A*33

[1499589394687]$GPGGA,053634.00,5356.25879,N,02728.75049,E,1,11,0.94,207.6,M,25.0,M,,*56

[1499589394687]$GPGSA,A,3,10,24,01,17,13,19,11,18,28,15,12,,2.09,0.94,1.86*05

[1499589394687]$GPGSV,3,1,12,01,14,042,36,10,13,320,32,11,08,029,21,12,19,241,23*71

[1499589394687]$GPGSV,3,2,12,13,37,182,36,15,49,234,36,17,53,103,36,18,12,294,28*72

[1499589394687]$GPGSV,3,3,12,19,45,142,28,24,47,289,38,28,31,063,25,30,05,112,36*78

[1499589394687]$GPGLL,5356.25879,N,02728.75049,E,053634.00,A,A*6A

[1499589395677]$GPRMC,053635.00,A,5356.25858,N,02728.75235,E,4.459,100.24,090717,,,A*65

[1499589395677]$GPVTG,100.24,T,,M,4.459,N,8.258,K,A*31

[1499589395677]$GPGGA,053635.00,5356.25858,N,02728.75235,E,1,11,0.94,207.4,M,25.0,M,,*5F

[1499589395677]$GPGSA,A,3,10,24,01,17,13,19,11,18,28,15,12,,2.09,0.94,1.86*05

[1499589395677]$GPGSV,3,1,12,01,14,042,32,10,13,320,31,11,08,029,20,12,19,241,23*77

[1499589395677]$GPGSV,3,2,12,13,37,182,36,15,49,234,36,17,53,102,36,18,12,294,27*7C

[1499589395677]$GPGSV,3,3,12,19,45,142,29,24,47,289,38,28,31,063,23,30,05,112,34*7D

[1499589395677]$GPGLL,5356.25858,N,02728.75235,E,053635.00,A,A*61

[1499589396688]$GPRMC,053636.00,A,5356.25833,N,02728.75499,E,5.914,99.49,090717,,,A*54

[1499589396688]$GPVTG,99.49,T,,M,5.914,N,10.953,K,A*37

[1499589396688]$GPGGA,053636.00,5356.25833,N,02728.75499,E,1,11,0.94,207.3,M,25.0,M,,*56

[1499589396688]$GPGSA,A,3,10,24,01,17,13,19,11,18,28,15,12,,2.09,0.94,1.86*05

[1499589396688]$GPGSV,3,1,12,01,14,042,33,10,13,320,30,11,08,029,21,12,19,241,31*75

[1499589396688]$GPGSV,3,2,12,13,37,182,36,15,49,234,36,17,53,102,36,18,12,294,27*7C

[1499589396688]$GPGSV,3,3,12,19,45,142,28,24,47,289,38,28,31,063,21,30,05,112,30*7A

[1499589396688]$GPGLL,5356.25833,N,02728.75499,E,053636.00,A,A*6F

[1499589397688]$GPRMC,053637.00,A,5356.25801,N,02728.75827,E,7.345,99.44,090717,,,A*5C

[1499589397688]$GPVTG,99.44,T,,M,7.345,N,13.602,K,A*3E

[1499589397688]$GPGGA,053637.00,5356.25801,N,02728.75827,E,1,11,0.94,207.2,M,25.0,M,,*5E

[1499589397688]$GPGSA,A,3,10,24,01,17,13,19,11,18,28,15,12,,2.09,0.94,1.86*05

[1499589397688]$GPGSV,3,1,12,01,14,042,35,10,13,320,30,11,08,029,24,12,19,241,37*70

[1499589397688]$GPGSV,3,2,12,13,37,182,37,15,49,234,37,17,53,102,33,18,12,294,27*79

[1499589397688]$GPGSV,3,3,12,19,45,142,26,24,47,289,38,28,31,063,21,30,05,112,30*74

[1499589397688]$GPGLL,5356.25801,N,02728.75827,E,053637.00,A,A*66

[1499589398687]$GPRMC,053638.00,A,5356.25750,N,02728.76186,E,7.969,102.99,090717,,,A*6E

[1499589398687]$GPVTG,102.99,T,,M,7.969,N,14.759,K,A*01

[1499589398687]$GPGGA,053638.00,5356.25750,N,02728.76186,E,1,11,0.94,207.1,M,25.0,M,,*58

[1499589398687]$GPGSA,A,3,10,24,01,17,13,19,11,18,28,15,12,,2.09,0.94,1.86*05

[1499589398687]$GPGSV,3,1,12,01,14,042,32,10,13,320,33,11,08,029,23,12,19,241,30*74

[1499589398687]$GPGSV,3,2,12,13,37,182,31,15,49,234,33,17,53,102,38,18,12,294,27*70

[1499589398687]$GPGSV,3,3,12,19,45,142,31,24,47,289,37,28,31,063,22,30,05,112,23*7C

[1499589398687]$GPGLL,5356.25750,N,02728.76186,E,053638.00,A,A*63

[1499589399691]$GPRMC,053639.00,A,5356.25666,N,02728.76519,E,7.690,111.57,090717,,,A*60

[1499589399691]$GPVTG,111.57,T,,M,7.690,N,14.243,K,A*06

[1499589399691]$GPGGA,053639.00,5356.25666,N,02728.76519,E,1,11,0.94,207.1,M,25.0,M,,*5F

[1499589399691]$GPGSA,A,3,10,24,01,17,13,19,11,18,28,15,12,,2.09,0.94,1.86*05

[1499589399691]$GPGSV,3,1,12,01,14,042,27,10,13,320,27,11,08,029,23,12,19,241,29*7D

[1499589399691]$GPGSV,3,2,12,13,37,182,35,15,49,234,29,17,53,102,32,18,12,294,25*77

[1499589399691]$GPGSV,3,3,12,19,45,142,30,24,47,289,30,28,31,063,30,30,05,112,29*73

[1499589399691]$GPGLL,5356.25666,N,02728.76519,E,053639.00,A,A*64

[1499589400688]$GPRMC,053640.00,A,5356.25529,N,02728.76789,E,7.682,129.06,090717,,,A*61

[1499589400688]$GPVTG,129.06,T,,M,7.682,N,14.227,K,A*08

[1499589400688]$GPGGA,053640.00,5356.25529,N,02728.76789,E,1,11,0.94,207.2,M,25.0,M,,*51

[1499589400688]$GPGSA,A,3,10,24,01,17,13,19,11,18,28,15,12,,2.09,0.94,1.86*05

[1499589400688]$GPGSV,3,1,12,01,14,042,32,10,13,320,27,11,08,029,22,12,19,241,38*78

[1499589400688]$GPGSV,3,2,12,13,37,182,38,15,49,234,29,17,53,102,40,18,12,294,31*7A

[1499589400688]$GPGSV,3,3,12,19,45,142,36,24,47,289,34,28,31,063,29,30,05,112,29*79

[1499589400688]$GPGLL,5356.25529,N,02728.76789,E,053640.00,A,A*69

[1499589401687]$GPRMC,053641.00,A,5356.25368,N,02728.77008,E,7.484,139.79,090717,,,A*61

[1499589401687]$GPVTG,139.79,T,,M,7.484,N,13.860,K,A*0B

[1499589401687]$GPGGA,053641.00,5356.25368,N,02728.77008,E,1,11,0.94,207.1,M,25.0,M,,*5F

[1499589401687]$GPGSA,A,3,10,24,01,17,13,19,11,18,28,15,12,,2.09,0.94,1.86*05

[1499589401687]$GPGSV,4,1,13,01,14,042,33,10,13,320,26,11,08,029,25,12,19,241,36*77

[1499589401687]$GPGSV,4,2,13,13,37,182,29,15,49,234,36,17,53,102,39,18,12,294,32*7F

[1499589401687]$GPGSV,4,3,13,19,45,142,38,24,47,289,33,28,31,063,29,30,05,112,27*78

[1499589401687]$GPGSV,4,4,13,40,23,147,34*4B

[1499589401687]$GPGLL,5356.25368,N,02728.77008,E,053641.00,A,A*64

[1499589402687]$GPRMC,053642.00,A,5356.25160,N,02728.77180,E,8.186,151.61,090717,,,A*66

[1499589402687]$GPVTG,151.61,T,,M,8.186,N,15.160,K,A*0B

[1499589402687]$GPGGA,053642.00,5356.25160,N,02728.77180,E,1,11,0.94,206.8,M,25.0,M,,*5F

[1499589402687]$GPGSA,A,3,10,24,01,17,13,19,11,18,28,15,12,,2.09,0.94,1.86*05

[1499589402687]$GPGSV,3,1,12,01,14,042,30,10,13,320,32,11,08,029,24,12,19,241,29*78

[1499589402687]$GPGSV,3,2,12,13,37,182,38,15,49,234,33,17,53,102,37,18,12,294,27*76

[1499589402687]$GPGSV,3,3,12,19,45,142,38,24,47,289,33,28,31,063,30,30,05,112,31*71

[1499589402687]$GPGLL,5356.25160,N,02728.77180,E,053642.00,A,A*6C

[1499589403687]$GPRMC,053643.00,A,5356.24928,N,02728.77267,E,8.538,164.88,090717,,,A*68

[1499589403687]$GPVTG,164.88,T,,M,8.538,N,15.813,K,A*06

[1499589403687]$GPGGA,053643.00,5356.24928,N,02728.77267,E,1,11,0.92,206.6,M,25.0,M,,*59

[1499589403687]$GPGSA,A,3,10,24,01,17,13,19,11,18,28,15,12,,2.00,0.92,1.77*04

[1499589403687]$GPGSV,3,1,12,01,14,042,25,10,13,320,27,11,08,029,23,12,19,241,28*7E

[1499589403687]$GPGSV,3,2,12,13,37,182,36,15,49,234,33,17,53,102,33,18,12,294,35*7F

[1499589403687]$GPGSV,3,3,12,19,45,142,33,24,47,289,33,28,31,063,22,30,05,112,26*7F

[1499589403687]$GPGLL,5356.24928,N,02728.77267,E,053643.00,A,A*62

[1499589404687]$GPRMC,053644.00,A,5356.24673,N,02728.77220,E,8.917,183.18,090717,,,A*6C

[1499589404687]$GPVTG,183.18,T,,M,8.917,N,16.513,K,A*09

[1499589404687]$GPGGA,053644.00,5356.24673,N,02728.77220,E,1,11,0.92,206.5,M,25.0,M,,*5F

[1499589404687]$GPGSA,A,3,10,24,01,17,13,19,11,18,28,15,12,,2.00,0.92,1.77*04

[1499589404687]$GPGSV,3,1,12,01,14,042,24,10,13,320,26,11,08,029,24,12,19,241,29*78

[1499589404687]$GPGSV,3,2,12,13,37,182,33,15,49,234,20,17,53,102,40,18,12,294,26*7E

[1499589404687]$GPGSV,3,3,12,19,45,142,35,24,47,289,33,28,31,063,33,30,05,112,25*7A

[1499589404687]$GPGLL,5356.24673,N,02728.77220,E,053644.00,A,A*67

[1499589405687]$GPRMC,053645.00,A,5356.24411,N,02728.77057,E,10.092,199.59,090717,,,A*5A

[1499589405687]$GPVTG,199.59,T,,M,10.092,N,18.690,K,A*3C

[1499589405687]$GPGGA,053645.00,5356.24411,N,02728.77057,E,1,11,0.92,206.7,M,25.0,M,,*58

[1499589405687]$GPGSA,A,3,10,24,01,17,13,19,11,18,28,15,12,,2.00,0.92,1.77*04

[1499589405687]$GPGSV,3,1,12,01,14,042,24,10,13,320,35,11,08,029,24,12,19,241,43*76

[1499589405687]$GPGSV,3,2,12,13,37,182,33,15,49,234,34,17,53,102,36,18,12,294,26*7A

[1499589405687]$GPGSV,3,3,12,19,45,142,35,24,47,289,29,28,31,063,29,30,05,112,26*79

[1499589405687]$GPGLL,5356.24411,N,02728.77057,E,053645.00,A,A*62

[1499589406687]$GPRMC,053646.00,A,5356.24129,N,02728.76858,E,11.118,202.98,090717,,,A*5F

[1499589406687]$GPVTG,202.98,T,,M,11.118,N,20.590,K,A*3A

[1499589406687]$GPGGA,053646.00,5356.24129,N,02728.76858,E,1,11,0.92,206.9,M,25.0,M,,*5D

[1499589406687]$GPGSA,A,3,10,24,01,17,13,19,11,18,28,15,12,,2.00,0.92,1.77*04

[1499589406687]$GPGSV,3,1,12,01,14,042,21,10,13,320,35,11,08,029,24,12,19,241,28*7E

[1499589406687]$GPGSV,3,2,12,13,37,182,38,15,49,234,33,17,53,102,36,18,12,294,32*73

[1499589406687]$GPGSV,3,3,12,19,45,142,31,24,47,289,22,28,31,063,34,30,05,112,25*79

[1499589406687]$GPGLL,5356.24129,N,02728.76858,E,053646.00,A,A*69

[1499589407688]$GPRMC,053647.00,A,5356.23804,N,02728.76623,E,12.990,203.70,090717,,,A*51

[1499589407688]$GPVTG,203.70,T,,M,12.990,N,24.057,K,A*3C

[1499589407688]$GPGGA,053647.00,5356.23804,N,02728.76623,E,1,11,0.92,207.0,M,25.0,M,,*57

[1499589407688]$GPGSA,A,3,10,24,01,17,13,19,11,18,28,15,12,,2.00,0.92,1.77*04

[1499589407688]$GPGSV,3,1,12,01,14,042,20,10,13,320,35,11,08,029,25,12,19,241,26*70

[1499589407688]$GPGSV,3,2,12,13,37,182,37,15,49,234,32,17,53,102,36,18,12,294,31*7E

[1499589407688]$GPGSV,3,3,12,19,45,142,30,24,47,289,22,28,31,063,35,30,05,112,25*79

[1499589407688]$GPGLL,5356.23804,N,02728.76623,E,053647.00,A,A*6B

[1499589408687]$GPRMC,053648.00,A,5356.23423,N,02728.76354,E,15.264,202.15,090717,,,A*57

[1499589408687]$GPVTG,202.15,T,,M,15.264,N,28.269,K,A*3A

[1499589408687]$GPGGA,053648.00,5356.23423,N,02728.76354,E,1,11,0.92,207.1,M,25.0,M,,*55

[1499589408687]$GPGSA,A,3,10,24,01,17,13,19,11,18,28,15,12,,2.00,0.92,1.77*04

[1499589408687]$GPGSV,3,1,12,01,14,042,21,10,13,320,35,11,08,029,25,12,19,241,25*72

[1499589408687]$GPGSV,3,2,12,13,37,182,36,15,49,234,27,17,53,102,38,18,12,294,31*75

[1499589408687]$GPGSV,3,3,12,19,45,142,30,24,47,289,21,28,31,063,34,30,05,112,23*7D

[1499589408687]$GPGLL,5356.23423,N,02728.76354,E,053648.00,A,A*68

[1499589409687]$GPRMC,053649.00,A,5356.22979,N,02728.76080,E,17.226,199.44,090717,,,A*5E

[1499589409687]$GPVTG,199.44,T,,M,17.226,N,31.902,K,A*35

[1499589409687]$GPGGA,053649.00,5356.22979,N,02728.76080,E,1,11,0.92,207.0,M,25.0,M,,*5C

[1499589409687]$GPGSA,A,3,10,24,01,17,13,19,11,18,28,15,12,,2.00,0.92,1.77*04

[1499589409687]$GPGSV,3,1,12,01,14,042,22,10,13,320,30,11,08,029,25,12,19,241,34*74

[1499589409687]$GPGSV,3,2,12,13,37,182,32,15,49,234,30,17,53,102,34,18,12,294,25*7E

[1499589409687]$GPGSV,3,3,12,19,45,142,32,24,47,289,30,28,31,063,28,30,05,112,20*71

[1499589409687]$GPGLL,5356.22979,N,02728.76080,E,053649.00,A,A*60

[1499589410687]$GPRMC,053650.00,A,5356.22476,N,02728.75804,E,19.252,197.79,090717,,,A*5E

[1499589410687]$GPVTG,197.79,T,,M,19.252,N,35.655,K,A*31

[1499589410687]$GPGGA,053650.00,5356.22476,N,02728.75804,E,1,11,0.92,206.9,M,25.0,M,,*59

[1499589410687]$GPGSA,A,3,10,24,01,17,13,19,11,18,28,15,12,,2.00,0.92,1.77*04

[1499589410687]$GPGSV,3,1,12,01,14,042,30,10,13,320,30,11,08,029,26,12,19,241,30*70

[1499589410687]$GPGSV,3,2,12,13,37,182,33,15,49,234,34,17,53,102,37,18,12,294,26*7B

[1499589410687]$GPGSV,3,3,12,19,45,142,32,24,47,289,32,28,31,063,27,30,05,112,18*77

[1499589410687]$GPGLL,5356.22476,N,02728.75804,E,053650.00,A,A*6D

[1499589411687]$GPRMC,053651.00,A,5356.21922,N,02728.75501,E,21.209,197.93,090717,,,A*59

[1499589411687]$GPVTG,197.93,T,,M,21.209,N,39.280,K,A*30

[1499589411687]$GPGGA,053651.00,5356.21922,N,02728.75501,E,1,11,0.92,207.1,M,25.0,M,,*56

[1499589411687]$GPGSA,A,3,10,24,01,17,13,19,11,18,28,15,12,,2.00,0.92,1.77*04

[1499589411687]$GPGSV,3,1,12,01,14,042,30,10,13,320,31,11,08,029,26,12,19,241,24*74

[1499589411687]$GPGSV,3,2,12,13,37,182,33,15,49,234,33,17,53,102,37,18,12,294,27*7D

[1499589411687]$GPGSV,3,3,12,19,45,142,32,24,47,289,33,28,31,063,24,30,05,112,18*75

[1499589411687]$GPGLL,5356.21922,N,02728.75501,E,053651.00,A,A*6B

[1499589412692]$GPRMC,053652.00,A,5356.21327,N,02728.75125,E,23.094,200.86,090717,,,A*5A

[1499589412692]$GPVTG,200.86,T,,M,23.094,N,42.770,K,A*3B

[1499589412692]$GPGGA,053652.00,5356.21327,N,02728.75125,E,1,11,0.92,207.3,M,25.0,M,,*5A

[1499589412692]$GPGSA,A,3,10,24,01,17,13,19,11,18,28,15,12,,2.00,0.92,1.77*04

[1499589412692]$GPGSV,3,1,12,01,14,042,20,10,13,320,31,11,08,029,27,12,19,241,24*74

[1499589412692]$GPGSV,3,2,12,13,37,182,36,15,49,234,30,17,53,102,31,18,12,294,27*7D

[1499589412692]$GPGSV,3,3,12,19,45,142,32,24,47,289,26,28,31,063,34,30,05,112,18*70

[1499589412692]$GPGLL,5356.21327,N,02728.75125,E,053652.00,A,A*65

[1499589413677]$GPRMC,053653.00,A,5356.20695,N,02728.74692,E,24.499,202.29,090717,,,A*55

[1499589413677]$GPVTG,202.29,T,,M,24.499,N,45.372,K,A*33

[1499589413677]$GPGGA,053653.00,5356.20695,N,02728.74692,E,1,11,0.92,207.2,M,25.0,M,,*5D

[1499589413677]$GPGSA,A,3,10,24,01,17,13,19,11,18,28,15,12,,2.00,0.92,1.77*04

[1499589413677]$GPGSV,3,1,12,01,14,042,20,10,13,320,34,11,08,029,24,12,19,241,21*77

[1499589413677]$GPGSV,3,2,12,13,37,182,36,15,49,234,30,17,53,102,35,18,12,294,31*7E

[1499589413677]$GPGSV,3,3,12,19,45,142,32,24,47,289,26,28,31,063,35,30,05,112,18*71

[1499589413677]$GPGLL,5356.20695,N,02728.74692,E,053653.00,A,A*63

[1499589414692]$GPRMC,053654.00,A,5356.20031,N,02728.74226,E,26.081,202.43,090717,,,A*52

[1499589414692]$GPVTG,202.43,T,,M,26.081,N,48.302,K,A*3A

[1499589414692]$GPGGA,053654.00,5356.20031,N,02728.74226,E,1,11,0.92,207.1,M,25.0,M,,*5A

[1499589414692]$GPGSA,A,3,10,24,01,17,13,19,11,18,28,15,12,,2.00,0.92,1.77*04

[1499589414692]$GPGSV,3,1,12,01,14,042,20,10,13,320,34,11,08,029,23,12,19,241,17*75

[1499589414692]$GPGSV,3,2,12,13,37,182,38,15,49,234,29,17,53,102,36,18,12,294,25*7E

[1499589414692]$GPGSV,3,3,12,19,45,142,32,24,47,289,26,28,31,063,35,30,05,112,17*7E

[1499589414692]$GPGLL,5356.20031,N,02728.74226,E,053654.00,A,A*67

[1499589415690]$GPRMC,053655.00,A,5356.19343,N,02728.73776,E,26.640,200.71,090717,,,A*50

[1499589415690]$GPVTG,200.71,T,,M,26.640,N,49.337,K,A*35

[1499589415690]$GPGGA,053655.00,5356.19343,N,02728.73776,E,1,11,0.92,207.2,M,25.0,M,,*53

[1499589415690]$GPGSA,A,3,10,24,01,17,13,19,11,18,28,15,12,,2.00,0.92,1.77*04

[1499589415690]$GPGSV,3,1,12,01,14,042,19,10,13,320,33,11,08,029,23,12,19,241,13*7C

[1499589415690]$GPGSV,3,2,12,13,37,182,35,15,49,234,27,17,53,102,36,18,12,294,21*79

[1499589415690]$GPGSV,3,3,12,19,45,142,34,24,47,289,26,28,31,063,34,30,05,112,16*78

[1499589415690]$GPGLL,5356.19343,N,02728.73776,E,053655.00,A,A*6D

[1499589416687]$GPRMC,053656.00,A,5356.18629,N,02728.73354,E,27.421,198.64,090717,,,A*5D

[1499589416687]$GPVTG,198.64,T,,M,27.421,N,50.784,K,A*33

[1499589416687]$GPGGA,053656.00,5356.18629,N,02728.73354,E,1,10,1.06,207.4,M,25.0,M,,*57

[1499589416687]$GPGSA,A,3,10,24,01,17,13,19,11,18,28,15,,,2.32,1.06,2.06*0F

[1499589416687]$GPGSV,3,1,12,01,14,042,20,10,13,320,35,11,08,029,25,12,19,241,09*7D

[1499589416687]$GPGSV,3,2,12,13,37,182,33,15,49,234,29,17,53,102,33,18,12,294,18*7E

[1499589416687]$GPGSV,3,3,12,19,45,142,35,24,47,289,26,28,31,063,30,30,05,112,15*7E

[1499589416687]$GPGLL,5356.18629,N,02728.73354,E,053656.00,A,A*62

[1499589417677]$GPRMC,053657.00,A,5356.17881,N,02728.72974,E,28.305,195.99,090717,,,A*57

[1499589417677]$GPVTG,195.99,T,,M,28.305,N,52.422,K,A*3F

[1499589417677]$GPGGA,053657.00,5356.17881,N,02728.72974,E,1,09,1.13,207.5,M,25.0,M,,*51

[1499589417677]$GPGSA,A,3,10,24,01,17,13,19,11,28,15,,,,2.56,1.13,2.29*0D

[1499589417677]$GPGSV,3,1,12,01,14,042,30,10,13,320,31,11,08,029,26,12,19,241,09*7B

[1499589417677]$GPGSV,3,2,12,13,37,182,34,15,49,234,34,17,53,102,37,18,12,294,09*71

[1499589417677]$GPGSV,3,3,12,19,45,142,34,24,47,289,28,28,31,063,22,30,05,112,14*73

[1499589417677]$GPGLL,5356.17881,N,02728.72974,E,053657.00,A,A*69

[1499589418677]$GPRMC,053658.00,A,5356.17116,N,02728.72656,E,28.527,193.26,090717,,,A*54

[1499589418677]$GPVTG,193.26,T,,M,28.527,N,52.831,K,A*35

[1499589418677]$GPGGA,053658.00,5356.17116,N,02728.72656,E,1,09,1.13,207.7,M,25.0,M,,*54

[1499589418677]$GPGSA,A,3,10,24,01,17,13,19,11,28,15,,,,2.56,1.13,2.29*0D

[1499589418677]$GPGSV,3,1,12,01,14,042,31,10,13,320,32,11,08,029,24,12,19,241,08*7A

[1499589418677]$GPGSV,3,2,12,13,37,182,34,15,49,234,34,17,53,102,38,18,12,294,08*7F

[1499589418677]$GPGSV,3,3,12,19,45,142,33,24,47,289,29,28,31,063,24,30,05,112,14*73

[1499589418677]$GPGLL,5356.17116,N,02728.72656,E,053658.00,A,A*6E

[1499589419687]$GPRMC,053659.00,A,5356.16343,N,02728.72414,E,28.116,190.39,090717,,,A*59

[1499589419687]$GPVTG,190.39,T,,M,28.116,N,52.070,K,A*33

[1499589419687]$GPGGA,053659.00,5356.16343,N,02728.72414,E,1,09,1.13,207.6,M,25.0,M,,*53

[1499589419687]$GPGSA,A,3,10,24,01,17,13,19,11,28,15,,,,2.56,1.13,2.29*0D

[1499589419687]$GPGSV,3,1,12,01,14,042,30,10,13,320,32,11,08,029,24,12,19,241,08*7B

[1499589419687]$GPGSV,3,2,12,13,37,182,34,15,49,234,33,17,53,102,39,18,12,294,07*76

[1499589419687]$GPGSV,3,3,12,19,45,142,33,24,47,289,35,28,31,063,26,30,05,112,*79

[1499589419687]$GPGLL,5356.16343,N,02728.72414,E,053659.00,A,A*68

[1499589420687]$GPRMC,053700.00,A,5356.15574,N,02728.72221,E,28.034,187.59,090717,,,A*54

[1499589420687]$GPVTG,187.59,T,,M,28.034,N,51.920,K,A*3D

[1499589420687]$GPGGA,053700.00,5356.15574,N,02728.72221,E,1,09,1.13,207.9,M,25.0,M,,*50

[1499589420687]$GPGSA,A,3,10,24,01,17,13,19,11,28,15,,,,2.56,1.13,2.29*0D

[1499589420687]$GPGSV,3,1,12,01,14,042,25,10,13,320,27,11,08,029,22,12,19,241,08*7D

[1499589420687]$GPGSV,3,2,12,13,37,182,29,15,49,234,32,17,53,102,41,18,12,294,07*74

[1499589420687]$GPGSV,3,3,12,19,45,142,34,24,47,289,24,28,31,063,38,30,05,112,19*79

[1499589420687]$GPGLL,5356.15574,N,02728.72221,E,053700.00,A,A*64

[1499589421687]$GPRMC,053701.00,A,5356.14788,N,02728.72068,E,28.510,186.04,090717,,,A*50

[1499589421687]$GPVTG,186.04,T,,M,28.510,N,52.801,K,A*36

[1499589421687]$GPGGA,053701.00,5356.14788,N,02728.72068,E,1,09,1.13,207.9,M,25.0,M,,*5E

[1499589421687]$GPGSA,A,3,10,24,01,17,13,19,11,28,15,,,,2.55,1.13,2.29*0E

[1499589421687]$GPGSV,3,1,12,01,14,042,28,10,13,320,23,11,08,029,21,12,19,241,08*77

[1499589421687]$GPGSV,3,2,12,13,37,182,27,15,49,234,31,17,53,102,40,18,12,294,07*78

[1499589421687]$GPGSV,3,3,12,19,45,142,36,24,47,289,21,28,31,063,35,30,05,112,16*7C

[1499589421687]$GPGLL,5356.14788,N,02728.72068,E,053701.00,A,A*6A

[1499589422689]$GPRMC,053702.00,A,5356.13978,N,02728.71942,E,29.243,185.09,090717,,,A*59

[1499589422689]$GPVTG,185.09,T,,M,29.243,N,54.157,K,A*34

[1499589422689]$GPGGA,053702.00,5356.13978,N,02728.71942,E,1,10,1.06,208.0,M,25.0,M,,*53

[1499589422689]$GPGSA,A,3,10,24,01,17,13,19,11,18,28,15,,,2.32,1.06,2.06*0F

[1499589422689]$GPGSV,3,1,12,01,14,042,27,10,13,320,19,11,08,029,20,12,19,241,08*70

[1499589422689]$GPGSV,3,2,12,13,37,182,27,15,49,234,30,17,53,102,39,18,12,294,07*77

[1499589422689]$GPGSV,3,3,12,19,45,142,36,24,47,289,16,28,31,063,32,30,05,112,13*7A

[1499589422689]$GPGLL,5356.13978,N,02728.71942,E,053702.00,A,A*6D

[1499589423677]$GPRMC,053703.00,A,5356.13155,N,02728.71831,E,29.721,184.49,090717,,,A*5E

[1499589423677]$GPVTG,184.49,T,,M,29.721,N,55.043,K,A*35

[1499589423677]$GPGGA,053703.00,5356.13155,N,02728.71831,E,1,10,1.06,208.1,M,25.0,M,,*51

[1499589423677]$GPGSA,A,3,10,24,01,17,13,19,11,18,28,15,,,2.32,1.06,2.06*0F

[1499589423677]$GPGSV,3,1,12,01,14,042,27,10,13,320,12,11,08,029,18,12,19,241,08*70

[1499589423677]$GPGSV,3,2,12,13,37,182,26,15,49,234,30,17,53,102,39,18,12,294,07*76

[1499589423677]$GPGSV,3,3,12,19,45,142,36,24,47,289,17,28,31,063,26,30,05,112,11*7C

[1499589423677]$GPGLL,5356.13155,N,02728.71831,E,053703.00,A,A*6E

[1499589424687]$GPRMC,053704.00,A,5356.12330,N,02728.71721,E,29.797,184.22,090717,,,A*57

[1499589424687]$GPVTG,184.22,T,,M,29.797,N,55.184,K,A*3F

[1499589424687]$GPGGA,053704.00,5356.12330,N,02728.71721,E,1,09,1.13,208.0,M,25.0,M,,*55

[1499589424687]$GPGSA,A,3,10,24,01,17,13,19,11,28,15,,,,2.55,1.13,2.29*0E

[1499589424687]$GPGSV,3,1,12,01,14,042,28,10,13,320,12,11,08,029,19,12,19,241,08*7E

[1499589424687]$GPGSV,3,2,12,13,37,182,25,15,49,234,28,17,53,102,40,18,12,294,07*72

[1499589424687]$GPGSV,3,3,12,19,45,142,36,24,47,289,19,28,31,063,25,30,05,112,09*78

[1499589424687]$GPGLL,5356.12330,N,02728.71721,E,053704.00,A,A*67

[1499589425687]$GPRMC,053705.00,A,5356.11488,N,02728.71614,E,30.339,184.48,090717,,,A*52

[1499589425687]$GPVTG,184.48,T,,M,30.339,N,56.188,K,A*34

[1499589425687]$GPGGA,053705.00,5356.11488,N,02728.71614,E,1,10,0.95,208.3,M,25.0,M,,*50

[1499589425687]$GPGSA,A,3,10,24,01,17,13,19,11,28,15,12,,,2.05,0.95,1.82*05

[1499589425687]$GPGSV,3,1,12,01,14,042,28,10,13,320,10,11,08,029,19,12,19,241,28*7E

[1499589425687]$GPGSV,3,2,12,13,37,182,23,15,49,234,29,17,53,102,40,18,12,294,07*75

[1499589425687]$GPGSV,3,3,12,19,45,142,36,24,47,289,21,28,31,063,24,30,05,112,09*72

[1499589425687]$GPGLL,5356.11488,N,02728.71614,E,053705.00,A,A*66

[1499589426687]$GPRMC,053706.00,A,5356.10630,N,02728.71500,E,30.878,184.43,090717,,,A*52

[1499589426687]$GPVTG,184.43,T,,M,30.878,N,57.186,K,A*3E

[1499589426687]$GPGGA,053706.00,5356.10630,N,02728.71500,E,1,10,0.95,208.4,M,25.0,M,,*52

[1499589426687]$GPGSA,A,3,10,24,01,17,13,19,11,28,15,12,,,2.05,0.95,1.82*05

[1499589426687]$GPGSV,3,1,12,01,14,042,28,10,13,320,10,11,08,029,19,12,19,241,26*70

[1499589426687]$GPGSV,3,2,12,13,37,182,22,15,49,234,27,17,53,102,39,18,12,294,07*74

[1499589426687]$GPGSV,3,3,12,19,45,142,36,24,47,289,21,28,31,063,24,30,05,112,09*72

[1499589426687]$GPGLL,5356.10630,N,02728.71500,E,053706.00,A,A*63

[1499589427678]$GPRMC,053707.00,A,5356.09771,N,02728.71385,E,31.086,184.36,090717,,,A*5E

[1499589427678]$GPVTG,184.36,T,,M,31.086,N,57.572,K,A*3B

[1499589427678]$GPGGA,053707.00,5356.09771,N,02728.71385,E,1,09,1.05,208.6,M,25.0,M,,*56

[1499589427678]$GPGSA,A,3,24,01,17,13,19,11,28,15,12,,,,2.11,1.05,1.83*08

[1499589427678]$GPGSV,3,1,12,01,14,042,26,10,13,320,09,11,08,029,18,12,19,241,21*70

[1499589427678]$GPGSV,3,2,12,13,37,182,20,15,49,234,23,17,53,102,39,18,12,294,07*72

[1499589427678]$GPGSV,3,3,12,19,45,142,35,24,47,289,22,28,31,063,25,30,05,112,09*73

[1499589427678]$GPGLL,5356.09771,N,02728.71385,E,053707.00,A,A*65

[1499589428691]$GPRMC,053708.00,A,5356.08897,N,02728.71265,E,31.462,184.33,090717,,,A*53

[1499589428691]$GPVTG,184.33,T,,M,31.462,N,58.267,K,A*3C

[1499589428691]$GPGGA,053708.00,5356.08897,N,02728.71265,E,1,08,1.31,208.8,M,25.0,M,,*58

[1499589428691]$GPGSA,A,3,24,01,17,13,19,11,28,12,,,,,2.79,1.31,2.46*0F

[1499589428691]$GPGSV,3,1,12,01,14,042,27,10,13,320,08,11,08,029,19,12,19,241,14*77

[1499589428691]$GPGSV,3,2,12,13,37,182,21,15,49,234,,17,53,102,40,18,12,294,09*72

[1499589428691]$GPGSV,3,3,12,19,45,142,35,24,47,289,22,28,31,063,24,30,05,112,11*7B

[1499589428691]$GPGLL,5356.08897,N,02728.71265,E,053708.00,A,A*63

[1499589429678]$GPRMC,053709.00,A,5356.08005,N,02728.71151,E,31.946,184.69,090717,,,A*51

[1499589429678]$GPVTG,184.69,T,,M,31.946,N,59.164,K,A*39

[1499589429678]$GPGGA,053709.00,5356.08005,N,02728.71151,E,1,07,1.31,208.9,M,25.0,M,,*50

[1499589429678]$GPGSA,A,3,24,01,17,13,19,11,28,,,,,,2.79,1.31,2.46*0C

[1499589429678]$GPGSV,3,1,12,01,14,042,27,10,13,320,08,11,08,029,20,12,19,241,13*7A

[1499589429678]$GPGSV,3,2,12,13,37,182,19,15,49,234,19,17,53,102,40,18,12,294,09*71

[1499589429678]$GPGSV,3,3,12,19,45,142,35,24,47,289,20,28,31,063,25,30,05,112,28*72

[1499589429678]$GPGLL,5356.08005,N,02728.71151,E,053709.00,A,A*65

[1499589430687]$GPRMC,053710.00,A,5356.07109,N,02728.71005,E,32.305,184.95,090717,,,A*56

[1499589430687]$GPVTG,184.95,T,,M,32.305,N,59.829,K,A*34

[1499589430687]$GPGGA,053710.00,5356.07109,N,02728.71005,E,1,08,1.31,209.0,M,25.0,M,,*5D

[1499589430687]$GPGSA,A,3,24,01,17,13,19,11,18,28,,,,,2.78,1.31,2.46*04

[1499589430687]$GPGSV,3,1,12,01,14,042,27,10,13,320,08,11,08,029,19,12,19,241,*72

[1499589430687]$GPGSV,3,2,12,13,37,182,20,15,49,234,20,17,53,102,39,18,12,294,09*7F

[1499589430687]$GPGSV,3,3,12,19,45,142,35,24,47,289,17,28,31,063,31,30,05,112,16*7E

[1499589430687]$GPGLL,5356.07109,N,02728.71005,E,053710.00,A,A*6F

[1499589431677]$GPRMC,053711.00,A,5356.06202,N,02728.70906,E,32.586,184.08,090717,,,A*5C

[1499589431677]$GPVTG,184.08,T,,M,32.586,N,60.350,K,A*32

[1499589431677]$GPGGA,053711.00,5356.06202,N,02728.70906,E,1,09,1.10,209.3,M,25.0,M,,*5F

[1499589431677]$GPGSA,A,3,24,01,17,13,19,11,18,28,15,,,,2.34,1.10,2.06*0F

[1499589431677]$GPGSV,3,1,12,01,14,042,26,10,13,320,08,11,08,029,20,12,19,241,19*71

[1499589431677]$GPGSV,3,2,12,13,37,182,19,15,49,234,29,17,53,102,40,18,12,294,09*72

[1499589431677]$GPGSV,3,3,12,19,45,142,35,24,47,289,13,28,31,063,30,30,05,112,25*7B

[1499589431677]$GPGLL,5356.06202,N,02728.70906,E,053711.00,A,A*6C

[1499589432687]$GPRMC,053712.00,A,5356.05292,N,02728.70752,E,32.787,185.17,090717,,,A*56

[1499589432687]$GPVTG,185.17,T,,M,32.787,N,60.721,K,A*3C

[1499589432687]$GPGGA,053712.00,5356.05292,N,02728.70752,E,1,09,1.58,209.6,M,25.0,M,,*50

[1499589432687]$GPGSA,A,3,01,17,13,19,11,18,28,15,12,,,,2.99,1.58,2.54*06

[1499589432687]$GPGSV,3,1,12,01,14,042,28,10,13,320,08,11,08,029,20,12,19,241,30*74

[1499589432687]$GPGSV,3,2,12,13,37,182,22,15,49,234,28,17,53,102,40,18,12,294,09*7B

[1499589432687]$GPGSV,3,3,12,19,45,142,35,24,47,289,09,28,31,063,33,30,05,112,23*75

[1499589432687]$GPGLL,5356.05292,N,02728.70752,E,053712.00,A,A*6A

[1499589433680]$GPRMC,053713.00,A,5356.04390,N,02728.70585,E,32.665,185.71,090717,,,A*50

[1499589433680]$GPVTG,185.71,T,,M,32.665,N,60.495,K,A*3D

[1499589433680]$GPGGA,053713.00,5356.04390,N,02728.70585,E,1,10,1.05,209.8,M,25.0,M,,*55

[1499589433680]$GPGSA,A,3,24,01,17,13,19,11,18,28,15,12,,,2.11,1.05,1.83*01

[1499589433680]$GPGSV,3,1,12,01,14,042,27,10,13,320,08,11,08,029,20,12,20,241,23*73

[1499589433680]$GPGSV,3,2,12,13,37,182,23,15,49,234,27,17,53,102,39,18,12,294,09*7B

[1499589433680]$GPGSV,3,3,12,19,45,142,35,24,47,289,15,28,31,063,32,30,05,112,20*7A

[1499589433680]$GPGLL,5356.04390,N,02728.70585,E,053713.00,A,A*61

[1499589434687]$GPRMC,053714.00,A,5356.03509,N,02728.70425,E,31.769,185.78,090717,,,A*5A

[1499589434687]$GPVTG,185.78,T,,M,31.769,N,58.836,K,A*34

[1499589434687]$GPGGA,053714.00,5356.03509,N,02728.70425,E,1,11,1.13,210.2,M,25.0,M,,*5C

[1499589434687]$GPGSA,A,3,10,24,01,17,13,19,11,18,28,15,12,,2.55,1.13,2.28*05

[1499589434687]$GPGSV,3,1,12,01,14,042,27,10,13,320,07,11,08,029,19,12,20,241,21*74

[1499589434687]$GPGSV,3,2,12,13,37,182,25,15,49,234,28,17,53,102,40,18,12,294,08*7D

[1499589434687]$GPGSV,3,3,12,19,45,142,35,24,47,289,24,28,31,063,33,30,05,112,*7B

[1499589434687]$GPGLL,5356.03509,N,02728.70425,E,053714.00,A,A*6C

[1499589435687]$GPRMC,053715.00,A,5356.02660,N,02728.70239,E,30.809,186.30,090717,,,A*5A

[1499589435687]$GPVTG,186.30,T,,M,30.809,N,57.058,K,A*3C

[1499589435687]$GPGGA,053715.00,5356.02660,N,02728.70239,E,1,11,1.13,210.7,M,25.0,M,,*5E

[1499589435687]$GPGSA,A,3,10,24,01,17,13,19,11,18,28,15,12,,2.55,1.13,2.28*05

[1499589435687]$GPGSV,3,1,12,01,14,042,26,10,13,320,07,11,08,029,19,12,20,241,17*70

[1499589435687]$GPGSV,3,2,12,13,37,182,26,15,49,234,28,17,53,102,39,18,12,294,08*70

[1499589435687]$GPGSV,3,3,12,19,45,142,33,24,47,289,27,28,31,063,36,30,05,112,*7B

[1499589435687]$GPGLL,5356.02660,N,02728.70239,E,053715.00,A,A*6B

[1499589436691]$GPRMC,053716.00,A,5356.01829,N,02728.70063,E,29.785,186.52,090717,,,A*53

[1499589436691]$GPVTG,186.52,T,,M,29.785,N,55.162,K,A*31

[1499589436691]$GPGGA,053716.00,5356.01829,N,02728.70063,E,1,11,1.13,210.8,M,25.0,M,,*5F

[1499589436691]$GPGSA,A,3,10,24,01,17,13,19,11,18,28,15,12,,2.54,1.13,2.28*04

[1499589436691]$GPGSV,3,1,12,01,14,042,27,10,13,320,07,11,08,029,19,12,20,241,17*71

[1499589436691]$GPGSV,3,2,12,13,37,182,27,15,49,234,29,17,53,102,40,18,12,294,08*7E

[1499589436691]$GPGSV,3,3,12,19,45,142,33,24,47,289,29,28,31,063,35,30,05,112,*76

[1499589436691]$GPGLL,5356.01829,N,02728.70063,E,053716.00,A,A*65

[1499589437687]$GPRMC,053717.00,A,5356.01029,N,02728.69893,E,28.971,187.09,090717,,,A*5E

[1499589437687]$GPVTG,187.09,T,,M,28.971,N,53.654,K,A*3E

[1499589437687]$GPGGA,053717.00,5356.01029,N,02728.69893,E,1,11,0.95,211.1,M,25.0,M,,*5E

[1499589437687]$GPGSA,A,3,10,24,01,17,13,19,11,18,28,15,12,,2.05,0.95,1.82*0C

[1499589437687]$GPGSV,3,1,12,01,14,042,26,10,13,320,07,11,08,029,19,12,20,241,21*75

[1499589437687]$GPGSV,3,2,12,13,37,182,27,15,49,234,29,17,53,102,40,18,12,294,08*7E

[1499589437687]$GPGSV,3,3,12,19,45,142,33,24,47,289,30,28,31,063,35,30,05,112,14*7B

[1499589437687]$GPGLL,5356.01029,N,02728.69893,E,053717.00,A,A*63

[1499589438687]$GPRMC,053718.00,A,5356.00255,N,02728.69717,E,27.984,187.60,090717,,,A*50

[1499589438687]$GPVTG,187.60,T,,M,27.984,N,51.826,K,A*3D

[1499589438687]$GPGGA,053718.00,5356.00255,N,02728.69717,E,1,11,0.95,211.3,M,25.0,M,,*58

[1499589438687]$GPGSA,A,3,10,24,01,17,13,19,11,18,28,15,12,,2.05,0.95,1.82*0C

[1499589438687]$GPGSV,3,1,12,01,14,042,25,10,13,320,07,11,08,029,18,12,20,241,26*70

[1499589438687]$GPGSV,3,2,12,13,37,182,28,15,49,234,29,17,53,102,40,18,12,294,08*71

[1499589438687]$GPGSV,3,3,12,19,45,142,33,24,47,289,32,28,31,063,36,30,05,112,17*79

[1499589438687]$GPGLL,5356.00255,N,02728.69717,E,053718.00,A,A*67

[1499589439687]$GPRMC,053719.00,A,5355.99507,N,02728.69552,E,26.887,187.15,090717,,,A*50

[1499589439687]$GPVTG,187.15,T,,M,26.887,N,49.794,K,A*33

[1499589439687]$GPGGA,053719.00,5355.99507,N,02728.69552,E,1,11,0.95,211.3,M,25.0,M,,*59

[1499589439687]$GPGSA,A,3,10,24,01,17,13,19,11,18,28,15,12,,2.05,0.95,1.82*0C

[1499589439687]$GPGSV,3,1,12,01,14,042,23,10,13,320,07,11,08,029,17,12,20,241,27*78

[1499589439687]$GPGSV,3,2,12,13,37,182,28,15,49,234,30,17,53,102,40,18,12,294,08*79

[1499589439687]$GPGSV,3,3,12,19,45,142,33,24,47,289,32,28,31,063,36,30,05,112,17*79

[1499589439687]$GPGLL,5355.99507,N,02728.69552,E,053719.00,A,A*66

[1499589440687]$GPRMC,053720.00,A,5355.98787,N,02728.69389,E,25.967,187.46,090717,,,A*5B

[1499589440687]$GPVTG,187.46,T,,M,25.967,N,48.091,K,A*3A

[1499589440687]$GPGGA,053720.00,5355.98787,N,02728.69389,E,1,11,0.95,211.4,M,25.0,M,,*5F

[1499589440687]$GPGSA,A,3,10,24,01,17,13,19,11,18,28,15,12,,2.05,0.95,1.82*0C

[1499589440687]$GPGSV,3,1,12,01,14,042,22,10,13,320,27,11,08,029,18,12,20,241,26*75

[1499589440687]$GPGSV,3,2,12,13,37,182,28,15,49,234,29,17,53,102,40,18,12,294,07*7E

[1499589440687]$GPGSV,3,3,12,19,45,141,33,24,47,289,32,28,31,063,35,30,05,112,17*79

[1499589440687]$GPGLL,5355.98787,N,02728.69389,E,053720.00,A,A*67

[1499589441687]$GPRMC,053721.00,A,5355.98076,N,02728.69222,E,25.449,188.25,090717,,,A*58

[1499589441687]$GPVTG,188.25,T,,M,25.449,N,47.132,K,A*36

[1499589441687]$GPGGA,053721.00,5355.98076,N,02728.69222,E,1,11,0.95,211.4,M,25.0,M,,*57

[1499589441687]$GPGSA,A,3,10,24,01,17,13,19,11,18,28,15,12,,2.05,0.95,1.82*0C

[1499589441687]$GPGSV,3,1,12,01,14,042,23,10,13,320,32,11,08,029,19,12,20,241,25*72

[1499589441687]$GPGSV,3,2,12,13,37,182,28,15,49,234,30,17,53,102,40,18,12,294,07*76

[1499589441687]$GPGSV,3,3,12,19,45,141,33,24,47,289,33,28,31,063,35,30,05,112,*7E

[1499589441687]$GPGLL,5355.98076,N,02728.69222,E,053721.00,A,A*6F

[1499589442687]$GPRMC,053722.00,A,5355.97389,N,02728.69051,E,24.767,187.99,090717,,,A*57

[1499589442687]$GPVTG,187.99,T,,M,24.767,N,45.868,K,A*34

[1499589442687]$GPGGA,053722.00,5355.97389,N,02728.69051,E,1,11,0.95,211.7,M,25.0,M,,*5D

[1499589442687]$GPGSA,A,3,10,24,01,17,13,19,11,18,28,15,12,,2.05,0.95,1.82*0C

[1499589442687]$GPGSV,3,1,12,01,14,042,23,10,13,320,25,11,08,029,19,12,20,241,23*72

[1499589442687]$GPGSV,3,2,12,13,37,182,30,15,49,234,30,17,53,102,39,18,12,294,07*71

[1499589442687]$GPGSV,3,3,12,19,45,141,32,24,47,289,32,28,31,063,35,30,05,112,*7E

[1499589442687]$GPGLL,5355.97389,N,02728.69051,E,053722.00,A,A*66

[1499589443687]$GPRMC,053723.00,A,5355.96715,N,02728.68888,E,24.124,188.12,090717,,,A*56

[1499589443687]$GPVTG,188.12,T,,M,24.124,N,44.678,K,A*37

[1499589443687]$GPGGA,053723.00,5355.96715,N,02728.68888,E,1,11,0.95,211.7,M,25.0,M,,*51

[1499589443687]$GPGSA,A,3,10,24,01,17,13,19,11,18,28,15,12,,2.05,0.95,1.82*0C

[1499589443687]$GPGSV,3,1,12,01,14,042,23,10,13,320,21,11,08,029,18,12,20,241,24*70

[1499589443687]$GPGSV,3,2,12,13,37,182,29,15,49,234,31,17,53,102,41,18,12,294,07*77

[1499589443687]$GPGSV,3,3,12,19,45,141,33,24,47,289,33,28,31,063,36,30,05,112,*7D

[1499589443687]$GPGLL,5355.96715,N,02728.68888,E,053723.00,A,A*6A

[1499589444689]$GPRMC,053724.00,A,5355.96048,N,02728.68724,E,24.087,187.88,090717,,,A*53

[1499589444689]$GPVTG,187.88,T,,M,24.087,N,44.609,K,A*35

[1499589444689]$GPGGA,053724.00,5355.96048,N,02728.68724,E,1,11,0.95,211.8,M,25.0,M,,*5F

[1499589444689]$GPGSA,A,3,10,24,01,17,13,19,11,18,28,15,12,,2.05,0.95,1.82*0C

[1499589444689]$GPGSV,3,1,12,01,14,042,24,10,13,320,17,11,08,029,18,12,20,241,25*73

[1499589444689]$GPGSV,3,2,12,13,37,182,28,15,49,234,31,17,53,102,41,18,12,294,07*76

[1499589444689]$GPGSV,3,3,12,19,45,141,33,24,47,289,33,28,31,063,36,30,05,112,23*7C

[1499589444689]$GPGLL,5355.96048,N,02728.68724,E,053724.00,A,A*6B

[1499589445688]$GPRMC,053725.00,A,5355.95376,N,02728.68565,E,24.200,187.97,090717,,,A*5B

[1499589445688]$GPVTG,187.97,T,,M,24.200,N,44.819,K,A*39

[1499589445688]$GPGGA,053725.00,5355.95376,N,02728.68565,E,1,11,0.95,211.9,M,25.0,M,,*55

[1499589445688]$GPGSA,A,3,10,24,01,17,13,19,11,18,28,15,12,,2.05,0.95,1.82*0C

[1499589445688]$GPGSV,3,1,12,01,14,042,23,10,13,320,14,11,08,029,18,12,20,241,25*77

[1499589445688]$GPGSV,3,2,12,13,37,182,27,15,49,234,32,17,53,102,41,18,12,294,07*7A

[1499589445688]$GPGSV,3,3,12,19,45,141,33,24,47,289,33,28,31,063,36,30,05,112,20*7F

[1499589445688]$GPGLL,5355.95376,N,02728.68565,E,053725.00,A,A*60

[1499589446688]$GPRMC,053726.00,A,5355.94701,N,02728.68403,E,24.463,188.29,090717,,,A*55

[1499589446688]$GPVTG,188.29,T,,M,24.463,N,45.305,K,A*37

[1499589446688]$GPGGA,053726.00,5355.94701,N,02728.68403,E,1,11,0.95,212.0,M,25.0,M,,*58

[1499589446688]$GPGSA,A,3,10,24,01,17,13,19,11,18,28,15,12,,2.05,0.95,1.82*0C

[1499589446688]$GPGSV,3,1,12,01,14,042,23,10,13,320,14,11,08,029,18,12,20,241,25*77

[1499589446688]$GPGSV,3,2,12,13,37,182,27,15,49,234,32,17,53,102,41,18,12,294,11*7D

[1499589446688]$GPGSV,3,3,12,19,45,141,33,24,47,289,32,28,31,063,35,30,05,112,17*79

[1499589446688]$GPGLL,5355.94701,N,02728.68403,E,053726.00,A,A*67

[1499589447687]$GPRMC,053727.00,A,5355.94019,N,02728.68218,E,24.740,189.05,090717,,,A*5B

[1499589447687]$GPVTG,189.05,T,,M,24.740,N,45.818,K,A*3D

[1499589447687]$GPGGA,053727.00,5355.94019,N,02728.68218,E,1,11,0.95,212.2,M,25.0,M,,*59

[1499589447687]$GPGSA,A,3,10,24,01,17,13,19,11,18,28,15,12,,2.05,0.95,1.82*0C

[1499589447687]$GPGSV,3,1,12,01,14,042,25,10,13,320,19,11,08,029,18,12,20,241,31*79

[1499589447687]$GPGSV,3,2,12,13,37,182,28,15,49,234,32,17,53,102,41,18,12,294,11*72

[1499589447687]$GPGSV,3,3,12,19,45,141,33,24,47,289,33,28,31,063,34,30,05,112,15*7B

[1499589447687]$GPGLL,5355.94019,N,02728.68218,E,053727.00,A,A*64

[1499589448687]$GPRMC,053728.00,A,5355.93338,N,02728.68042,E,24.877,189.55,090717,,,A*50

[1499589448687]$GPVTG,189.55,T,,M,24.877,N,46.073,K,A*35

[1499589448687]$GPGGA,053728.00,5355.93338,N,02728.68042,E,1,11,0.95,212.7,M,25.0,M,,*59

[1499589448687]$GPGSA,A,3,10,24,01,17,13,19,11,18,28,15,12,,2.05,0.95,1.82*0C

[1499589448687]$GPGSV,3,1,12,01,14,042,26,10,13,320,20,11,08,029,19,12,20,241,37*77

[1499589448687]$GPGSV,3,2,12,13,37,182,29,15,49,234,32,17,53,102,41,18,12,294,11*73

[1499589448687]$GPGSV,3,3,12,19,45,141,32,24,47,289,34,28,31,063,33,30,05,112,*7E

[1499589448687]$GPGLL,5355.93338,N,02728.68042,E,053728.00,A,A*61

[1499589449687]$GPRMC,053729.00,A,5355.92661,N,02728.67841,E,24.669,190.00,090717,,,A*54

[1499589449687]$GPVTG,190.00,T,,M,24.669,N,45.687,K,A*32

[1499589449687]$GPGGA,053729.00,5355.92661,N,02728.67841,E,1,11,0.95,212.9,M,25.0,M,,*5A

[1499589449687]$GPGSA,A,3,10,24,01,17,13,19,11,18,28,15,12,,2.05,0.95,1.82*0C

[1499589449687]$GPGSV,3,1,12,01,14,042,26,10,13,320,19,11,08,029,19,12,20,241,24*7F

[1499589449687]$GPGSV,3,2,12,13,37,182,30,15,49,234,34,17,53,102,40,18,12,294,11*7C

[1499589449687]$GPGSV,3,3,12,19,45,141,31,24,47,289,34,28,31,063,32,30,05,112,*7C

[1499589449687]$GPGLL,5355.92661,N,02728.67841,E,053729.00,A,A*6C

[1499589450687]$GPRMC,053730.00,A,5355.91984,N,02728.67646,E,24.556,189.57,090717,,,A*57

[1499589450687]$GPVTG,189.57,T,,M,24.556,N,45.477,K,A*3A

[1499589450687]$GPGGA,053730.00,5355.91984,N,02728.67646,E,1,11,0.92,213.0,M,25.0,M,,*53

[1499589450687]$GPGSA,A,3,10,24,01,17,13,19,11,18,28,15,12,,1.99,0.92,1.77*07

[1499589450687]$GPGSV,3,1,12,01,14,042,26,10,13,320,16,11,08,029,19,12,20,241,22*76

[1499589450687]$GPGSV,3,2,12,13,37,182,31,15,49,234,30,17,53,102,41,18,12,294,31*7A

[1499589450687]$GPGSV,3,3,12,19,45,141,32,24,47,289,33,28,31,063,33,30,05,112,*79

[1499589450687]$GPGLL,5355.91984,N,02728.67646,E,053730.00,A,A*6A

[1499589451687]$GPRMC,053731.00,A,5355.91309,N,02728.67469,E,24.387,188.91,090717,,,A*57

[1499589451687]$GPVTG,188.91,T,,M,24.387,N,45.165,K,A*3D

[1499589451687]$GPGGA,053731.00,5355.91309,N,02728.67469,E,1,10,0.98,213.0,M,25.0,M,,*59

[1499589451687]$GPGSA,A,3,24,01,17,13,19,11,18,28,15,12,,,2.02,0.98,1.77*0D

[1499589451687]$GPGSV,3,1,12,01,14,042,27,10,13,320,13,11,08,029,19,12,20,241,30*71

[1499589451687]$GPGSV,3,2,12,13,37,182,31,15,49,234,33,17,53,102,41,18,12,294,31*79

[1499589451687]$GPGSV,3,3,12,19,45,141,32,24,47,289,34,28,31,063,35,30,04,112,*79

[1499589451687]$GPGLL,5355.91309,N,02728.67469,E,053731.00,A,A*6B

[1499589452692]$GPRMC,053732.00,A,5355.90635,N,02728.67304,E,24.260,188.43,090717,,,A*54

[1499589452692]$GPVTG,188.43,T,,M,24.260,N,44.929,K,A*3B

[1499589452692]$GPGGA,053732.00,5355.90635,N,02728.67304,E,1,10,0.98,212.9,M,25.0,M,,*55

[1499589452692]$GPGSA,A,3,24,01,17,13,19,11,18,28,15,12,,,2.02,0.98,1.77*0D

[1499589452692]$GPGSV,3,1,12,01,14,042,25,10,13,320,,11,08,029,20,12,20,241,29*73

[1499589452692]$GPGSV,3,2,12,13,37,182,30,15,49,234,31,17,53,102,41,18,12,294,30*7B

[1499589452692]$GPGSV,3,3,12,19,45,141,32,24,47,289,33,28,31,063,35,30,04,112,*7E

[1499589452692]$GPGLL,5355.90635,N,02728.67304,E,053732.00,A,A*6F

[1499589453677]$GPRMC,053733.00,A,5355.89972,N,02728.67134,E,24.075,188.92,090717,,,A*5A

[1499589453677]$GPVTG,188.92,T,,M,24.075,N,44.586,K,A*38

[1499589453677]$GPGGA,053733.00,5355.89972,N,02728.67134,E,1,10,0.98,213.0,M,25.0,M,,*59

[1499589453677]$GPGSA,A,3,24,01,17,13,19,11,18,28,15,12,,,2.02,0.98,1.77*0D

[1499589453677]$GPGSV,3,1,12,01,14,042,26,10,13,320,24,11,08,029,21,12,20,241,28*76

[1499589453677]$GPGSV,3,2,12,13,37,182,29,15,49,234,31,17,53,102,41,18,12,294,30*73

[1499589453677]$GPGSV,3,3,12,19,45,141,33,24,47,289,34,28,31,063,34,30,04,112,*79

[1499589453677]$GPGLL,5355.89972,N,02728.67134,E,053733.00,A,A*6B

[1499589454687]$GPRMC,053734.00,A,5355.89314,N,02728.66952,E,23.930,189.19,090717,,,A*53

[1499589454687]$GPVTG,189.19,T,,M,23.930,N,44.319,K,A*35

[1499589454687]$GPGGA,053734.00,5355.89314,N,02728.66952,E,1,10,0.98,213.1,M,25.0,M,,*5C

[1499589454687]$GPGSA,A,3,24,01,17,13,19,11,18,28,15,12,,,2.02,0.98,1.77*0D

[1499589454687]$GPGSV,3,1,12,01,14,042,26,10,13,320,21,11,08,029,20,12,20,241,33*78

[1499589454687]$GPGSV,3,2,12,13,37,182,30,15,49,234,31,17,53,102,41,18,12,294,20*7A

[1499589454687]$GPGSV,3,3,12,19,45,141,33,24,47,289,33,28,31,063,32,30,04,112,*78

[1499589454687]$GPGLL,5355.89314,N,02728.66952,E,053734.00,A,A*6F

[1499589455691]$GPRMC,053735.00,A,5355.88662,N,02728.66775,E,23.785,189.17,090717,,,A*52

[1499589455691]$GPVTG,189.17,T,,M,23.785,N,44.050,K,A*35

[1499589455691]$GPGGA,053735.00,5355.88662,N,02728.66775,E,1,10,0.98,213.4,M,25.0,M,,*56

[1499589455691]$GPGSA,A,3,24,01,17,13,19,11,18,28,15,12,,,2.02,0.98,1.77*0D

[1499589455691]$GPGSV,3,1,12,01,14,042,27,10,13,320,18,11,08,029,18,12,20,241,33*78

[1499589455691]$GPGSV,3,2,12,13,37,182,30,15,49,234,33,17,53,102,40,18,12,294,18*72

[1499589455691]$GPGSV,3,3,12,19,45,141,33,24,47,289,34,28,31,063,32,30,04,112,*7F

[1499589455691]$GPGLL,5355.88662,N,02728.66775,E,053735.00,A,A*60

[1499589456687]$GPRMC,053736.00,A,5355.88017,N,02728.66605,E,23.648,189.26,090717,,,A*51

[1499589456687]$GPVTG,189.26,T,,M,23.648,N,43.796,K,A*3D

[1499589456687]$GPGGA,053736.00,5355.88017,N,02728.66605,E,1,11,0.92,213.7,M,25.0,M,,*5F

[1499589456687]$GPGSA,A,3,10,24,01,17,13,19,11,18,28,15,12,,1.99,0.92,1.77*07

[1499589456687]$GPGSV,3,1,12,01,14,042,27,10,13,320,27,11,08,029,19,12,20,241,36*70

[1499589456687]$GPGSV,3,2,12,13,37,182,30,15,49,234,33,17,53,102,40,18,12,294,15*7F

[1499589456687]$GPGSV,3,3,12,19,45,141,33,24,47,289,31,28,31,063,32,30,04,112,*7A

[1499589456687]$GPGLL,5355.88017,N,02728.66605,E,053736.00,A,A*61

[1499589457687]$GPRMC,053737.00,A,5355.87360,N,02728.66425,E,23.818,189.23,090717,,,A*52

[1499589457687]$GPVTG,189.23,T,,M,23.818,N,44.111,K,A*3D

[1499589457687]$GPGGA,053737.00,5355.87360,N,02728.66425,E,1,11,0.92,213.9,M,25.0,M,,*5C

[1499589457687]$GPGSA,A,3,10,24,01,17,13,19,11,18,28,15,12,,1.99,0.92,1.77*07

[1499589457687]$GPGSV,3,1,12,01,14,042,29,10,13,320,21,11,08,029,19,12,20,241,29*76

[1499589457687]$GPGSV,3,2,12,13,37,182,30,15,49,234,33,17,53,102,40,18,12,294,13*79

[1499589457687]$GPGSV,3,3,12,19,45,141,33,24,47,289,34,28,31,063,33,30,04,112,*7E

[1499589457687]$GPGLL,5355.87360,N,02728.66425,E,053737.00,A,A*6C

[1499589458687]$GPRMC,053738.00,A,5355.86700,N,02728.66243,E,23.938,189.50,090717,,,A*5F

[1499589458687]$GPVTG,189.50,T,,M,23.938,N,44.334,K,A*3F

[1499589458687]$GPGGA,053738.00,5355.86700,N,02728.66243,E,1,11,0.92,213.9,M,25.0,M,,*56

[1499589458687]$GPGSA,A,3,10,24,01,17,13,19,11,18,28,15,12,,1.99,0.92,1.77*07

[1499589458687]$GPGSV,3,1,12,01,14,042,29,10,13,320,19,11,08,029,19,12,20,241,25*71

[1499589458687]$GPGSV,3,2,12,13,37,182,29,15,49,234,34,17,53,102,40,18,12,294,10*75

[1499589458687]$GPGSV,3,3,12,19,45,141,33,24,47,289,34,28,31,063,32,30,04,112,*7F

[1499589458687]$GPGLL,5355.86700,N,02728.66243,E,053738.00,A,A*66

[1499589459687]$GPRMC,053739.00,A,5355.86054,N,02728.66068,E,23.435,189.32,090717,,,A*57

[1499589459687]$GPVTG,189.32,T,,M,23.435,N,43.401,K,A*3D

[1499589459687]$GPGGA,053739.00,5355.86054,N,02728.66068,E,1,11,0.92,214.2,M,25.0,M,,*56

[1499589459687]$GPGSA,A,3,10,24,01,17,13,19,11,18,28,15,12,,1.99,0.92,1.77*07

[1499589459687]$GPGSV,3,1,12,01,14,042,28,10,13,320,15,11,08,029,19,12,20,241,34*7C

[1499589459687]$GPGSV,3,2,12,13,37,182,29,15,49,234,34,17,53,102,40,18,12,294,29*7F

[1499589459687]$GPGSV,3,3,12,19,45,141,34,24,47,289,33,28,31,063,32,30,04,112,*7F

[1499589459687]$GPGLL,5355.86054,N,02728.66068,E,053739.00,A,A*6A

[1499589460687]$GPRMC,053740.00,A,5355.85449,N,02728.65905,E,21.869,189.09,090717,,,A*5C

[1499589460687]$GPVTG,189.09,T,,M,21.869,N,40.501,K,A*30

[1499589460687]$GPGGA,053740.00,5355.85449,N,02728.65905,E,1,11,0.92,214.7,M,25.0,M,,*57

[1499589460687]$GPGSA,A,3,10,24,01,17,13,19,11,18,28,15,12,,1.99,0.92,1.77*07

[1499589460687]$GPGSV,3,1,12,01,14,042,28,10,13,320,15,11,08,029,20,12,20,241,29*7A

[1499589460687]$GPGSV,3,2,12,13,37,182,30,15,49,234,34,17,53,102,40,18,12,294,32*7D

[1499589460687]$GPGSV,3,3,12,19,45,141,35,24,47,289,34,28,31,063,31,30,04,112,22*7A

[1499589460687]$GPGLL,5355.85449,N,02728.65905,E,053740.00,A,A*6E

[1499589461688]$GPRMC,053741.00,A,5355.84898,N,02728.65756,E,19.797,188.59,090717,,,A*55

[1499589461688]$GPVTG,188.59,T,,M,19.797,N,36.664,K,A*30

[1499589461688]$GPGGA,053741.00,5355.84898,N,02728.65756,E,1,11,0.92,215.1,M,25.0,M,,*58

[1499589461688]$GPGSA,A,3,10,24,01,17,13,19,11,18,28,15,12,,1.99,0.92,1.77*07

[1499589461688]$GPGSV,3,1,12,01,14,042,28,10,13,320,16,11,08,029,21,12,20,241,32*72

[1499589461688]$GPGSV,3,2,12,13,37,182,30,15,49,234,34,17,53,102,40,18,12,294,24*7A

[1499589461688]$GPGSV,3,3,12,19,45,141,35,24,47,289,33,28,31,063,32,30,04,112,20*7C

[1499589461688]$GPGLL,5355.84898,N,02728.65756,E,053741.00,A,A*66

[1499589462687]$GPRMC,053742.00,A,5355.84418,N,02728.65636,E,17.064,187.99,090717,,,A*53

[1499589462687]$GPVTG,187.99,T,,M,17.064,N,31.602,K,A*31

[1499589462687]$GPGGA,053742.00,5355.84418,N,02728.65636,E,1,11,0.92,215.3,M,25.0,M,,*5A

[1499589462687]$GPGSA,A,3,10,24,01,17,13,19,11,18,28,15,12,,1.99,0.92,1.77*07

[1499589462687]$GPGSV,3,1,12,01,14,042,17,10,13,320,16,11,08,029,21,12,20,241,28*75

[1499589462687]$GPGSV,3,2,12,13,37,182,30,15,49,234,31,17,53,102,40,18,12,294,25*7E

[1499589462687]$GPGSV,3,3,12,19,45,141,35,24,47,289,33,28,31,063,35,30,04,112,22*79

[1499589462687]$GPGLL,5355.84418,N,02728.65636,E,053742.00,A,A*66

[1499589463687]$GPRMC,053743.00,A,5355.84005,N,02728.65573,E,14.792,184.63,090717,,,A*53

[1499589463687]$GPVTG,184.63,T,,M,14.792,N,27.396,K,A*35

[1499589463687]$GPGGA,053743.00,5355.84005,N,02728.65573,E,1,11,0.92,215.8,M,25.0,M,,*5A

[1499589463687]$GPGSA,A,3,10,24,01,17,13,19,11,18,28,15,12,,1.99,0.92,1.77*07

[1499589463687]$GPGSV,3,1,12,01,14,042,27,10,13,320,15,11,08,029,21,12,20,241,33*7F

[1499589463687]$GPGSV,3,2,12,13,37,182,23,15,49,234,33,17,53,102,40,18,12,294,30*7A

[1499589463687]$GPGSV,3,3,12,19,45,141,35,24,47,289,30,28,31,063,26,30,04,112,22*78

[1499589463687]$GPGLL,5355.84005,N,02728.65573,E,053743.00,A,A*6D

[1499589464687]$GPRMC,053744.00,A,5355.83666,N,02728.65551,E,12.059,182.43,090717,,,A*52

[1499589464687]$GPVTG,182.43,T,,M,12.059,N,22.334,K,A*3A

[1499589464687]$GPGGA,053744.00,5355.83666,N,02728.65551,E,1,11,0.92,215.5,M,25.0,M,,*54

[1499589464687]$GPGSA,A,3,10,24,01,17,13,19,11,18,28,15,12,,1.99,0.92,1.77*07

[1499589464687]$GPGSV,3,1,12,01,14,042,29,10,13,320,16,11,08,029,20,12,20,241,26*77

[1499589464687]$GPGSV,3,2,12,13,37,182,22,15,49,234,32,17,53,102,38,18,12,294,35*70

[1499589464687]$GPGSV,3,3,12,19,45,141,36,24,47,289,22,28,31,063,26,30,04,112,22*78

[1499589464687]$GPGLL,5355.83666,N,02728.65551,E,053744.00,A,A*6E

[1499589465687]$GPRMC,053745.00,A,5355.83367,N,02728.65541,E,10.829,181.23,090717,,,A*5E

[1499589465687]$GPVTG,181.23,T,,M,10.829,N,20.055,K,A*34

[1499589465687]$GPGGA,053745.00,5355.83367,N,02728.65541,E,1,11,0.92,215.6,M,25.0,M,,*53

[1499589465687]$GPGSA,A,3,10,24,01,17,13,19,11,18,28,15,12,,1.99,0.92,1.77*07

[1499589465687]$GPGSV,3,1,12,01,14,042,28,10,13,320,21,11,08,029,21,12,20,241,35*71

[1499589465687]$GPGSV,3,2,12,13,37,182,23,15,49,234,25,17,53,102,39,18,12,294,34*77

[1499589465687]$GPGSV,3,3,12,19,45,141,35,24,47,289,23,28,31,063,33,30,04,112,23*7F

[1499589465687]$GPGLL,5355.83367,N,02728.65541,E,053745.00,A,A*6A

[1499589466688]$GPRMC,053746.00,A,5355.83083,N,02728.65601,E,10.160,172.85,090717,,,A*57

[1499589466688]$GPVTG,172.85,T,,M,10.160,N,18.816,K,A*34

[1499589466688]$GPGGA,053746.00,5355.83083,N,02728.65601,E,1,11,0.92,215.8,M,25.0,M,,*50

[1499589466688]$GPGSA,A,3,10,24,01,17,13,19,11,18,28,15,12,,1.99,0.92,1.77*07

[1499589466688]$GPGSV,3,1,12,01,14,042,32,10,13,320,27,11,08,029,29,12,20,241,36*77

[1499589466688]$GPGSV,3,2,12,13,37,182,30,15,49,234,23,17,53,102,34,18,12,294,33*79

[1499589466688]$GPGSV,3,3,12,19,45,141,34,24,47,289,34,28,31,063,31,30,04,112,23*7A

[1499589466688]$GPGLL,5355.83083,N,02728.65601,E,053746.00,A,A*67

[1499589467687]$GPRMC,053747.00,A,5355.82792,N,02728.65726,E,10.524,164.91,090717,,,A*52

[1499589467687]$GPVTG,164.91,T,,M,10.524,N,19.491,K,A*30

[1499589467687]$GPGGA,053747.00,5355.82792,N,02728.65726,E,1,11,0.92,215.9,M,25.0,M,,*52

[1499589467687]$GPGSA,A,3,10,24,01,17,13,19,11,18,28,15,12,,1.99,0.92,1.77*07

[1499589467687]$GPGSV,3,1,12,01,14,042,29,10,13,320,35,11,08,029,20,12,20,241,30*71

[1499589467687]$GPGSV,3,2,12,13,37,182,37,15,49,234,31,17,53,102,37,18,12,294,28*74

[1499589467687]$GPGSV,3,3,12,19,45,141,33,24,47,289,30,28,31,063,31,30,04,112,24*7E

[1499589467687]$GPGLL,5355.82792,N,02728.65726,E,053747.00,A,A*64

[1499589468690]$GPRMC,053748.00,A,5355.82504,N,02728.65966,E,11.657,152.82,090717,,,A*5B

[1499589468690]$GPVTG,152.82,T,,M,11.657,N,21.588,K,A*33

[1499589468690]$GPGGA,053748.00,5355.82504,N,02728.65966,E,1,11,0.92,215.7,M,25.0,M,,*54

[1499589468690]$GPGSA,A,3,10,24,01,17,13,19,11,18,28,15,12,,1.99,0.92,1.77*07

[1499589468690]$GPGSV,3,1,12,01,14,042,22,10,13,320,34,11,08,029,29,12,20,241,34*76

[1499589468690]$GPGSV,3,2,12,13,37,182,39,15,49,234,34,17,53,102,39,18,12,294,29*70

[1499589468690]$GPGSV,3,3,12,19,45,141,39,24,47,289,34,28,31,063,25,30,04,112,30*70

[1499589468690]$GPGLL,5355.82504,N,02728.65966,E,053748.00,A,A*6C

[1499589469687]$GPRMC,053749.00,A,5355.82252,N,02728.66350,E,12.667,137.00,090717,,,A*5B

[1499589469687]$GPVTG,137.00,T,,M,12.667,N,23.460,K,A*3F

[1499589469687]$GPGGA,053749.00,5355.82252,N,02728.66350,E,1,11,0.92,216.1,M,25.0,M,,*58

[1499589469687]$GPGSA,A,3,10,24,01,17,13,19,11,18,28,15,12,,1.99,0.92,1.77*07

[1499589469687]$GPGSV,3,1,12,01,14,042,28,10,13,320,23,11,08,029,26,12,20,241,36*77

[1499589469687]$GPGSV,3,2,12,13,37,182,30,15,49,234,34,17,53,102,40,18,12,294,29*77

[1499589469687]$GPGSV,3,3,12,19,45,141,40,24,47,289,31,28,31,063,32,30,04,112,31*7C

[1499589469687]$GPGLL,5355.82252,N,02728.66350,E,053749.00,A,A*65

[1499589470688]$GPRMC,053750.00,A,5355.82068,N,02728.66861,E,13.297,122.12,090717,,,A*5C

[1499589470688]$GPVTG,122.12,T,,M,13.297,N,24.627,K,A*34

[1499589470688]$GPGGA,053750.00,5355.82068,N,02728.66861,E,1,11,0.92,216.5,M,25.0,M,,*56

[1499589470688]$GPGSA,A,3,10,24,01,17,13,19,11,18,28,15,12,,1.99,0.92,1.77*07

[1499589470688]$GPGSV,3,1,12,01,14,042,28,10,13,320,23,11,08,029,30,12,20,241,29*7E

[1499589470688]$GPGSV,3,2,12,13,37,182,37,15,49,234,32,17,53,102,35,18,12,294,30*7C

[1499589470688]$GPGSV,3,3,12,19,45,141,33,24,47,289,34,28,31,063,26,30,04,112,24*7C

[1499589470688]$GPGLL,5355.82068,N,02728.66861,E,053750.00,A,A*6F

[1499589471687]$GPRMC,053751.00,A,5355.81948,N,02728.67488,E,14.422,109.92,090717,,,A*51

[1499589471687]$GPVTG,109.92,T,,M,14.422,N,26.710,K,A*3D

[1499589471687]$GPGGA,053751.00,5355.81948,N,02728.67488,E,1,11,0.92,216.9,M,25.0,M,,*59

[1499589471687]$GPGSA,A,3,10,24,01,17,13,19,11,18,28,15,12,,1.99,0.92,1.77*07

[1499589471687]$GPGSV,3,1,12,01,14,042,26,10,13,320,25,11,08,029,22,12,20,241,29*75

[1499589471687]$GPGSV,3,2,12,13,37,182,32,15,49,234,28,17,53,102,38,18,12,294,27*79

[1499589471687]$GPGSV,3,3,12,19,45,141,21,24,47,289,37,28,31,063,31,30,04,112,34*7B

[1499589471687]$GPGLL,5355.81948,N,02728.67488,E,053751.00,A,A*6C

[1499589472687]$GPRMC,053752.00,A,5355.81894,N,02728.68234,E,16.069,98.52,090717,,,A*60

[1499589472687]$GPVTG,98.52,T,,M,16.069,N,29.760,K,A*09

[1499589472687]$GPGGA,053752.00,5355.81894,N,02728.68234,E,1,11,0.92,216.9,M,25.0,M,,*54

[1499589472687]$GPGSA,A,3,10,24,01,17,13,19,11,18,28,15,12,,1.99,0.92,1.76*06

[1499589472687]$GPGSV,3,1,12,01,14,042,34,10,13,320,26,11,08,029,20,12,20,241,34*7B

[1499589472687]$GPGSV,3,2,12,13,37,182,37,15,49,234,34,17,53,102,32,18,12,294,27*7B

[1499589472687]$GPGSV,3,3,12,19,45,141,25,24,47,289,37,28,31,063,23,30,04,112,36*7E

[1499589472687]$GPGLL,5355.81894,N,02728.68234,E,053752.00,A,A*61

[1499589473687]$GPRMC,053753.00,A,5355.81828,N,02728.69069,E,18.035,98.22,090717,,,A*6D

[1499589473687]$GPVTG,98.22,T,,M,18.035,N,33.401,K,A*06

[1499589473687]$GPGGA,053753.00,5355.81828,N,02728.69069,E,1,11,0.93,216.8,M,25.0,M,,*59

[1499589473687]$GPGSA,A,3,10,24,01,17,13,19,11,18,28,15,12,,1.99,0.93,1.76*07

[1499589473687]$GPGSV,3,1,12,01,14,042,32,10,13,320,25,11,08,029,21,12,20,241,35*7E

[1499589473687]$GPGSV,3,2,12,13,37,182,37,15,49,234,35,17,53,102,32,18,12,294,26*7B

[1499589473687]$GPGSV,3,3,12,19,45,141,25,24,47,289,36,28,31,063,21,30,04,112,37*7C

[1499589473687]$GPGLL,5355.81828,N,02728.69069,E,053753.00,A,A*6C

[1499589474687]$GPRMC,053754.00,A,5355.81745,N,02728.69995,E,19.885,99.48,090717,,,A*6B

[1499589474687]$GPVTG,99.48,T,,M,19.885,N,36.827,K,A*04

[1499589474687]$GPGGA,053754.00,5355.81745,N,02728.69995,E,1,11,0.93,216.9,M,25.0,M,,*51

