[1499590518057]$GPRMC,055518.00,A,5355.75803,N,02729.31065,E,0.192,,090717,,,A*7E

[1499590518057]$GPVTG,,T,,M,0.192,N,0.356,K,A*29

[1499590518057]$GPGGA,055518.00,5355.75803,N,02729.31065,E,1,10,0.91,242.0,M,25.0,M,,*5A

[1499590518057]$GPGSA,A,3,24,17,19,15,13,12,28,01,10,18,,,1.84,0.91,1.60*0E

[1499590518057]$GPGSV,3,1,11,01,14,035,16,10,12,313,14,11,04,024,21,12,27,245,34*7B

[1499590518057]$GPGSV,3,2,11,13,28,181,27,15,43,225,40,17,54,088,30,18,08,287,24*71

[1499590518057]$GPGSV,3,3,11,19,52,132,27,24,55,289,24,28,24,066,20*4E

[1499590518057]$GPGLL,5355.75803,N,02729.31065,E,055518.00,A,A*65

[1499590519057]$GPRMC,055519.00,A,5355.75800,N,02729.31064,E,0.068,,090717,,,A*79

[1499590519057]$GPVTG,,T,,M,0.068,N,0.126,K,A*28

[1499590519057]$GPGGA,055519.00,5355.75800,N,02729.31064,E,1,10,0.91,242.0,M,25.0,M,,*59

[1499590519057]$GPGSA,A,3,24,17,19,15,13,12,28,01,10,18,,,1.84,0.91,1.60*0E

[1499590519057]$GPGSV,3,1,11,01,14,035,14,10,12,313,13,11,04,024,20,12,27,245,34*7F

[1499590519057]$GPGSV,3,2,11,13,28,181,26,15,43,225,40,17,54,088,29,18,08,287,22*7E

[1499590519057]$GPGSV,3,3,11,19,52,132,26,24,55,289,25,28,24,066,19*44

[1499590519057]$GPGLL,5355.75800,N,02729.31064,E,055519.00,A,A*66

[1499590520074]$GPRMC,055520.00,A,5355.75798,N,02729.31070,E,0.057,,090717,,,A*74

[1499590520074]$GPVTG,,T,,M,0.057,N,0.105,K,A*25

[1499590520074]$GPGGA,055520.00,5355.75798,N,02729.31070,E,1,10,0.91,242.0,M,25.0,M,,*58

[1499590520074]$GPGSA,A,3,24,17,19,15,13,12,28,01,10,18,,,1.84,0.91,1.60*0E

[1499590520074]$GPGSV,3,1,11,01,14,035,14,10,12,313,13,11,04,024,20,12,27,245,34*7F

[1499590520074]$GPGSV,3,2,11,13,28,181,25,15,43,225,40,17,54,088,29,18,08,287,22*7D

[1499590520074]$GPGSV,3,3,11,19,52,132,25,24,55,289,26,28,24,066,21*4F

[1499590520074]$GPGLL,5355.75798,N,02729.31070,E,055520.00,A,A*67

[1499590521056]$GPRMC,055521.00,A,5355.75796,N,02729.31078,E,0.066,,090717,,,A*71

[1499590521056]$GPVTG,,T,,M,0.066,N,0.123,K,A*23

[1499590521056]$GPGGA,055521.00,5355.75796,N,02729.31078,E,1,10,0.91,242.0,M,25.0,M,,*5F

[1499590521056]$GPGSA,A,3,24,17,19,15,13,12,28,01,10,18,,,1.84,0.91,1.60*0E

[1499590521056]$GPGSV,3,1,11,01,14,035,13,10,12,313,14,11,04,024,20,12,27,245,34*7F

[1499590521056]$GPGSV,3,2,11,13,28,181,26,15,43,225,40,17,54,088,29,18,08,287,22*7E

[1499590521056]$GPGSV,3,3,11,19,52,132,25,24,55,289,26,28,24,066,22*4C

[1499590521056]$GPGLL,5355.75796,N,02729.31078,E,055521.00,A,A*60

[1499590522058]$GPRMC,055522.00,A,5355.75800,N,02729.31084,E,0.222,,090717,,,A*73

[1499590522058]$GPVTG,,T,,M,0.222,N,0.412,K,A*26

[1499590522058]$GPGGA,055522.00,5355.75800,N,02729.31084,E,1,10,0.91,241.8,M,25.0,M,,*54

[1499590522058]$GPGSA,A,3,24,17,19,15,13,12,28,01,10,18,,,1.84,0.91,1.60*0E

[1499590522058]$GPGSV,3,1,11,01,14,035,12,10,12,313,15,11,04,024,20,12,27,245,34*7F

[1499590522058]$GPGSV,3,2,11,13,28,181,25,15,43,225,40,17,54,088,29,18,08,287,22*7D

[1499590522058]$GPGSV,3,3,11,19,52,132,25,24,55,289,26,28,24,066,22*4C

[1499590522058]$GPGLL,5355.75800,N,02729.31084,E,055522.00,A,A*60

[1499590523063]$GPRMC,055523.00,A,5355.75799,N,02729.31086,E,0.076,,090717,,,A*7C

[1499590523063]$GPVTG,,T,,M,0.076,N,0.140,K,A*27

[1499590523063]$GPGGA,055523.00,5355.75799,N,02729.31086,E,1,10,0.91,241.9,M,25.0,M,,*59

[1499590523063]$GPGSA,A,3,24,17,19,15,13,12,28,01,10,18,,,1.84,0.91,1.60*0E

[1499590523063]$GPGSV,3,1,11,01,14,035,13,10,12,313,16,11,04,024,20,12,27,245,34*7D

[1499590523063]$GPGSV,3,2,11,13,28,181,26,15,43,225,40,17,54,088,29,18,08,287,22*7E

[1499590523063]$GPGSV,3,3,11,19,52,132,25,24,55,289,27,28,24,066,22*4D

[1499590523063]$GPGLL,5355.75799,N,02729.31086,E,055523.00,A,A*6C

[1499590524057]$GPRMC,055524.00,A,5355.75801,N,02729.31097,E,0.134,,090717,,,A*72

[1499590524057]$GPVTG,,T,,M,0.134,N,0.248,K,A*2B

[1499590524057]$GPGGA,055524.00,5355.75801,N,02729.31097,E,1,10,0.91,241.5,M,25.0,M,,*5C

[1499590524057]$GPGSA,A,3,24,17,19,15,13,12,28,01,10,18,,,1.84,0.91,1.60*0E

[1499590524057]$GPGSV,3,1,11,01,14,035,11,10,12,313,18,11,04,024,20,12,27,245,35*70

[1499590524057]$GPGSV,3,2,11,13,28,181,27,15,43,225,41,17,54,088,29,18,08,287,22*7E

[1499590524057]$GPGSV,3,3,11,19,52,132,25,24,55,289,25,28,24,066,21*4C

[1499590524057]$GPGLL,5355.75801,N,02729.31097,E,055524.00,A,A*65

[1499590525057]$GPRMC,055525.00,A,5355.75800,N,02729.31103,E,0.384,,090717,,,A*77

[1499590525057]$GPVTG,,T,,M,0.384,N,0.712,K,A*28

[1499590525057]$GPGGA,055525.00,5355.75800,N,02729.31103,E,1,09,0.98,241.4,M,25.0,M,,*50

[1499590525057]$GPGSA,A,3,24,17,19,15,13,12,28,10,18,,,,1.94,0.98,1.67*00

[1499590525057]$GPGSV,3,1,11,01,14,035,09,10,12,313,18,11,04,024,20,12,27,245,35*79

[1499590525057]$GPGSV,3,2,11,13,28,181,27,15,43,225,41,17,54,088,29,18,08,287,22*7E

[1499590525057]$GPGSV,3,3,11,19,52,132,26,24,55,289,25,28,24,066,20*4E

[1499590525057]$GPGLL,5355.75800,N,02729.31103,E,055525.00,A,A*69

[1499590526057]$GPRMC,055526.00,A,5355.75806,N,02729.31114,E,0.416,,090717,,,A*78

[1499590526057]$GPVTG,,T,,M,0.416,N,0.771,K,A*21

[1499590526057]$GPGGA,055526.00,5355.75806,N,02729.31114,E,1,09,0.98,241.1,M,25.0,M,,*56

[1499590526057]$GPGSA,A,3,24,17,19,15,13,12,28,10,18,,,,1.94,0.98,1.67*00

[1499590526057]$GPGSV,3,1,11,01,14,035,08,10,12,313,18,11,04,024,20,12,27,245,35*78

[1499590526057]$GPGSV,3,2,11,13,28,181,28,15,43,225,41,17,54,088,29,18,08,287,22*71

[1499590526057]$GPGSV,3,3,11,19,52,132,26,24,55,289,25,28,24,066,20*4E

[1499590526057]$GPGLL,5355.75806,N,02729.31114,E,055526.00,A,A*6A

[1499590527046]$GPRMC,055527.00,A,5355.75815,N,02729.31128,E,0.219,,090717,,,A*7D

[1499590527046]$GPVTG,,T,,M,0.219,N,0.406,K,A*2B

[1499590527046]$GPGGA,055527.00,5355.75815,N,02729.31128,E,1,09,0.98,240.7,M,25.0,M,,*5D

[1499590527046]$GPGSA,A,3,24,17,19,15,13,12,28,10,18,,,,1.94,0.98,1.67*00

[1499590527046]$GPGSV,3,1,11,01,14,035,08,10,12,313,19,11,04,024,19,12,27,245,34*72

[1499590527046]$GPGSV,3,2,11,13,28,181,28,15,43,225,41,17,54,088,29,18,08,287,22*71

[1499590527046]$GPGSV,3,3,11,19,52,132,26,24,55,289,25,28,24,066,21*4F

[1499590527046]$GPGLL,5355.75815,N,02729.31128,E,055527.00,A,A*66

[1499590528057]$GPRMC,055528.00,A,5355.75823,N,02729.31142,E,0.066,,090717,,,A*71

[1499590528057]$GPVTG,,T,,M,0.066,N,0.123,K,A*23

[1499590528057]$GPGGA,055528.00,5355.75823,N,02729.31142,E,1,09,0.98,240.1,M,25.0,M,,*5D

[1499590528057]$GPGSA,A,3,24,17,19,15,13,12,28,10,18,,,,1.94,0.98,1.67*00

[1499590528057]$GPGSV,3,1,11,01,14,035,08,10,12,313,19,11,04,024,19,12,27,245,34*72

[1499590528057]$GPGSV,3,2,11,13,28,181,28,15,43,225,41,17,54,088,28,18,08,287,22*70

[1499590528057]$GPGSV,3,3,11,19,52,132,26,24,55,289,26,28,24,066,21*4C

[1499590528057]$GPGLL,5355.75823,N,02729.31142,E,055528.00,A,A*60

[1499590529057]$GPRMC,055529.00,A,5355.75822,N,02729.31153,E,0.102,,090717,,,A*72

[1499590529057]$GPVTG,,T,,M,0.102,N,0.189,K,A*20

[1499590529057]$GPGGA,055529.00,5355.75822,N,02729.31153,E,1,09,0.98,239.8,M,25.0,M,,*5A

[1499590529057]$GPGSA,A,3,24,17,19,15,13,12,28,10,18,,,,1.94,0.98,1.67*00

[1499590529057]$GPGSV,3,1,11,01,14,035,08,10,12,313,19,11,04,024,19,12,27,245,34*72

[1499590529057]$GPGSV,3,2,11,13,28,181,28,15,43,225,41,17,54,088,29,18,08,287,22*71

[1499590529057]$GPGSV,3,3,11,19,52,132,26,24,55,289,26,28,24,066,21*4C

[1499590529057]$GPGLL,5355.75822,N,02729.31153,E,055529.00,A,A*60

[1499590530057]$GPRMC,055530.00,A,5355.75818,N,02729.31159,E,0.082,,090717,,,A*70

[1499590530057]$GPVTG,,T,,M,0.082,N,0.153,K,A*2E

[1499590530057]$GPGGA,055530.00,5355.75818,N,02729.31159,E,1,09,0.98,239.7,M,25.0,M,,*5E

[1499590530057]$GPGSA,A,3,24,17,19,15,13,12,28,10,18,,,,1.93,0.98,1.67*07

[1499590530057]$GPGSV,3,1,11,01,14,035,08,10,12,313,20,11,04,024,18,12,27,245,34*79

[1499590530057]$GPGSV,3,2,11,13,28,181,28,15,43,225,40,17,54,088,29,18,08,287,21*73

[1499590530057]$GPGSV,3,3,11,19,52,132,26,24,55,289,27,28,24,066,22*4E

[1499590530057]$GPGLL,5355.75818,N,02729.31159,E,055530.00,A,A*6B

[1499590531062]$GPRMC,055531.00,A,5355.75814,N,02729.31165,E,0.136,,090717,,,A*7C

[1499590531062]$GPVTG,,T,,M,0.136,N,0.252,K,A*22

[1499590531062]$GPGGA,055531.00,5355.75814,N,02729.31165,E,1,09,0.98,239.6,M,25.0,M,,*5D

[1499590531062]$GPGSA,A,3,24,17,19,15,13,12,28,10,18,,,,1.93,0.98,1.67*07

[1499590531062]$GPGSV,3,1,11,01,14,035,,10,12,313,20,11,04,024,18,12,27,245,34*71

[1499590531062]$GPGSV,3,2,11,13,28,181,28,15,43,225,41,17,54,088,29,18,08,287,21*72

[1499590531062]$GPGSV,3,3,11,19,52,132,26,24,55,289,27,28,24,066,22*4E

[1499590531062]$GPGLL,5355.75814,N,02729.31165,E,055531.00,A,A*69

[1499590532057]$GPRMC,055532.00,A,5355.75814,N,02729.31170,E,0.084,,090717,,,A*73

[1499590532057]$GPVTG,,T,,M,0.084,N,0.156,K,A*2D

[1499590532057]$GPGGA,055532.00,5355.75814,N,02729.31170,E,1,09,0.98,239.3,M,25.0,M,,*5F

[1499590532057]$GPGSA,A,3,24,17,19,15,13,12,28,10,18,,,,1.93,0.98,1.67*07

[1499590532057]$GPGSV,3,1,11,01,14,035,,10,12,313,19,11,04,024,18,12,27,245,34*7B

[1499590532057]$GPGSV,3,2,11,13,28,181,28,15,43,225,41,17,54,088,28,18,08,287,21*73

[1499590532057]$GPGSV,3,3,11,19,52,132,26,24,55,289,26,28,24,066,22*4F

[1499590532057]$GPGLL,5355.75814,N,02729.31170,E,055532.00,A,A*6E

[1499590533057]$GPRMC,055533.00,A,5355.75815,N,02729.31179,E,0.120,,090717,,,A*75

[1499590533057]$GPVTG,,T,,M,0.120,N,0.223,K,A*23

[1499590533057]$GPGGA,055533.00,5355.75815,N,02729.31179,E,1,09,0.98,238.9,M,25.0,M,,*5D

[1499590533057]$GPGSA,A,3,24,17,19,15,13,12,28,10,18,,,,1.93,0.98,1.67*07

[1499590533057]$GPGSV,3,1,11,01,14,035,,10,12,313,19,11,04,024,18,12,27,245,34*7B

[1499590533057]$GPGSV,3,2,11,13,28,181,28,15,43,225,41,17,54,088,28,18,08,287,22*70

[1499590533057]$GPGSV,3,3,11,19,52,132,26,24,55,289,26,28,24,066,22*4F

[1499590533057]$GPGLL,5355.75815,N,02729.31179,E,055533.00,A,A*67

[1499590534046]$GPRMC,055534.00,A,5355.75815,N,02729.31186,E,0.076,,090717,,,A*70

[1499590534046]$GPVTG,,T,,M,0.076,N,0.141,K,A*26

[1499590534046]$GPGGA,055534.00,5355.75815,N,02729.31186,E,1,09,0.98,238.7,M,25.0,M,,*54

[1499590534046]$GPGSA,A,3,24,17,19,15,13,12,28,10,18,,,,1.93,0.98,1.67*07

[1499590534046]$GPGSV,3,1,11,01,14,035,,10,12,313,20,11,04,024,18,12,27,245,34*71

[1499590534046]$GPGSV,3,2,11,13,28,181,28,15,43,225,41,17,54,088,28,18,08,287,22*70

[1499590534046]$GPGSV,3,3,11,19,52,132,27,24,55,289,26,28,24,066,22*4E

[1499590534046]$GPGLL,5355.75815,N,02729.31186,E,055534.00,A,A*60

[1499590535046]$GPRMC,055535.00,A,5355.75819,N,02729.31195,E,0.080,,090717,,,A*76

[1499590535046]$GPVTG,,T,,M,0.080,N,0.149,K,A*27

[1499590535046]$GPGGA,055535.00,5355.75819,N,02729.31195,E,1,09,0.98,238.3,M,25.0,M,,*5F

[1499590535046]$GPGSA,A,3,24,17,19,15,13,12,28,10,18,,,,1.93,0.98,1.67*07

[1499590535046]$GPGSV,3,1,11,01,14,035,,10,12,313,20,11,04,024,18,12,27,245,34*71

[1499590535046]$GPGSV,3,2,11,13,28,181,28,15,43,225,41,17,54,088,29,18,08,287,22*71

[1499590535046]$GPGSV,3,3,11,19,52,132,27,24,55,289,26,28,24,066,22*4E

[1499590535046]$GPGLL,5355.75819,N,02729.31195,E,055535.00,A,A*6F

[1499590536061]$GPRMC,055536.00,A,5355.75816,N,02729.31204,E,0.239,,090717,,,A*71

[1499590536061]$GPVTG,,T,,M,0.239,N,0.443,K,A*28

[1499590536061]$GPGGA,055536.00,5355.75816,N,02729.31204,E,1,09,0.98,238.2,M,25.0,M,,*59

[1499590536061]$GPGSA,A,3,24,17,19,15,13,12,28,10,18,,,,1.93,0.98,1.67*07

[1499590536061]$GPGSV,3,1,11,01,14,034,,10,12,313,20,11,04,024,18,12,27,245,34*70

[1499590536061]$GPGSV,3,2,11,13,28,181,28,15,43,225,41,17,54,088,28,18,08,287,22*70

[1499590536061]$GPGSV,3,3,11,19,52,132,27,24,55,289,26,28,24,066,22*4E

[1499590536061]$GPGLL,5355.75816,N,02729.31204,E,055536.00,A,A*68

[1499590537057]$GPRMC,055537.00,A,5355.75820,N,02729.31214,E,0.087,,090717,,,A*73

[1499590537057]$GPVTG,,T,,M,0.087,N,0.161,K,A*2A

[1499590537057]$GPGGA,055537.00,5355.75820,N,02729.31214,E,1,09,0.97,237.9,M,25.0,M,,*57

[1499590537057]$GPGSA,A,3,24,17,19,15,13,12,28,10,18,,,,1.93,0.97,1.67*08

[1499590537057]$GPGSV,3,1,11,01,14,034,,10,12,313,20,11,04,024,18,12,27,245,34*70

[1499590537057]$GPGSV,3,2,11,13,28,181,28,15,43,225,41,17,54,088,29,18,08,287,22*71

[1499590537057]$GPGSV,3,3,11,19,52,132,27,24,55,289,26,28,24,066,23*4F

[1499590537057]$GPGLL,5355.75820,N,02729.31214,E,055537.00,A,A*6D

[1499590538062]$GPRMC,055538.00,A,5355.75826,N,02729.31223,E,0.093,,090717,,,A*7B

[1499590538062]$GPVTG,,T,,M,0.093,N,0.172,K,A*2D

[1499590538062]$GPGGA,055538.00,5355.75826,N,02729.31223,E,1,09,0.97,237.6,M,25.0,M,,*55

[1499590538062]$GPGSA,A,3,24,17,19,15,13,12,28,10,18,,,,1.93,0.97,1.67*08

[1499590538062]$GPGSV,3,1,11,01,14,034,,10,12,313,20,11,04,024,17,12,27,245,35*7E

[1499590538062]$GPGSV,3,2,11,13,28,181,28,15,43,225,41,17,54,088,29,18,08,287,22*71

[1499590538062]$GPGSV,3,3,11,19,52,132,27,24,55,289,26,28,24,066,23*4F

[1499590538062]$GPGLL,5355.75826,N,02729.31223,E,055538.00,A,A*60

[1499590539062]$GPRMC,055539.00,A,5355.75830,N,02729.31224,E,0.085,,090717,,,A*7D

[1499590539062]$GPVTG,,T,,M,0.085,N,0.157,K,A*2D

[1499590539062]$GPGGA,055539.00,5355.75830,N,02729.31224,E,1,09,0.97,237.6,M,25.0,M,,*54

[1499590539062]$GPGSA,A,3,24,17,19,15,13,12,28,10,18,,,,1.93,0.97,1.67*08

[1499590539062]$GPGSV,3,1,11,01,14,034,,10,12,313,20,11,04,024,16,12,27,245,35*7F

[1499590539062]$GPGSV,3,2,11,13,28,181,27,15,43,225,41,17,54,088,29,18,08,287,22*7E

[1499590539062]$GPGSV,3,3,11,19,52,132,27,24,55,289,26,28,24,066,23*4F

[1499590539062]$GPGLL,5355.75830,N,02729.31224,E,055539.00,A,A*61

[1499590540067]$GPRMC,055540.00,A,5355.75836,N,02729.31224,E,0.035,,090717,,,A*7E

[1499590540067]$GPVTG,,T,,M,0.035,N,0.065,K,A*26

[1499590540067]$GPGGA,055540.00,5355.75836,N,02729.31224,E,1,09,0.97,237.4,M,25.0,M,,*5E

[1499590540067]$GPGSA,A,3,24,17,19,15,13,12,28,10,18,,,,1.93,0.97,1.67*08

[1499590540067]$GPGSV,3,1,12,01,14,034,,06,00,131,,10,12,313,20,11,04,024,15*79

[1499590540067]$GPGSV,3,2,12,12,27,245,34,13,28,181,26,15,43,225,41,17,54,088,28*73

[1499590540067]$GPGSV,3,3,12,18,08,287,22,19,52,132,26,24,55,289,27,28,24,066,23*70

[1499590540067]$GPGLL,5355.75836,N,02729.31224,E,055540.00,A,A*69

[1499590541065]$GPRMC,055541.00,A,5355.75838,N,02729.31226,E,0.176,,090717,,,A*75

[1499590541065]$GPVTG,,T,,M,0.176,N,0.325,K,A*27

[1499590541065]$GPGGA,055541.00,5355.75838,N,02729.31226,E,1,09,0.97,237.6,M,25.0,M,,*51

[1499590541065]$GPGSA,A,3,24,17,19,15,13,12,28,10,18,,,,1.93,0.97,1.67*08

[1499590541065]$GPGSV,3,1,12,01,14,034,,06,00,131,,10,12,313,20,11,04,024,15*79

[1499590541065]$GPGSV,3,2,12,12,27,245,34,13,28,181,26,15,43,225,41,17,54,088,28*73

[1499590541065]$GPGSV,3,3,12,18,08,287,22,19,52,132,26,24,55,289,27,28,24,066,23*70

[1499590541065]$GPGLL,5355.75838,N,02729.31226,E,055541.00,A,A*64

[1499590542071]$GPRMC,055542.00,A,5355.75843,N,02729.31228,E,0.007,,090717,,,A*73

[1499590542071]$GPVTG,,T,,M,0.007,N,0.013,K,A*26

[1499590542071]$GPGGA,055542.00,5355.75843,N,02729.31228,E,1,09,0.97,237.7,M,25.0,M,,*51

[1499590542071]$GPGSA,A,3,24,17,19,15,13,12,28,10,18,,,,1.93,0.97,1.67*08

[1499590542071]$GPGSV,3,1,12,01,14,034,,06,00,131,,10,12,313,21,11,04,024,15*78

[1499590542071]$GPGSV,3,2,12,12,27,245,34,13,28,181,27,15,43,225,41,17,54,088,28*72

[1499590542071]$GPGSV,3,3,12,18,08,287,21,19,52,132,26,24,55,289,27,28,24,066,23*73

[1499590542071]$GPGLL,5355.75843,N,02729.31228,E,055542.00,A,A*65

[1499590543057]$GPRMC,055543.00,A,5355.75851,N,02729.31229,E,0.030,,090717,,,A*74

[1499590543057]$GPVTG,,T,,M,0.030,N,0.055,K,A*20

[1499590543057]$GPGGA,055543.00,5355.75851,N,02729.31229,E,1,09,0.97,237.5,M,25.0,M,,*50

[1499590543057]$GPGSA,A,3,24,17,19,15,13,12,28,10,18,,,,1.93,0.97,1.67*08

[1499590543057]$GPGSV,3,1,12,01,14,034,,06,00,131,,10,12,313,22,11,04,024,14*7A

[1499590543057]$GPGSV,3,2,12,12,27,245,34,13,28,181,27,15,43,225,41,17,54,088,29*73

[1499590543057]$GPGSV,3,3,12,18,08,287,21,19,52,132,27,24,55,289,29,28,24,066,22*7D

[1499590543057]$GPGLL,5355.75851,N,02729.31229,E,055543.00,A,A*66

[1499590544066]$GPRMC,055544.00,A,5355.75855,N,02729.31234,E,0.043,,090717,,,A*7F

[1499590544066]$GPVTG,,T,,M,0.043,N,0.080,K,A*2C

[1499590544066]$GPGGA,055544.00,5355.75855,N,02729.31234,E,1,09,0.97,237.4,M,25.0,M,,*5E

[1499590544066]$GPGSA,A,3,24,17,19,15,13,12,28,10,18,,,,1.93,0.97,1.67*08

[1499590544066]$GPGSV,3,1,12,01,14,034,,06,00,131,,10,12,312,21,11,04,024,16*7A

[1499590544066]$GPGSV,3,2,12,12,27,245,34,13,28,181,27,15,43,225,41,17,54,088,29*73

[1499590544066]$GPGSV,3,3,12,18,08,287,21,19,52,132,26,24,55,289,29,28,24,066,23*7D

[1499590544066]$GPGLL,5355.75855,N,02729.31234,E,055544.00,A,A*69

[1499590545057]$GPRMC,055545.00,A,5355.75863,N,02729.31241,E,0.026,,090717,,,A*7A

[1499590545057]$GPVTG,,T,,M,0.026,N,0.048,K,A*2B

[1499590545057]$GPGGA,055545.00,5355.75863,N,02729.31241,E,1,09,0.97,237.1,M,25.0,M,,*5D

[1499590545057]$GPGSA,A,3,24,17,19,15,13,12,28,10,18,,,,1.93,0.97,1.66*09

[1499590545057]$GPGSV,3,1,12,01,14,034,,06,00,131,,10,12,312,21,11,04,023,18*73

[1499590545057]$GPGSV,3,2,12,12,27,245,34,13,28,181,27,15,43,225,41,17,54,088,30*7B

[1499590545057]$GPGSV,3,3,12,18,08,287,21,19,52,132,27,24,55,289,29,28,24,066,23*7C

[1499590545057]$GPGLL,5355.75863,N,02729.31241,E,055545.00,A,A*6F

[1499590546067]$GPRMC,055546.00,A,5355.75871,N,02729.31245,E,0.028,,090717,,,A*70

[1499590546067]$GPVTG,,T,,M,0.028,N,0.052,K,A*2E

[1499590546067]$GPGGA,055546.00,5355.75871,N,02729.31245,E,1,09,0.97,236.8,M,25.0,M,,*51

[1499590546067]$GPGSA,A,3,24,17,19,15,13,12,28,10,18,,,,1.93,0.97,1.66*09

[1499590546067]$GPGSV,3,1,12,01,14,034,,06,00,131,,10,12,312,21,11,04,023,19*72

[1499590546067]$GPGSV,3,2,12,12,27,245,34,13,28,181,27,15,43,225,40,17,54,088,30*7A

[1499590546067]$GPGSV,3,3,12,18,08,287,21,19,52,132,27,24,55,289,29,28,24,066,22*7D

[1499590546067]$GPGLL,5355.75871,N,02729.31245,E,055546.00,A,A*6B

[1499590547062]$GPRMC,055547.00,A,5355.75876,N,02729.31246,E,0.049,,090717,,,A*72

[1499590547062]$GPVTG,,T,,M,0.049,N,0.091,K,A*26

[1499590547062]$GPGGA,055547.00,5355.75876,N,02729.31246,E,1,09,0.97,236.5,M,25.0,M,,*59

[1499590547062]$GPGSA,A,3,24,17,19,15,13,12,28,10,18,,,,1.93,0.97,1.66*09

[1499590547062]$GPGSV,3,1,12,01,14,034,,06,00,131,,10,12,312,21,11,04,023,18*73

[1499590547062]$GPGSV,3,2,12,12,27,245,34,13,28,181,27,15,43,225,41,17,54,088,30*7B

[1499590547062]$GPGSV,3,3,12,18,08,287,21,19,52,132,27,24,55,289,29,28,24,066,22*7D

[1499590547062]$GPGLL,5355.75876,N,02729.31246,E,055547.00,A,A*6E

[1499590548067]$GPRMC,055548.00,A,5355.75881,N,02729.31249,E,0.142,,090717,,,A*70

[1499590548067]$GPVTG,,T,,M,0.142,N,0.263,K,A*23

[1499590548067]$GPGGA,055548.00,5355.75881,N,02729.31249,E,1,09,0.97,236.2,M,25.0,M,,*56

[1499590548067]$GPGSA,A,3,24,17,19,15,13,12,28,10,18,,,,1.93,0.97,1.66*09

[1499590548067]$GPGSV,3,1,12,01,14,034,,06,00,131,,10,12,312,22,11,04,023,18*70

[1499590548067]$GPGSV,3,2,12,12,27,245,35,13,28,181,26,15,43,225,40,17,54,088,30*7A

[1499590548067]$GPGSV,3,3,12,18,08,287,21,19,52,132,26,24,55,289,28,28,24,066,23*7C

[1499590548067]$GPGLL,5355.75881,N,02729.31249,E,055548.00,A,A*66

[1499590549057]$GPRMC,055549.00,A,5355.75888,N,02729.31248,E,0.044,,090717,,,A*7E

[1499590549057]$GPVTG,,T,,M,0.044,N,0.082,K,A*29

[1499590549057]$GPGGA,055549.00,5355.75888,N,02729.31248,E,1,09,0.97,236.0,M,25.0,M,,*5D

[1499590549057]$GPGSA,A,3,24,17,19,15,13,12,28,10,18,,,,1.93,0.97,1.66*09

[1499590549057]$GPGSV,3,1,12,01,14,034,,06,00,131,,10,12,312,22,11,04,023,18*70

[1499590549057]$GPGSV,3,2,12,12,27,245,35,13,28,181,25,15,43,225,40,17,54,088,30*79

[1499590549057]$GPGSV,3,3,12,18,08,287,22,19,52,132,25,24,55,289,28,28,24,066,23*7C

[1499590549057]$GPGLL,5355.75888,N,02729.31248,E,055549.00,A,A*6F

[1499590550071]$GPRMC,055550.00,A,5355.75894,N,02729.31248,E,0.109,,090717,,,A*73

[1499590550071]$GPVTG,,T,,M,0.109,N,0.202,K,A*2B

[1499590550071]$GPGGA,055550.00,5355.75894,N,02729.31248,E,1,09,0.97,235.8,M,25.0,M,,*53

[1499590550071]$GPGSA,A,3,24,17,19,15,13,12,28,10,18,,,,1.93,0.97,1.66*09

[1499590550071]$GPGSV,3,1,12,01,14,034,,06,00,131,,10,12,312,21,11,04,023,18*73

[1499590550071]$GPGSV,3,2,12,12,27,245,35,13,28,181,26,15,43,225,40,17,54,088,30*7A

[1499590550071]$GPGSV,3,3,12,18,08,287,22,19,52,132,25,24,55,289,28,28,24,066,23*7C

[1499590550071]$GPGLL,5355.75894,N,02729.31248,E,055550.00,A,A*6A

[1499590551064]$GPRMC,055551.00,A,5355.75900,N,02729.31254,E,0.109,,090717,,,A*73

[1499590551064]$GPVTG,,T,,M,0.109,N,0.202,K,A*2B

[1499590551064]$GPGGA,055551.00,5355.75900,N,02729.31254,E,1,09,0.97,235.7,M,25.0,M,,*5C

[1499590551064]$GPGSA,A,3,24,17,19,15,13,12,28,10,18,,,,1.93,0.97,1.66*09

[1499590551064]$GPGSV,3,1,12,01,14,034,,06,00,131,,10,12,312,21,11,04,023,18*73

[1499590551064]$GPGSV,3,2,12,12,27,245,34,13,28,181,26,15,43,225,40,17,54,087,29*7C

[1499590551064]$GPGSV,3,3,12,18,08,287,22,19,52,132,26,24,55,289,29,28,24,066,23*7E

[1499590551064]$GPGLL,5355.75900,N,02729.31254,E,055551.00,A,A*6A

[1499590552067]$GPRMC,055552.00,A,5355.75905,N,02729.31250,E,0.134,,090717,,,A*7F

[1499590552067]$GPVTG,,T,,M,0.134,N,0.248,K,A*2B

[1499590552067]$GPGGA,055552.00,5355.75905,N,02729.31250,E,1,09,0.97,235.8,M,25.0,M,,*51

[1499590552067]$GPGSA,A,3,24,17,19,15,13,12,28,10,18,,,,1.93,0.97,1.66*09

[1499590552067]$GPGSV,3,1,12,01,14,034,,06,00,131,,10,12,312,21,11,04,023,17*7C

[1499590552067]$GPGSV,3,2,12,12,27,245,34,13,28,181,26,15,43,225,40,17,54,087,29*7C

[1499590552067]$GPGSV,3,3,12,18,08,287,22,19,52,132,26,24,55,289,29,28,24,066,22*7F

[1499590552067]$GPGLL,5355.75905,N,02729.31250,E,055552.00,A,A*68

[1499590553066]$GPRMC,055553.00,A,5355.75900,N,02729.31242,E,0.127,,090717,,,A*7A

[1499590553066]$GPVTG,,T,,M,0.127,N,0.235,K,A*23

[1499590553066]$GPGGA,055553.00,5355.75900,N,02729.31242,E,1,09,0.97,236.3,M,25.0,M,,*5E

[1499590553066]$GPGSA,A,3,24,17,19,15,13,12,28,10,18,,,,1.93,0.97,1.66*09

[1499590553066]$GPGSV,3,1,12,01,14,034,,06,00,131,,10,12,312,21,11,04,023,17*7C

[1499590553066]$GPGSV,3,2,12,12,27,245,34,13,28,181,26,15,43,225,40,17,54,087,30*74

[1499590553066]$GPGSV,3,3,12,18,08,287,22,19,52,132,26,24,55,289,29,28,24,066,22*7F

[1499590553066]$GPGLL,5355.75900,N,02729.31242,E,055553.00,A,A*6F

[1499590554057]$GPRMC,055554.00,A,5355.75902,N,02729.31243,E,0.070,,090717,,,A*7D

[1499590554057]$GPVTG,,T,,M,0.070,N,0.130,K,A*26

[1499590554057]$GPGGA,055554.00,5355.75902,N,02729.31243,E,1,09,0.97,236.3,M,25.0,M,,*5A

[1499590554057]$GPGSA,A,3,24,17,19,15,13,12,28,10,18,,,,1.93,0.97,1.66*09

[1499590554057]$GPGSV,3,1,12,01,14,034,,06,00,131,,10,12,312,22,11,04,023,17*7F

[1499590554057]$GPGSV,3,2,12,12,27,245,34,13,28,181,27,15,43,225,40,17,54,087,30*75

[1499590554057]$GPGSV,3,3,12,18,08,287,21,19,52,132,26,24,55,289,30,28,24,066,22*74

[1499590554057]$GPGLL,5355.75902,N,02729.31243,E,055554.00,A,A*6B

