[1499589561687]$GPRMC,053921.00,A,5355.78695,N,02729.50293,E,0.040,,090717,,,A*70

[1499589561687]$GPVTG,,T,,M,0.040,N,0.075,K,A*25

[1499589561687]$GPGGA,053921.00,5355.78695,N,02729.50293,E,1,10,0.99,212.9,M,25.0,M,,*5E

[1499589561687]$GPGSA,A,3,10,24,01,17,13,19,11,18,15,12,,,2.10,0.99,1.85*09

[1499589561687]$GPGSV,3,1,12,01,14,041,31,10,13,319,10,11,08,028,08,12,20,241,35*78

[1499589561687]$GPGSV,3,2,12,13,36,182,36,15,49,233,36,17,53,100,34,18,12,293,22*78

[1499589561687]$GPGSV,3,3,12,19,46,141,30,24,48,289,38,28,30,064,,30,04,112,36*7E

[1499589561687]$GPGLL,5355.78695,N,02729.50293,E,053921.00,A,A*65

[1499589562687]$GPRMC,053922.00,A,5355.78699,N,02729.50288,E,0.025,,090717,,,A*76

[1499589562687]$GPVTG,,T,,M,0.025,N,0.046,K,A*26

[1499589562687]$GPGGA,053922.00,5355.78699,N,02729.50288,E,1,09,0.99,212.9,M,25.0,M,,*53

[1499589562687]$GPGSA,A,3,10,24,01,17,13,19,18,15,12,,,,2.10,0.99,1.85*09

[1499589562687]$GPGSV,3,1,12,01,14,041,30,10,13,319,10,11,08,028,08,12,21,242,35*7B

[1499589562687]$GPGSV,3,2,12,13,36,182,36,15,49,233,36,17,53,100,33,18,12,293,22*7F

[1499589562687]$GPGSV,3,3,12,19,46,141,30,24,48,289,38,28,30,064,,30,04,112,36*7E

[1499589562687]$GPGLL,5355.78699,N,02729.50288,E,053922.00,A,A*60

[1499589563687]$GPRMC,053923.00,A,5355.78701,N,02729.50285,E,0.057,,090717,,,A*7F

[1499589563687]$GPVTG,,T,,M,0.057,N,0.105,K,A*25

[1499589563687]$GPGGA,053923.00,5355.78701,N,02729.50285,E,1,09,0.99,212.8,M,25.0,M,,*5E

[1499589563687]$GPGSA,A,3,10,24,01,17,13,19,18,15,12,,,,2.10,0.99,1.85*09

[1499589563687]$GPGSV,3,1,12,01,14,041,31,10,13,319,10,11,08,028,08,12,21,242,37*78

[1499589563687]$GPGSV,3,2,12,13,36,182,36,15,49,233,36,17,53,100,30,18,12,293,20*7E

[1499589563687]$GPGSV,3,3,12,19,46,141,31,24,48,289,36,28,30,064,18,30,04,112,36*78

[1499589563687]$GPGLL,5355.78701,N,02729.50285,E,053923.00,A,A*6C

[1499589564687]$GPRMC,053924.00,A,5355.78704,N,02729.50278,E,0.037,,090717,,,A*79

[1499589564687]$GPVTG,,T,,M,0.037,N,0.069,K,A*28

[1499589564687]$GPGGA,053924.00,5355.78704,N,02729.50278,E,1,09,0.99,212.7,M,25.0,M,,*51

[1499589564687]$GPGSA,A,3,10,24,01,17,13,19,18,15,12,,,,2.10,0.99,1.85*09

[1499589564687]$GPGSV,3,1,12,01,14,041,30,10,13,319,10,11,08,028,08,12,21,242,35*7B

[1499589564687]$GPGSV,3,2,12,13,36,182,36,15,49,233,35,17,53,100,35,18,12,293,23*7B

[1499589564687]$GPGSV,3,3,12,19,46,141,31,24,48,289,36,28,30,064,18,30,04,112,36*78

[1499589564687]$GPGLL,5355.78704,N,02729.50278,E,053924.00,A,A*6C

[1499589565687]$GPRMC,053925.00,A,5355.78704,N,02729.50272,E,0.054,,090717,,,A*77

[1499589565687]$GPVTG,,T,,M,0.054,N,0.101,K,A*22

[1499589565687]$GPGGA,053925.00,5355.78704,N,02729.50272,E,1,09,0.99,212.6,M,25.0,M,,*5B

[1499589565687]$GPGSA,A,3,10,24,01,17,13,19,18,15,12,,,,2.10,0.99,1.85*09

[1499589565687]$GPGSV,3,1,12,01,14,041,30,10,13,319,10,11,08,028,08,12,21,242,36*78

[1499589565687]$GPGSV,3,2,12,13,36,182,36,15,49,233,35,17,53,100,35,18,12,293,24*7C

[1499589565687]$GPGSV,3,3,12,19,46,141,30,24,48,289,36,28,30,064,16,30,04,112,36*77

[1499589565687]$GPGLL,5355.78704,N,02729.50272,E,053925.00,A,A*67

[1499589566688]$GPRMC,053926.00,A,5355.78704,N,02729.50255,E,0.231,,090717,,,A*70

[1499589566688]$GPVTG,,T,,M,0.231,N,0.428,K,A*2D

[1499589566688]$GPGGA,053926.00,5355.78704,N,02729.50255,E,1,10,0.95,212.4,M,25.0,M,,*5B

[1499589566688]$GPGSA,A,3,10,24,01,17,13,19,18,28,15,12,,,2.08,0.95,1.85*06

[1499589566688]$GPGSV,3,1,12,01,14,041,30,10,13,319,15,11,08,028,09,12,21,242,37*7D

[1499589566688]$GPGSV,3,2,12,13,36,182,36,15,49,233,35,17,53,100,36,18,12,293,26*7D

[1499589566688]$GPGSV,3,3,12,19,46,141,29,24,48,289,36,28,30,064,17,30,04,112,36*7E

[1499589566688]$GPGLL,5355.78704,N,02729.50255,E,053926.00,A,A*61

[1499589567691]$GPRMC,053927.00,A,5355.78705,N,02729.50220,E,0.232,,090717,,,A*71

[1499589567691]$GPVTG,,T,,M,0.232,N,0.431,K,A*26

[1499589567691]$GPGGA,053927.00,5355.78705,N,02729.50220,E,1,10,0.95,212.1,M,25.0,M,,*5C

[1499589567691]$GPGSA,A,3,10,24,01,17,13,19,18,28,15,12,,,2.08,0.95,1.85*06

[1499589567691]$GPGSV,3,1,12,01,14,041,29,10,13,319,15,11,08,028,09,12,21,242,38*7A

[1499589567691]$GPGSV,3,2,12,13,36,182,35,15,49,233,35,17,53,100,38,18,12,293,27*71

[1499589567691]$GPGSV,3,3,12,19,46,141,29,24,48,289,37,28,30,064,17,30,04,112,36*7F

[1499589567691]$GPGLL,5355.78705,N,02729.50220,E,053927.00,A,A*63

[1499589568700]$GPRMC,053928.00,A,5355.78707,N,02729.50199,E,0.387,,090717,,,A*72

[1499589568700]$GPVTG,,T,,M,0.387,N,0.716,K,A*2F

[1499589568700]$GPGGA,053928.00,5355.78707,N,02729.50199,E,1,10,0.95,211.9,M,25.0,M,,*5B

[1499589568700]$GPGSA,A,3,10,24,01,17,13,19,18,28,15,12,,,2.08,0.95,1.85*06

[1499589568700]$GPGSV,3,1,12,01,14,041,31,10,13,319,15,11,08,028,09,12,21,242,39*72

[1499589568700]$GPGSV,3,2,12,13,36,182,35,15,49,233,38,17,53,100,35,18,12,293,27*71

[1499589568700]$GPGSV,3,3,12,19,46,141,29,24,48,289,37,28,30,064,16,30,04,112,36*7E

[1499589568700]$GPGLL,5355.78707,N,02729.50199,E,053928.00,A,A*6F

[1499589569687]$GPRMC,053929.00,A,5355.78707,N,02729.50186,E,0.258,,090717,,,A*7E

[1499589569687]$GPVTG,,T,,M,0.258,N,0.478,K,A*27

[1499589569687]$GPGGA,053929.00,5355.78707,N,02729.50186,E,1,10,0.95,211.7,M,25.0,M,,*5A

[1499589569687]$GPGSA,A,3,10,24,01,17,13,19,18,28,15,12,,,2.08,0.95,1.85*06

[1499589569687]$GPGSV,3,1,12,01,14,041,30,10,13,319,15,11,08,028,09,12,21,242,38*72

[1499589569687]$GPGSV,3,2,12,13,36,182,38,15,49,233,37,17,53,100,35,18,12,293,25*71

[1499589569687]$GPGSV,3,3,12,19,46,140,28,24,48,289,37,28,30,064,19,30,04,112,36*71

[1499589569687]$GPGLL,5355.78707,N,02729.50186,E,053929.00,A,A*60

[1499589570687]$GPRMC,053930.00,A,5355.78709,N,02729.50167,E,0.557,,090717,,,A*7F

[1499589570687]$GPVTG,,T,,M,0.557,N,1.032,K,A*24

[1499589570687]$GPGGA,053930.00,5355.78709,N,02729.50167,E,1,10,0.95,211.6,M,25.0,M,,*52

[1499589570687]$GPGSA,A,3,10,24,01,17,13,19,18,28,15,12,,,2.08,0.95,1.85*06

[1499589570687]$GPGSV,3,1,12,01,14,041,31,10,13,319,15,11,08,028,09,12,21,242,34*7F

[1499589570687]$GPGSV,3,2,12,13,36,182,37,15,49,233,37,17,53,100,33,18,12,293,25*78

[1499589570687]$GPGSV,3,3,12,19,46,140,28,24,48,289,38,28,30,064,23,30,04,112,36*77

[1499589570687]$GPGLL,5355.78709,N,02729.50167,E,053930.00,A,A*69

[1499589571687]$GPRMC,053931.00,A,5355.78713,N,02729.50144,E,0.706,51.46,090717,,,A*5A

[1499589571687]$GPVTG,51.46,T,,M,0.706,N,1.308,K,A*00

[1499589571687]$GPGGA,053931.00,5355.78713,N,02729.50144,E,1,10,0.95,211.3,M,25.0,M,,*5C

[1499589571687]$GPGSA,A,3,10,24,01,17,13,19,18,28,15,12,,,2.08,0.95,1.85*06

[1499589571687]$GPGSV,3,1,12,01,14,041,33,10,13,319,15,11,08,028,09,12,21,242,34*7D

[1499589571687]$GPGSV,3,2,12,13,36,182,37,15,49,233,39,17,53,100,30,18,12,293,25*75

[1499589571687]$GPGSV,3,3,12,19,46,140,27,24,48,289,38,28,30,064,26,30,04,112,35*7E

[1499589571687]$GPGLL,5355.78713,N,02729.50144,E,053931.00,A,A*62

[1499589572690]$GPRMC,053932.00,A,5355.78717,N,02729.50116,E,0.962,326.89,090717,,,A*66

[1499589572690]$GPVTG,326.89,T,,M,0.962,N,1.782,K,A*3A

[1499589572690]$GPGGA,053932.00,5355.78717,N,02729.50116,E,1,10,0.95,211.0,M,25.0,M,,*5F

[1499589572690]$GPGSA,A,3,10,24,01,17,13,19,18,28,15,12,,,2.08,0.95,1.85*06

[1499589572690]$GPGSV,3,1,12,01,14,041,30,10,13,319,30,11,08,028,07,12,21,242,39*7A

[1499589572690]$GPGSV,3,2,12,13,36,182,37,15,49,233,39,17,53,100,29,18,12,293,22*7A

[1499589572690]$GPGSV,3,3,12,19,46,140,28,24,48,289,37,28,30,064,32,30,04,112,34*7A

[1499589572690]$GPGLL,5355.78717,N,02729.50116,E,053932.00,A,A*62

[1499589573687]$GPRMC,053933.00,A,5355.78714,N,02729.50089,E,0.928,299.70,090717,,,A*6E

[1499589573687]$GPVTG,299.70,T,,M,0.928,N,1.718,K,A*34

[1499589573687]$GPGGA,053933.00,5355.78714,N,02729.50089,E,1,10,0.95,210.6,M,25.0,M,,*5D

[1499589573687]$GPGSA,A,3,10,24,01,17,13,19,18,28,15,12,,,2.08,0.95,1.85*06

[1499589573687]$GPGSV,3,1,12,01,14,041,29,10,13,319,31,11,08,028,07,12,21,242,36*7C

[1499589573687]$GPGSV,3,2,12,13,36,182,39,15,49,233,39,17,53,100,30,18,12,293,19*74

[1499589573687]$GPGSV,3,3,12,19,46,140,30,24,48,289,37,28,30,064,32,30,04,112,34*73

[1499589573687]$GPGLL,5355.78714,N,02729.50089,E,053933.00,A,A*67

[1499589574687]$GPRMC,053934.00,A,5355.78719,N,02729.50047,E,1.076,285.70,090717,,,A*68

[1499589574687]$GPVTG,285.70,T,,M,1.076,N,1.992,K,A*36

[1499589574687]$GPGGA,053934.00,5355.78719,N,02729.50047,E,1,11,0.95,210.6,M,25.0,M,,*54

[1499589574687]$GPGSA,A,3,10,24,01,17,13,19,11,18,28,15,12,,2.07,0.95,1.85*09

[1499589574687]$GPGSV,3,1,12,01,14,041,34,10,13,319,28,11,08,028,07,12,21,242,34*7A

[1499589574687]$GPGSV,3,2,12,13,36,182,37,15,49,233,38,17,53,100,34,18,12,293,18*7E

[1499589574687]$GPGSV,3,3,12,19,46,140,29,24,48,289,39,28,30,064,29,30,04,112,36*7D

[1499589574687]$GPGLL,5355.78719,N,02729.50047,E,053934.00,A,A*6F

[1499589575687]$GPRMC,053935.00,A,5355.78718,N,02729.50000,E,1.107,278.09,090717,,,A*60

[1499589575687]$GPVTG,278.09,T,,M,1.107,N,2.051,K,A*38

[1499589575687]$GPGGA,053935.00,5355.78718,N,02729.50000,E,1,11,0.93,210.6,M,25.0,M,,*51

[1499589575687]$GPGSA,A,3,10,24,01,17,13,19,11,18,28,15,12,,1.98,0.93,1.75*05

[1499589575687]$GPGSV,3,1,12,01,14,041,30,10,13,319,29,11,08,028,07,12,21,242,35*7E

[1499589575687]$GPGSV,3,2,12,13,36,182,36,15,49,233,36,17,53,100,33,18,12,293,21*7C

[1499589575687]$GPGSV,3,3,12,19,46,140,30,24,48,289,39,28,30,064,23,30,04,112,36*7F

[1499589575687]$GPGLL,5355.78718,N,02729.50000,E,053935.00,A,A*6C

[1499589576687]$GPRMC,053936.00,A,5355.78711,N,02729.49944,E,1.422,270.07,090717,,,A*6F

[1499589576687]$GPVTG,270.07,T,,M,1.422,N,2.634,K,A*39

[1499589576687]$GPGGA,053936.00,5355.78711,N,02729.49944,E,1,11,0.95,210.5,M,25.0,M,,*5F

[1499589576687]$GPGSA,A,3,10,24,01,17,13,19,11,18,28,15,12,,2.07,0.95,1.85*09

[1499589576687]$GPGSV,3,1,12,01,14,041,31,10,13,319,30,11,08,028,07,12,21,242,36*74

[1499589576687]$GPGSV,3,2,12,13,36,182,37,15,49,233,36,17,53,100,33,18,12,293,25*79

[1499589576687]$GPGSV,3,3,12,19,46,140,28,24,48,289,39,28,30,064,26,30,04,112,34*71

[1499589576687]$GPGLL,5355.78711,N,02729.49944,E,053936.00,A,A*67

[1499589577687]$GPRMC,053937.00,A,5355.78709,N,02729.49875,E,1.622,269.27,090717,,,A*6C

[1499589577687]$GPVTG,269.27,T,,M,1.622,N,3.004,K,A*35

[1499589577687]$GPGGA,053937.00,5355.78709,N,02729.49875,E,1,11,0.95,210.4,M,25.0,M,,*55

[1499589577687]$GPGSA,A,3,10,24,01,17,13,19,11,18,28,15,12,,2.07,0.95,1.85*09

[1499589577687]$GPGSV,3,1,12,01,14,041,32,10,13,319,31,11,08,028,07,12,21,242,35*75

[1499589577687]$GPGSV,3,2,12,13,36,182,36,15,49,233,36,17,53,100,34,18,12,293,26*7C

[1499589577687]$GPGSV,3,3,12,19,46,140,27,24,48,289,39,28,30,064,27,30,04,112,31*7A

[1499589577687]$GPGLL,5355.78709,N,02729.49875,E,053937.00,A,A*6C

[1499589578687]$GPRMC,053938.00,A,5355.78701,N,02729.49809,E,1.653,269.06,090717,,,A*65

[1499589578687]$GPVTG,269.06,T,,M,1.653,N,3.062,K,A*30

[1499589578687]$GPGGA,053938.00,5355.78701,N,02729.49809,E,1,11,0.95,210.4,M,25.0,M,,*59

[1499589578687]$GPGSA,A,3,10,24,01,17,13,19,11,18,28,15,12,,2.07,0.95,1.85*09

[1499589578687]$GPGSV,3,1,12,01,14,041,32,10,13,319,32,11,08,028,10,12,21,242,36*73

[1499589578687]$GPGSV,3,2,12,13,36,182,38,15,49,233,36,17,53,100,34,18,12,293,24*70

[1499589578687]$GPGSV,3,3,12,19,46,140,27,24,48,289,39,28,30,064,28,30,04,112,35*71

[1499589578687]$GPGLL,5355.78701,N,02729.49809,E,053938.00,A,A*60

[1499589579689]$GPRMC,053939.00,A,5355.78698,N,02729.49733,E,1.810,268.81,090717,,,A*64

[1499589579689]$GPVTG,268.81,T,,M,1.810,N,3.353,K,A*36

[1499589579689]$GPGGA,053939.00,5355.78698,N,02729.49733,E,1,11,0.95,210.3,M,25.0,M,,*58

[1499589579689]$GPGSA,A,3,10,24,01,17,13,19,11,18,28,15,12,,2.07,0.95,1.85*09

[1499589579689]$GPGSV,3,1,12,01,14,041,32,10,13,319,31,11,08,028,10,12,21,242,36*70

[1499589579689]$GPGSV,3,2,12,13,36,182,36,15,49,233,36,17,53,100,33,18,12,293,23*7E

[1499589579689]$GPGSV,3,3,12,19,46,140,26,24,48,289,39,28,30,064,30,30,04,112,37*7B

[1499589579689]$GPGLL,5355.78698,N,02729.49733,E,053939.00,A,A*66

[1499589580691]$GPRMC,053940.00,A,5355.78695,N,02729.49658,E,1.795,268.78,090717,,,A*6F

[1499589580691]$GPVTG,268.78,T,,M,1.795,N,3.324,K,A*32

[1499589580691]$GPGGA,053940.00,5355.78695,N,02729.49658,E,1,11,0.95,210.3,M,25.0,M,,*57

[1499589580691]$GPGSA,A,3,10,24,01,17,13,19,11,18,28,15,12,,2.07,0.95,1.85*09

[1499589580691]$GPGSV,3,1,12,01,14,041,32,10,13,319,31,11,08,028,10,12,21,242,36*70

[1499589580691]$GPGSV,3,2,12,13,36,182,37,15,49,233,36,17,53,100,34,18,12,293,21*7A

[1499589580691]$GPGSV,3,3,12,19,46,140,26,24,48,289,39,28,30,064,30,30,03,112,33*78

[1499589580691]$GPGLL,5355.78695,N,02729.49658,E,053940.00,A,A*69

[1499589581688]$GPRMC,053941.00,A,5355.78691,N,02729.49591,E,1.438,268.75,090717,,,A*65

[1499589581688]$GPVTG,268.75,T,,M,1.438,N,2.663,K,A*3C

[1499589581688]$GPGGA,053941.00,5355.78691,N,02729.49591,E,1,11,0.95,210.4,M,25.0,M,,*53

[1499589581688]$GPGSA,A,3,10,24,01,17,13,19,11,18,28,15,12,,2.07,0.95,1.85*09

[1499589581688]$GPGSV,3,1,12,01,14,041,30,10,13,319,27,11,08,028,10,12,21,242,36*75

[1499589581688]$GPGSV,3,2,12,13,36,182,38,15,49,233,35,17,53,100,30,18,12,293,21*72

[1499589581688]$GPGSV,3,3,12,19,46,140,26,24,48,289,39,28,30,064,30,30,03,112,29*73

[1499589581688]$GPGLL,5355.78691,N,02729.49591,E,053941.00,A,A*6A

[1499589582688]$GPRMC,053942.00,A,5355.78690,N,02729.49523,E,1.645,269.74,090717,,,A*66

[1499589582688]$GPVTG,269.74,T,,M,1.645,N,3.046,K,A*34

[1499589582688]$GPGGA,053942.00,5355.78690,N,02729.49523,E,1,11,0.93,210.5,M,25.0,M,,*5F

[1499589582688]$GPGSA,A,3,10,24,01,17,13,19,11,18,28,15,12,,1.98,0.93,1.75*05

[1499589582688]$GPGSV,3,1,12,01,14,041,29,10,13,319,32,11,08,028,10,12,21,242,37*78

[1499589582688]$GPGSV,3,2,12,13,36,182,37,15,49,233,36,17,53,100,32,18,12,293,21*7C

[1499589582688]$GPGSV,3,3,12,19,46,140,30,24,48,289,38,28,30,064,30,30,03,112,31*7C

[1499589582688]$GPGLL,5355.78690,N,02729.49523,E,053942.00,A,A*61

[1499589583687]$GPRMC,053943.00,A,5355.78689,N,02729.49435,E,2.039,269.83,090717,,,A*6F

[1499589583687]$GPVTG,269.83,T,,M,2.039,N,3.777,K,A*37

[1499589583687]$GPGGA,053943.00,5355.78689,N,02729.49435,E,1,11,0.95,210.5,M,25.0,M,,*56

[1499589583687]$GPGSA,A,3,10,24,01,17,13,19,11,18,28,15,12,,2.07,0.95,1.85*09

[1499589583687]$GPGSV,3,1,12,01,14,041,34,10,13,319,33,11,08,028,10,12,21,242,33*71

[1499589583687]$GPGSV,3,2,12,13,36,182,35,15,49,233,32,17,53,100,33,18,12,293,20*7A

[1499589583687]$GPGSV,3,3,12,19,46,140,29,24,48,289,39,28,30,064,21,30,03,112,35*71

[1499589583687]$GPGLL,5355.78689,N,02729.49435,E,053943.00,A,A*6E

[1499589584687]$GPRMC,053944.00,A,5355.78683,N,02729.49341,E,2.143,268.49,090717,,,A*6D

[1499589584687]$GPVTG,268.49,T,,M,2.143,N,3.970,K,A*35

[1499589584687]$GPGGA,053944.00,5355.78683,N,02729.49341,E,1,11,0.95,210.5,M,25.0,M,,*5F

[1499589584687]$GPGSA,A,3,10,24,01,17,13,19,11,18,28,15,12,,2.07,0.95,1.85*09

[1499589584687]$GPGSV,3,1,12,01,14,041,30,10,13,319,33,11,08,028,09,12,21,242,31*7F

[1499589584687]$GPGSV,3,2,12,13,36,182,36,15,49,233,31,17,53,100,33,18,12,293,21*7B

[1499589584687]$GPGSV,3,3,12,19,46,140,31,24,48,289,39,28,30,064,19,30,03,112,25*72

[1499589584687]$GPGLL,5355.78683,N,02729.49341,E,053944.00,A,A*67

[1499589585689]$GPRMC,053945.00,A,5355.78676,N,02729.49252,E,2.002,266.63,090717,,,A*67

[1499589585689]$GPVTG,266.63,T,,M,2.002,N,3.708,K,A*36

[1499589585689]$GPGGA,053945.00,5355.78676,N,02729.49252,E,1,11,0.95,210.5,M,25.0,M,,*57

[1499589585689]$GPGSA,A,3,10,24,01,17,13,19,11,18,28,15,12,,2.07,0.95,1.85*09

[1499589585689]$GPGSV,3,1,12,01,14,041,33,10,13,319,29,11,08,028,09,12,21,242,31*77

[1499589585689]$GPGSV,3,2,12,13,36,182,36,15,49,233,32,17,53,100,35,18,12,293,23*7C

[1499589585689]$GPGSV,3,3,12,19,46,140,31,24,48,289,39,28,30,064,18,30,03,112,31*76

[1499589585689]$GPGLL,5355.78676,N,02729.49252,E,053945.00,A,A*6F

[1499589586688]$GPRMC,053946.00,A,5355.78673,N,02729.49180,E,1.558,266.34,090717,,,A*66

[1499589586688]$GPVTG,266.34,T,,M,1.558,N,2.885,K,A*36

[1499589586688]$GPGGA,053946.00,5355.78673,N,02729.49180,E,1,11,0.95,210.6,M,25.0,M,,*5E

[1499589586688]$GPGSA,A,3,10,24,01,17,13,19,11,18,28,15,12,,2.07,0.95,1.85*09

[1499589586688]$GPGSV,3,1,12,01,14,041,33,10,13,319,33,11,08,028,09,12,21,242,32*7F

[1499589586688]$GPGSV,3,2,12,13,36,182,35,15,49,233,27,17,53,100,35,18,12,293,26*7E

[1499589586688]$GPGSV,3,3,12,19,46,140,31,24,48,289,39,28,30,064,19,30,03,112,33*75

[1499589586688]$GPGLL,5355.78673,N,02729.49180,E,053946.00,A,A*65

[1499589587687]$GPRMC,053947.00,A,5355.78670,N,02729.49141,E,0.705,266.44,090717,,,A*65

[1499589587687]$GPVTG,266.44,T,,M,0.705,N,1.305,K,A*3A

[1499589587687]$GPGGA,053947.00,5355.78670,N,02729.49141,E,1,11,0.95,210.7,M,25.0,M,,*50

[1499589587687]$GPGSA,A,3,10,24,01,17,13,19,11,18,28,15,12,,2.07,0.95,1.85*09

[1499589587687]$GPGSV,3,1,12,01,14,041,33,10,13,319,33,11,08,028,09,12,21,242,31*7C

[1499589587687]$GPGSV,3,2,12,13,36,182,35,15,49,233,33,17,53,100,36,18,12,293,27*79

[1499589587687]$GPGSV,3,3,12,19,46,140,31,24,48,289,38,28,30,064,20,30,03,112,32*7F

[1499589587687]$GPGLL,5355.78670,N,02729.49141,E,053947.00,A,A*6A

[1499589588690]$GPRMC,053948.00,A,5355.78667,N,02729.49118,E,0.478,,090717,,,A*75

[1499589588690]$GPVTG,,T,,M,0.478,N,0.884,K,A*2C

[1499589588690]$GPGGA,053948.00,5355.78667,N,02729.49118,E,1,11,0.95,210.9,M,25.0,M,,*5B

[1499589588690]$GPGSA,A,3,10,24,01,17,13,19,11,18,28,15,12,,2.07,0.95,1.85*09

[1499589588690]$GPGSV,3,1,12,01,14,041,36,10,13,319,33,11,08,028,09,12,21,242,30*78

[1499589588690]$GPGSV,3,2,12,13,36,182,36,15,49,233,33,17,53,100,33,18,12,293,26*7E

[1499589588690]$GPGSV,3,3,12,19,46,140,30,24,48,289,38,28,30,064,28,30,03,112,33*77

[1499589588690]$GPGLL,5355.78667,N,02729.49118,E,053948.00,A,A*6F

[1499589589687]$GPRMC,053949.00,A,5355.78666,N,02729.49092,E,0.572,,090717,,,A*7D

[1499589589687]$GPVTG,,T,,M,0.572,N,1.059,K,A*2E

[1499589589687]$GPGGA,053949.00,5355.78666,N,02729.49092,E,1,11,0.93,211.0,M,25.0,M,,*56

[1499589589687]$GPGSA,A,3,10,24,01,17,13,19,11,18,28,15,12,,1.98,0.93,1.75*05

[1499589589687]$GPGSV,3,1,12,01,14,041,34,10,13,319,33,11,08,028,09,12,21,242,29*72

[1499589589687]$GPGSV,3,2,12,13,36,182,33,15,49,233,34,17,53,100,35,18,12,293,26*7A

[1499589589687]$GPGSV,3,3,12,19,46,140,30,24,48,289,38,28,30,064,26,30,03,112,34*7E

[1499589589687]$GPGLL,5355.78666,N,02729.49092,E,053949.00,A,A*6C

[1499589590689]$GPRMC,053950.00,A,5355.78664,N,02729.49065,E,0.886,269.19,090717,,,A*62

[1499589590689]$GPVTG,269.19,T,,M,0.886,N,1.641,K,A*3C

[1499589590689]$GPGGA,053950.00,5355.78664,N,02729.49065,E,1,11,0.95,211.0,M,25.0,M,,*52

[1499589590689]$GPGSA,A,3,10,24,01,17,13,19,11,18,28,15,12,,2.07,0.95,1.85*09

[1499589590689]$GPGSV,3,1,12,01,14,041,34,10,13,319,33,11,08,028,12,12,21,242,29*78

[1499589590689]$GPGSV,3,2,12,13,36,182,33,15,49,233,33,17,53,100,37,18,12,293,25*7C

[1499589590689]$GPGSV,3,3,12,19,46,140,29,24,48,289,39,28,30,064,23,30,03,112,35*73

[1499589590689]$GPGLL,5355.78664,N,02729.49065,E,053950.00,A,A*6E

[1499589591691]$GPRMC,053951.00,A,5355.78662,N,02729.49019,E,1.155,268.75,090717,,,A*63

[1499589591691]$GPVTG,268.75,T,,M,1.155,N,2.138,K,A*3B

[1499589591691]$GPGGA,053951.00,5355.78662,N,02729.49019,E,1,11,0.93,211.0,M,25.0,M,,*58

[1499589591691]$GPGSA,A,3,10,24,01,17,13,19,11,18,28,15,12,,1.98,0.93,1.75*05

[1499589591691]$GPGSV,3,1,12,01,14,041,31,10,13,319,29,11,08,028,12,12,21,242,24*7B

[1499589591691]$GPGSV,3,2,12,13,36,182,28,15,49,233,33,17,53,100,35,18,12,293,24*75

[1499589591691]$GPGSV,3,3,12,19,46,140,30,24,48,289,38,28,30,064,23,30,03,112,36*79

[1499589591691]$GPGLL,5355.78662,N,02729.49019,E,053951.00,A,A*62

[1499589592687]$GPRMC,053952.00,A,5355.78664,N,02729.48964,E,1.298,271.26,090717,,,A*68

[1499589592687]$GPVTG,271.26,T,,M,1.298,N,2.404,K,A*3D

[1499589592687]$GPGGA,053952.00,5355.78664,N,02729.48964,E,1,11,0.93,211.1,M,25.0,M,,*5E

[1499589592687]$GPGSA,A,3,10,24,01,17,13,19,11,18,28,15,12,,1.98,0.93,1.75*05

[1499589592687]$GPGSV,3,1,12,01,14,041,35,10,13,319,31,11,08,028,12,12,21,242,29*7B

[1499589592687]$GPGSV,3,2,12,13,36,182,33,15,49,233,32,17,53,100,36,18,12,293,24*7D

[1499589592687]$GPGSV,3,3,12,19,46,140,30,24,48,289,38,28,30,064,25,30,03,112,31*78

[1499589592687]$GPGLL,5355.78664,N,02729.48964,E,053952.00,A,A*65

[1499589593687]$GPRMC,053953.00,A,5355.78663,N,02729.48908,E,1.264,270.44,090717,,,A*62

[1499589593687]$GPVTG,270.44,T,,M,1.264,N,2.342,K,A*3E

[1499589593687]$GPGGA,053953.00,5355.78663,N,02729.48908,E,1,11,0.95,211.2,M,25.0,M,,*57

[1499589593687]$GPGSA,A,3,10,24,01,17,13,19,11,18,28,15,12,,2.07,0.95,1.84*08

[1499589593687]$GPGSV,3,1,12,01,14,041,35,10,13,319,31,11,08,028,12,12,21,242,29*7B

[1499589593687]$GPGSV,3,2,12,13,36,182,36,15,49,233,33,17,53,100,35,18,12,293,25*7B

[1499589593687]$GPGSV,3,3,12,19,46,140,29,24,48,289,38,28,30,064,25,30,03,112,27*77

[1499589593687]$GPGLL,5355.78663,N,02729.48908,E,053953.00,A,A*69

[1499589594687]$GPRMC,053954.00,A,5355.78667,N,02729.48859,E,1.312,271.48,090717,,,A*69

[1499589594687]$GPVTG,271.48,T,,M,1.312,N,2.429,K,A*39

[1499589594687]$GPGGA,053954.00,5355.78667,N,02729.48859,E,1,11,0.93,211.2,M,25.0,M,,*57

[1499589594687]$GPGSA,A,3,10,24,01,17,13,19,11,18,28,15,12,,1.98,0.93,1.75*05

[1499589594687]$GPGSV,3,1,12,01,14,041,32,10,13,319,31,11,08,028,12,12,21,242,30*74

[1499589594687]$GPGSV,3,2,12,13,36,182,32,15,49,233,36,17,53,100,36,18,12,293,23*7F

[1499589594687]$GPGSV,3,3,12,19,46,140,28,24,48,289,38,28,30,064,26,30,03,112,31*72

[1499589594687]$GPGLL,5355.78667,N,02729.48859,E,053954.00,A,A*6F

[1499589595687]$GPRMC,053955.00,A,5355.78664,N,02729.48802,E,1.330,269.59,090717,,,A*6C

[1499589595687]$GPVTG,269.59,T,,M,1.330,N,2.464,K,A*39

[1499589595687]$GPGGA,053955.00,5355.78664,N,02729.48802,E,1,11,0.93,211.3,M,25.0,M,,*5A

[1499589595687]$GPGSA,A,3,10,24,01,17,13,19,11,18,28,15,12,,1.98,0.93,1.75*05

[1499589595687]$GPGSV,3,1,12,01,14,041,31,10,13,319,31,11,08,028,12,12,21,242,30*77

[1499589595687]$GPGSV,3,2,12,13,36,182,33,15,49,233,33,17,53,100,36,18,12,293,22*7A

[1499589595687]$GPGSV,3,3,12,19,46,140,26,24,48,289,38,28,30,064,27,30,03,112,31*7D

[1499589595687]$GPGLL,5355.78664,N,02729.48802,E,053955.00,A,A*63

[1499589596688]$GPRMC,053956.00,A,5355.78662,N,02729.48760,E,1.313,267.36,090717,,,A*64

[1499589596688]$GPVTG,267.36,T,,M,1.313,N,2.432,K,A*3C

[1499589596688]$GPGGA,053956.00,5355.78662,N,02729.48760,E,1,11,0.93,211.5,M,25.0,M,,*52

[1499589596688]$GPGSA,A,3,10,24,01,17,13,19,11,18,28,15,12,,1.98,0.93,1.75*05

[1499589596688]$GPGSV,3,1,12,01,14,041,30,10,13,319,31,11,08,028,17,12,21,242,29*7B

[1499589596688]$GPGSV,3,2,12,13,36,182,34,15,49,233,33,17,53,100,38,18,12,293,23*72

[1499589596688]$GPGSV,3,3,12,19,46,140,26,24,48,289,38,28,30,064,26,30,03,112,28*74

[1499589596688]$GPGLL,5355.78662,N,02729.48760,E,053956.00,A,A*6D

[1499589597687]$GPRMC,053957.00,A,5355.78659,N,02729.48697,E,1.504,267.63,090717,,,A*64

[1499589597687]$GPVTG,267.63,T,,M,1.504,N,2.785,K,A*33

[1499589597687]$GPGGA,053957.00,5355.78659,N,02729.48697,E,1,11,0.93,211.5,M,25.0,M,,*52

[1499589597687]$GPGSA,A,3,10,24,01,17,13,19,11,18,28,15,12,,1.98,0.93,1.75*05

[1499589597687]$GPGSV,3,1,12,01,14,041,30,10,13,319,32,11,08,028,17,12,21,242,30*70

[1499589597687]$GPGSV,3,2,12,13,36,182,34,15,49,233,33,17,53,100,36,18,12,293,22*7D

[1499589597687]$GPGSV,3,3,12,19,46,140,31,24,48,289,38,28,30,064,27,30,03,112,27*7C

[1499589597687]$GPGLL,5355.78659,N,02729.48697,E,053957.00,A,A*6D

[1499589598688]$GPRMC,053958.00,A,5355.78655,N,02729.48632,E,1.313,269.44,090717,,,A*63

[1499589598688]$GPVTG,269.44,T,,M,1.313,N,2.432,K,A*37

[1499589598688]$GPGGA,053958.00,5355.78655,N,02729.48632,E,1,11,0.93,211.7,M,25.0,M,,*5C

[1499589598688]$GPGSA,A,3,10,24,01,17,13,19,11,18,28,15,12,,1.98,0.93,1.75*05

[1499589598688]$GPGSV,3,1,12,01,14,041,34,10,13,319,26,11,08,028,17,12,21,242,29*79

[1499589598688]$GPGSV,3,2,12,13,36,182,35,15,49,233,32,17,53,100,35,18,12,293,22*7E

[1499589598688]$GPGSV,3,3,12,19,46,140,32,24,48,289,38,28,30,064,26,30,03,112,26*7F

[1499589598688]$GPGLL,5355.78655,N,02729.48632,E,053958.00,A,A*61

[1499589599697]$GPRMC,053959.00,A,5355.78655,N,02729.48568,E,1.822,269.93,090717,,,A*6D

[1499589599697]$GPVTG,269.93,T,,M,1.822,N,3.374,K,A*30

[1499589599697]$GPGGA,053959.00,5355.78655,N,02729.48568,E,1,11,0.95,211.8,M,25.0,M,,*58

[1499589599697]$GPGSA,A,3,10,24,01,17,13,19,11,18,28,15,12,,2.07,0.95,1.84*08

[1499589599697]$GPGSV,3,1,12,01,14,041,34,10,13,319,31,11,08,028,17,12,21,242,30*77

[1499589599697]$GPGSV,3,2,12,13,36,182,35,15,49,233,32,17,53,100,38,18,12,293,22*73

[1499589599697]$GPGSV,3,3,12,19,46,140,29,24,48,289,38,28,30,064,26,30,03,112,26*75

[1499589599697]$GPGLL,5355.78655,N,02729.48568,E,053959.00,A,A*6C

[1499589600697]$GPRMC,054000.00,A,5355.78649,N,02729.48464,E,2.430,269.03,090717,,,A*6A

[1499589600697]$GPVTG,269.03,T,,M,2.430,N,4.500,K,A*37

[1499589600697]$GPGGA,054000.00,5355.78649,N,02729.48464,E,1,11,0.93,211.8,M,25.0,M,,*5C

[1499589600697]$GPGSA,A,3,10,24,01,17,13,19,11,18,28,15,12,,1.98,0.93,1.75*05

[1499589600697]$GPGSV,3,1,12,01,14,041,33,10,13,319,31,11,08,028,17,12,21,242,29*78

[1499589600697]$GPGSV,3,2,12,13,36,182,34,15,49,233,32,17,53,100,32,18,12,293,23*79

[1499589600697]$GPGSV,3,3,12,19,46,140,28,24,48,289,36,28,30,064,28,30,03,112,24*76

[1499589600697]$GPGLL,5355.78649,N,02729.48464,E,054000.00,A,A*6E

[1499589601687]$GPRMC,054001.00,A,5355.78648,N,02729.48357,E,2.396,269.99,090717,,,A*65

[1499589601687]$GPVTG,269.99,T,,M,2.396,N,4.437,K,A*3A

[1499589601687]$GPGGA,054001.00,5355.78648,N,02729.48357,E,1,11,0.93,211.9,M,25.0,M,,*5A

[1499589601687]$GPGSA,A,3,10,24,01,17,13,19,11,18,28,15,12,,1.98,0.93,1.75*05

[1499589601687]$GPGSV,3,1,12,01,14,041,32,10,13,319,32,11,08,028,17,12,21,242,29*7A

[1499589601687]$GPGSV,3,2,12,13,36,182,35,15,49,233,32,17,53,100,35,18,12,293,22*7E

[1499589601687]$GPGSV,3,3,12,19,46,140,28,24,48,289,37,28,30,064,29,30,03,112,24*76

[1499589601687]$GPGLL,5355.78648,N,02729.48357,E,054001.00,A,A*69

[1499589602687]$GPRMC,054002.00,A,5355.78645,N,02729.48275,E,1.835,270.00,090717,,,A*63

[1499589602687]$GPVTG,270.00,T,,M,1.835,N,3.399,K,A*37

[1499589602687]$GPGGA,054002.00,5355.78645,N,02729.48275,E,1,11,0.93,212.0,M,25.0,M,,*5F

[1499589602687]$GPGSA,A,3,10,24,01,17,13,19,11,18,28,15,12,,1.98,0.93,1.75*05

[1499589602687]$GPGSV,3,1,12,01,14,041,31,10,13,319,31,11,08,028,09,12,21,242,29*75

[1499589602687]$GPGSV,3,2,12,13,36,182,35,15,49,233,32,17,53,100,37,18,12,293,23*7D

[1499589602687]$GPGSV,3,3,12,19,46,140,28,24,48,289,37,28,30,064,29,30,03,112,25*77

[1499589602687]$GPGLL,5355.78645,N,02729.48275,E,054002.00,A,A*66

[1499589603687]$GPRMC,054003.00,A,5355.78641,N,02729.48185,E,1.997,269.90,090717,,,A*62

[1499589603687]$GPVTG,269.90,T,,M,1.997,N,3.698,K,A*3B

[1499589603687]$GPGGA,054003.00,5355.78641,N,02729.48185,E,1,11,0.95,212.0,M,25.0,M,,*50

[1499589603687]$GPGSA,A,3,10,24,01,17,13,19,11,18,28,15,12,,2.07,0.95,1.84*08

[1499589603687]$GPGSV,3,1,12,01,14,041,30,10,13,319,32,11,08,028,09,12,21,242,28*76

[1499589603687]$GPGSV,3,2,12,13,36,182,36,15,49,233,33,17,53,100,34,18,12,293,23*7C

[1499589603687]$GPGSV,3,3,12,19,46,140,27,24,48,289,38,28,30,064,31,30,03,112,26*7D

[1499589603687]$GPGLL,5355.78641,N,02729.48185,E,054003.00,A,A*6F

[1499589604687]$GPRMC,054004.00,A,5355.78640,N,02729.48115,E,1.424,270.38,090717,,,A*62

[1499589604687]$GPVTG,270.38,T,,M,1.424,N,2.638,K,A*3F

[1499589604687]$GPGGA,054004.00,5355.78640,N,02729.48115,E,1,11,0.95,212.0,M,25.0,M,,*5F

[1499589604687]$GPGSA,A,3,10,24,01,17,13,19,11,18,28,15,12,,2.07,0.95,1.84*08

[1499589604687]$GPGSV,3,1,12,01,14,041,30,10,13,319,31,11,08,028,09,12,21,242,32*7E

[1499589604687]$GPGSV,3,2,12,13,36,182,33,15,49,233,33,17,53,100,36,18,12,293,23*7B

[1499589604687]$GPGSV,3,3,12,19,46,140,28,24,48,289,37,28,30,064,31,30,03,112,27*7C

[1499589604687]$GPGLL,5355.78640,N,02729.48115,E,054004.00,A,A*60

[1499589605687]$GPRMC,054005.00,A,5355.78637,N,02729.48097,E,0.008,,090717,,,A*73

[1499589605687]$GPVTG,,T,,M,0.008,N,0.014,K,A*2E

[1499589605687]$GPGGA,054005.00,5355.78637,N,02729.48097,E,1,11,0.95,211.9,M,25.0,M,,*5F

[1499589605687]$GPGSA,A,3,10,24,01,17,13,19,11,18,28,15,12,,2.07,0.95,1.84*08

[1499589605687]$GPGSV,3,1,12,01,14,041,30,10,13,319,32,11,08,028,09,12,21,242,28*76

[1499589605687]$GPGSV,3,2,12,13,36,182,37,15,49,233,35,17,53,100,33,18,12,293,23*7C

[1499589605687]$GPGSV,3,3,12,19,46,140,28,24,48,289,37,28,30,064,31,30,03,112,27*7C

[1499589605687]$GPGLL,5355.78637,N,02729.48097,E,054005.00,A,A*6A

[1499589606700]$GPRMC,054006.00,A,5355.78635,N,02729.48096,E,0.019,,090717,,,A*73

[1499589606700]$GPVTG,,T,,M,0.019,N,0.035,K,A*2D

[1499589606700]$GPGGA,054006.00,5355.78635,N,02729.48096,E,1,11,0.95,211.9,M,25.0,M,,*5F

[1499589606700]$GPGSA,A,3,10,24,01,17,13,19,11,18,28,15,12,,2.07,0.95,1.84*08

[1499589606700]$GPGSV,3,1,12,01,14,041,31,10,13,319,32,11,08,028,09,12,21,242,28*77

[1499589606700]$GPGSV,3,2,12,13,35,181,36,15,49,233,35,17,53,100,34,18,12,293,21*78

[1499589606700]$GPGSV,3,3,12,19,46,140,28,24,48,289,37,28,30,064,30,30,03,112,27*7D

[1499589606700]$GPGLL,5355.78635,N,02729.48096,E,054006.00,A,A*6A

[1499589607687]$GPRMC,054007.00,A,5355.78634,N,02729.48097,E,0.044,,090717,,,A*7A

[1499589607687]$GPVTG,,T,,M,0.044,N,0.082,K,A*29

[1499589607687]$GPGGA,054007.00,5355.78634,N,02729.48097,E,1,11,0.95,212.0,M,25.0,M,,*54

[1499589607687]$GPGSA,A,3,10,24,01,17,13,19,11,18,28,15,12,,2.07,0.95,1.84*08

[1499589607687]$GPGSV,3,1,12,01,14,041,32,10,13,319,28,11,08,028,09,12,21,242,28*7F

[1499589607687]$GPGSV,3,2,12,13,35,181,36,15,49,233,34,17,53,100,34,18,12,293,22*7A

[1499589607687]$GPGSV,3,3,12,19,46,140,33,24,48,289,37,28,30,064,30,30,03,112,26*76

[1499589607687]$GPGLL,5355.78634,N,02729.48097,E,054007.00,A,A*6B

[1499589608687]$GPRMC,054008.00,A,5355.78634,N,02729.48099,E,0.058,,090717,,,A*76

[1499589608687]$GPVTG,,T,,M,0.058,N,0.108,K,A*27

[1499589608687]$GPGGA,054008.00,5355.78634,N,02729.48099,E,1,10,0.95,212.1,M,25.0,M,,*55

[1499589608687]$GPGSA,A,3,10,24,01,17,13,19,18,28,15,12,,,2.07,0.95,1.84*08

[1499589608687]$GPGSV,3,1,12,01,14,041,31,10,13,319,31,11,08,028,06,12,21,242,28*7B

[1499589608687]$GPGSV,3,2,12,13,35,181,36,15,48,232,34,17,53,100,34,18,12,293,21*79

[1499589608687]$GPGSV,3,3,12,19,46,140,31,24,48,289,37,28,30,064,29,30,03,112,26*7C

[1499589608687]$GPGLL,5355.78634,N,02729.48099,E,054008.00,A,A*6A

[1499589609687]$GPRMC,054009.00,A,5355.78635,N,02729.48094,E,0.233,,090717,,,A*74

[1499589609687]$GPVTG,,T,,M,0.233,N,0.432,K,A*24

[1499589609687]$GPGGA,054009.00,5355.78635,N,02729.48094,E,1,10,0.95,212.2,M,25.0,M,,*5B

[1499589609687]$GPGSA,A,3,10,24,01,17,13,19,18,28,15,12,,,2.07,0.95,1.84*08

[1499589609687]$GPGSV,3,1,12,01,14,041,30,10,13,319,32,11,08,028,06,12,21,242,29*78

[1499589609687]$GPGSV,3,2,12,13,35,181,37,15,48,232,34,17,53,100,34,18,12,293,18*72

[1499589609687]$GPGSV,3,3,12,19,46,140,30,24,48,289,36,28,30,064,29,30,03,112,27*7D

[1499589609687]$GPGLL,5355.78635,N,02729.48094,E,054009.00,A,A*67

[1499589610687]$GPRMC,054010.00,A,5355.78636,N,02729.48095,E,0.078,,090717,,,A*73

[1499589610687]$GPVTG,,T,,M,0.078,N,0.145,K,A*2C

[1499589610687]$GPGGA,054010.00,5355.78636,N,02729.48095,E,1,10,0.95,212.2,M,25.0,M,,*51

[1499589610687]$GPGSA,A,3,10,24,01,17,13,19,18,28,15,12,,,2.07,0.95,1.84*08

[1499589610687]$GPGSV,3,1,12,01,14,041,31,10,13,319,33,11,08,028,06,12,21,242,28*79

[1499589610687]$GPGSV,3,2,12,13,35,181,37,15,48,232,32,17,53,099,34,18,12,293,19*74

[1499589610687]$GPGSV,3,3,12,19,46,140,31,24,48,289,38,28,30,064,27,30,03,112,25*7E

[1499589610687]$GPGLL,5355.78636,N,02729.48095,E,054010.00,A,A*6D

[1499589611687]$GPRMC,054011.00,A,5355.78633,N,02729.48100,E,0.008,,090717,,,A*7D

[1499589611687]$GPVTG,,T,,M,0.008,N,0.016,K,A*2C

[1499589611687]$GPGGA,054011.00,5355.78633,N,02729.48100,E,1,10,0.95,212.3,M,25.0,M,,*59

[1499589611687]$GPGSA,A,3,10,24,01,17,13,19,18,28,15,12,,,2.07,0.95,1.84*08

[1499589611687]$GPGSV,3,1,12,01,14,041,31,10,13,319,34,11,08,028,06,12,21,242,28*7E

[1499589611687]$GPGSV,3,2,12,13,35,181,37,15,48,232,32,17,53,099,33,18,11,293,22*78

[1499589611687]$GPGSV,3,3,12,19,46,140,29,24,48,289,39,28,30,064,28,30,03,112,25*79

[1499589611687]$GPGLL,5355.78633,N,02729.48100,E,054011.00,A,A*64

[1499589612691]$GPRMC,054012.00,A,5355.78629,N,02729.48127,E,0.570,,090717,,,A*7A

[1499589612691]$GPVTG,,T,,M,0.570,N,1.055,K,A*20

[1499589612691]$GPGGA,054012.00,5355.78629,N,02729.48127,E,1,10,0.95,212.3,M,25.0,M,,*54

[1499589612691]$GPGSA,A,3,10,24,01,17,13,19,18,28,15,12,,,2.07,0.95,1.84*08

[1499589612691]$GPGSV,3,1,12,01,14,041,30,10,13,319,30,11,08,028,06,12,21,242,32*70

[1499589612691]$GPGSV,3,2,12,13,35,181,38,15,48,232,33,17,53,099,36,18,11,293,23*72

[1499589612691]$GPGSV,3,3,12,19,46,140,28,24,48,289,36,28,30,064,27,30,03,112,25*78

[1499589612691]$GPGLL,5355.78629,N,02729.48127,E,054012.00,A,A*69

[1499589613687]$GPRMC,054013.00,A,5355.78611,N,02729.48176,E,1.293,224.19,090717,,,A*6D

[1499589613687]$GPVTG,224.19,T,,M,1.293,N,2.394,K,A*34

[1499589613687]$GPGGA,054013.00,5355.78611,N,02729.48176,E,1,10,0.95,212.3,M,25.0,M,,*5A

[1499589613687]$GPGSA,A,3,10,24,01,17,13,19,18,28,15,12,,,2.07,0.95,1.84*08

[1499589613687]$GPGSV,3,1,12,01,14,041,30,10,13,319,25,11,08,028,06,12,21,242,26*71

[1499589613687]$GPGSV,3,2,12,13,35,181,35,15,48,232,33,17,53,099,36,18,11,293,22*7E

[1499589613687]$GPGSV,3,3,12,19,46,140,28,24,48,289,39,28,30,064,26,30,03,112,26*75

[1499589613687]$GPGLL,5355.78611,N,02729.48176,E,054013.00,A,A*67

[1499589614687]$GPRMC,054014.00,A,5355.78584,N,02729.48222,E,1.463,189.43,090717,,,A*65

[1499589614687]$GPVTG,189.43,T,,M,1.463,N,2.710,K,A*3E

[1499589614687]$GPGGA,054014.00,5355.78584,N,02729.48222,E,1,10,0.95,212.4,M,25.0,M,,*57

[1499589614687]$GPGSA,A,3,10,24,01,17,13,19,18,28,15,12,,,2.07,0.95,1.84*08

[1499589614687]$GPGSV,3,1,12,01,14,041,22,10,13,319,31,11,08,028,09,12,21,242,26*78

[1499589614687]$GPGSV,3,2,12,13,35,181,31,15,48,232,26,17,53,099,31,18,11,293,23*78

[1499589614687]$GPGSV,3,3,12,19,46,140,27,24,48,289,30,28,30,064,31,30,03,112,27*74

[1499589614687]$GPGLL,5355.78584,N,02729.48222,E,054014.00,A,A*6D

[1499589615691]$GPRMC,054015.00,A,5355.78558,N,02729.48259,E,1.275,152.62,090717,,,A*6D

[1499589615691]$GPVTG,152.62,T,,M,1.275,N,2.361,K,A*38

[1499589615691]$GPGGA,054015.00,5355.78558,N,02729.48259,E,1,10,0.95,212.2,M,25.0,M,,*5D

[1499589615691]$GPGSA,A,3,10,24,01,17,13,19,18,28,15,12,,,2.07,0.95,1.84*08

[1499589615691]$GPGSV,3,1,12,01,14,041,29,10,13,319,23,11,08,028,09,12,21,242,26*70

[1499589615691]$GPGSV,3,2,12,13,35,181,32,15,48,232,35,17,53,099,35,18,11,293,24*7A

[1499589615691]$GPGSV,3,3,12,19,46,140,35,24,48,289,22,28,30,064,31,30,03,112,25*76

[1499589615691]$GPGLL,5355.78558,N,02729.48259,E,054015.00,A,A*61

[1499589616688]$GPRMC,054016.00,A,5355.78506,N,02729.48279,E,1.838,156.94,090717,,,A*69

[1499589616688]$GPVTG,156.94,T,,M,1.838,N,3.403,K,A*34

[1499589616688]$GPGGA,054016.00,5355.78506,N,02729.48279,E,1,11,0.95,212.1,M,25.0,M,,*55

[1499589616688]$GPGSA,A,3,10,24,01,17,13,19,11,18,28,15,12,,2.07,0.95,1.84*08

[1499589616688]$GPGSV,3,1,12,01,14,041,33,10,13,319,30,11,08,028,09,12,21,242,24*7B

[1499589616688]$GPGSV,3,2,12,13,35,181,38,15,48,232,33,17,53,099,41,18,11,293,31*71

[1499589616688]$GPGSV,3,3,12,19,46,140,32,24,48,289,35,28,30,064,26,30,03,112,22*76

[1499589616688]$GPGLL,5355.78506,N,02729.48279,E,054016.00,A,A*6B

[1499589617687]$GPRMC,054017.00,A,5355.78470,N,02729.48290,E,1.419,159.66,090717,,,A*62

[1499589617687]$GPVTG,159.66,T,,M,1.419,N,2.629,K,A*32

[1499589617687]$GPGGA,054017.00,5355.78470,N,02729.48290,E,1,11,1.05,212.1,M,25.0,M,,*5B

[1499589617687]$GPGSA,A,3,10,24,01,17,13,19,11,18,28,15,12,,2.30,1.05,2.04*0F

[1499589617687]$GPGSV,3,1,12,01,14,041,32,10,13,319,31,11,08,028,09,12,21,242,21*7E

[1499589617687]$GPGSV,3,2,12,13,35,181,31,15,48,232,36,17,53,099,36,18,11,293,31*7D

[1499589617687]$GPGSV,3,3,12,19,46,140,38,24,49,289,35,28,30,064,32,30,03,112,19*70

[1499589617687]$GPGLL,5355.78470,N,02729.48290,E,054017.00,A,A*6D

[1499589618700]$GPRMC,054018.00,A,5355.78427,N,02729.48247,E,2.265,175.61,090717,,,A*62

[1499589618700]$GPVTG,175.61,T,,M,2.265,N,4.194,K,A*32

[1499589618700]$GPGGA,054018.00,5355.78427,N,02729.48247,E,1,11,0.95,211.7,M,25.0,M,,*51

[1499589618700]$GPGSA,A,3,10,24,01,17,13,19,11,18,28,15,12,,2.07,0.95,1.84*08

[1499589618700]$GPGSV,3,1,12,01,14,041,32,10,13,319,34,11,08,028,09,12,21,242,20*7A

[1499589618700]$GPGSV,3,2,12,13,35,181,37,15,48,232,37,17,53,099,42,18,11,293,31*79

[1499589618700]$GPGSV,3,3,12,19,46,140,40,24,49,289,33,28,30,064,26,30,03,112,18*7D

[1499589618700]$GPGLL,5355.78427,N,02729.48247,E,054018.00,A,A*6A

[1499589619688]$GPRMC,054019.00,A,5355.78361,N,02729.48227,E,2.617,181.38,090717,,,A*66

[1499589619688]$GPVTG,181.38,T,,M,2.617,N,4.847,K,A*33

[1499589619688]$GPGGA,054019.00,5355.78361,N,02729.48227,E,1,11,0.95,212.0,M,25.0,M,,*57

[1499589619688]$GPGSA,A,3,10,24,01,17,13,19,11,18,28,15,12,,2.07,0.95,1.84*08

[1499589619688]$GPGSV,3,1,12,01,14,041,31,10,13,319,30,11,08,028,09,12,21,242,18*76

[1499589619688]$GPGSV,3,2,12,13,35,181,34,15,48,232,32,17,53,099,34,18,11,293,31*7E

[1499589619688]$GPGSV,3,3,12,19,46,140,37,24,49,289,29,28,30,064,27,30,03,112,19*76

[1499589619688]$GPGLL,5355.78361,N,02729.48227,E,054019.00,A,A*68

[1499589620687]$GPRMC,054020.00,A,5355.78273,N,02729.48188,E,2.986,185.69,090717,,,A*6F

[1499589620687]$GPVTG,185.69,T,,M,2.986,N,5.530,K,A*38

[1499589620687]$GPGGA,054020.00,5355.78273,N,02729.48188,E,1,11,0.93,211.8,M,25.0,M,,*54

[1499589620687]$GPGSA,A,3,10,24,01,17,13,19,11,18,28,15,12,,1.98,0.93,1.75*05

[1499589620687]$GPGSV,3,1,12,01,14,041,26,10,13,319,29,11,08,028,07,12,21,242,19*77

[1499589620687]$GPGSV,3,2,12,13,35,181,30,15,48,232,27,17,53,099,40,18,11,293,35*79

[1499589620687]$GPGSV,3,3,12,19,46,140,37,24,49,289,33,28,30,064,32,30,03,112,19*79

[1499589620687]$GPGLL,5355.78273,N,02729.48188,E,054020.00,A,A*66

[1499589621687]$GPRMC,054021.00,A,5355.78178,N,02729.48159,E,3.198,186.92,090717,,,A*6B

[1499589621687]$GPVTG,186.92,T,,M,3.198,N,5.922,K,A*36

[1499589621687]$GPGGA,054021.00,5355.78178,N,02729.48159,E,1,11,0.93,211.4,M,25.0,M,,*5D

[1499589621687]$GPGSA,A,3,10,24,01,17,13,19,11,18,28,15,12,,1.98,0.93,1.75*05

[1499589621687]$GPGSV,3,1,12,01,14,041,31,10,13,319,34,11,08,028,07,12,21,242,19*7D

[1499589621687]$GPGSV,3,2,12,13,35,181,31,15,48,232,26,17,53,099,40,18,11,293,28*75

[1499589621687]$GPGSV,3,3,12,19,46,140,37,24,49,289,18,28,30,064,31,30,03,112,20*79

[1499589621687]$GPGLL,5355.78178,N,02729.48159,E,054021.00,A,A*63

[1499589622689]$GPRMC,054022.00,A,5355.78074,N,02729.48138,E,3.359,185.57,090717,,,A*67

[1499589622689]$GPVTG,185.57,T,,M,3.359,N,6.221,K,A*38

[1499589622689]$GPGGA,054022.00,5355.78074,N,02729.48138,E,1,11,0.95,211.2,M,25.0,M,,*54

[1499589622689]$GPGSA,A,3,10,24,01,17,13,19,11,18,28,15,12,,2.07,0.95,1.84*08

[1499589622689]$GPGSV,3,1,12,01,14,041,35,10,13,319,33,11,08,028,07,12,21,242,18*7F

[1499589622689]$GPGSV,3,2,12,13,35,181,30,15,48,232,33,17,53,099,39,18,11,293,26*70

[1499589622689]$GPGSV,3,3,12,19,46,140,38,24,49,289,29,28,30,064,35,30,03,112,20*70

[1499589622689]$GPGLL,5355.78074,N,02729.48138,E,054022.00,A,A*6A

[1499589623692]$GPRMC,054023.00,A,5355.77966,N,02729.48143,E,3.769,177.86,090717,,,A*69

[1499589623692]$GPVTG,177.86,T,,M,3.769,N,6.980,K,A*3E

[1499589623692]$GPGGA,054023.00,5355.77966,N,02729.48143,E,1,11,0.93,211.0,M,25.0,M,,*58

[1499589623692]$GPGSA,A,3,10,24,01,17,13,19,11,18,28,15,12,,1.98,0.93,1.75*05

[1499589623692]$GPGSV,3,1,12,01,14,041,32,10,13,319,32,11,08,028,07,12,21,242,18*79

[1499589623692]$GPGSV,3,2,12,13,35,181,28,15,48,232,26,17,53,099,40,18,11,293,26*73

[1499589623692]$GPGSV,3,3,12,19,46,140,36,24,49,289,21,28,30,064,34,30,03,112,20*77

[1499589623692]$GPGLL,5355.77966,N,02729.48143,E,054023.00,A,A*62

[1499589624697]$GPRMC,054024.00,A,5355.77832,N,02729.48205,E,5.156,167.89,090717,,,A*6D

[1499589624697]$GPVTG,167.89,T,,M,5.156,N,9.549,K,A*3A

[1499589624697]$GPGGA,054024.00,5355.77832,N,02729.48205,E,1,11,0.93,211.0,M,25.0,M,,*5E

[1499589624697]$GPGSA,A,3,10,24,01,17,13,19,11,18,28,15,12,,1.98,0.93,1.75*05

[1499589624697]$GPGSV,3,1,12,01,14,041,32,10,13,319,29,11,08,028,07,12,21,242,19*72

[1499589624697]$GPGSV,3,2,12,13,35,181,36,15,48,232,32,17,53,099,29,18,11,293,24*74

[1499589624697]$GPGSV,3,3,12,19,46,140,38,24,49,289,27,28,30,064,24,30,03,112,21*7F

[1499589624697]$GPGLL,5355.77832,N,02729.48205,E,054024.00,A,A*64

[1499589625687]$GPRMC,054025.00,A,5355.77671,N,02729.48320,E,5.858,154.49,090717,,,A*68

[1499589625687]$GPVTG,154.49,T,,M,5.858,N,10.849,K,A*04

[1499589625687]$GPGGA,054025.00,5355.77671,N,02729.48320,E,1,11,0.93,209.9,M,25.0,M,,*50

[1499589625687]$GPGSA,A,3,10,24,01,17,13,19,11,18,28,15,12,,1.98,0.93,1.75*05

[1499589625687]$GPGSV,3,1,12,01,14,041,28,10,13,319,35,11,08,028,07,12,21,242,18*75

[1499589625687]$GPGSV,3,2,12,13,35,181,40,15,48,232,38,17,53,099,42,18,11,293,21*77

[1499589625687]$GPGSV,3,3,12,19,46,140,38,24,49,289,33,28,30,064,25,30,03,112,22*78

[1499589625687]$GPGLL,5355.77671,N,02729.48320,E,054025.00,A,A*6A

[1499589626687]$GPRMC,054026.00,A,5355.77549,N,02729.48485,E,5.479,147.39,090717,,,A*61

[1499589626687]$GPVTG,147.39,T,,M,5.479,N,10.146,K,A*08

[1499589626687]$GPGGA,054026.00,5355.77549,N,02729.48485,E,1,11,0.93,209.8,M,25.0,M,,*52

[1499589626687]$GPGSA,A,3,10,24,01,17,13,19,11,18,28,15,12,,1.98,0.93,1.75*05

[1499589626687]$GPGSV,3,1,12,01,14,041,29,10,13,319,25,11,08,028,08,12,21,242,19*7B

[1499589626687]$GPGSV,3,2,12,13,35,181,29,15,48,232,35,17,53,099,37,18,11,293,17*72

[1499589626687]$GPGSV,3,3,12,19,46,140,37,24,49,289,33,28,30,064,31,30,03,112,21*71

[1499589626687]$GPGLL,5355.77549,N,02729.48485,E,054026.00,A,A*69

[1499589627689]$GPRMC,054027.00,A,5355.77475,N,02729.48682,E,4.555,131.76,090717,,,A*6F

[1499589627689]$GPVTG,131.76,T,,M,4.555,N,8.436,K,A*37

[1499589627689]$GPGGA,054027.00,5355.77475,N,02729.48682,E,1,11,0.93,209.7,M,25.0,M,,*57

[1499589627689]$GPGSA,A,3,10,24,01,17,13,19,11,18,28,15,12,,1.98,0.93,1.75*05

[1499589627689]$GPGSV,3,1,12,01,14,041,29,10,13,319,22,11,08,028,08,12,21,242,34*73

[1499589627689]$GPGSV,3,2,12,13,35,181,38,15,48,232,36,17,53,099,39,18,11,293,18*70

[1499589627689]$GPGSV,3,3,12,19,46,140,30,24,49,289,33,28,30,064,31,30,03,112,21*76

[1499589627689]$GPGLL,5355.77475,N,02729.48682,E,054027.00,A,A*63

[1499589628687]$GPRMC,054028.00,A,5355.77414,N,02729.48832,E,3.952,125.82,090717,,,A*60

[1499589628687]$GPVTG,125.82,T,,M,3.952,N,7.319,K,A*30

[1499589628687]$GPGGA,054028.00,5355.77414,N,02729.48832,E,1,11,0.95,210.1,M,25.0,M,,*52

[1499589628687]$GPGSA,A,3,10,24,01,17,13,19,11,18,28,15,12,,2.07,0.95,1.84*08

[1499589628687]$GPGSV,3,1,12,01,14,041,33,10,13,319,25,11,08,028,08,12,21,242,31*7A

[1499589628687]$GPGSV,3,2,12,13,35,181,36,15,48,232,28,17,53,099,41,18,11,293,18*7E

[1499589628687]$GPGSV,3,3,12,19,46,140,33,24,49,289,33,28,30,064,30,30,03,112,21*74

[1499589628687]$GPGLL,5355.77414,N,02729.48832,E,054028.00,A,A*6E

[1499589629687]$GPRMC,054029.00,A,5355.77354,N,02729.48984,E,3.790,121.71,090717,,,A*66

[1499589629687]$GPVTG,121.71,T,,M,3.790,N,7.019,K,A*3B

[1499589629687]$GPGGA,054029.00,5355.77354,N,02729.48984,E,1,11,0.93,209.7,M,25.0,M,,*54

[1499589629687]$GPGSA,A,3,10,24,01,17,13,19,11,18,28,15,12,,1.98,0.93,1.75*05

[1499589629687]$GPGSV,3,1,12,01,14,041,31,10,13,319,26,11,08,028,08,12,21,242,25*7E

[1499589629687]$GPGSV,3,2,12,13,35,181,37,15,48,232,27,17,53,099,37,18,11,293,18*71

[1499589629687]$GPGSV,3,3,12,19,46,140,33,24,49,289,34,28,30,064,24,30,03,112,20*77

[1499589629687]$GPGLL,5355.77354,N,02729.48984,E,054029.00,A,A*60

[1499589630687]$GPRMC,054030.00,A,5355.77320,N,02729.49124,E,3.037,117.07,090717,,,A*60

[1499589630687]$GPVTG,117.07,T,,M,3.037,N,5.625,K,A*3E

[1499589630687]$GPGGA,054030.00,5355.77320,N,02729.49124,E,1,11,0.93,209.5,M,25.0,M,,*5E

[1499589630687]$GPGSA,A,3,10,24,01,17,13,19,11,18,28,15,12,,1.98,0.93,1.75*05

[1499589630687]$GPGSV,3,1,12,01,14,041,26,10,13,319,24,11,08,028,08,12,21,242,31*7F

[1499589630687]$GPGSV,3,2,12,13,35,181,35,15,48,232,29,17,53,099,35,18,11,293,20*74

[1499589630687]$GPGSV,3,3,12,19,46,140,28,24,49,289,31,28,30,064,27,30,03,112,18*70

[1499589630687]$GPGLL,5355.77320,N,02729.49124,E,054030.00,A,A*68

[1499589631691]$GPRMC,054031.00,A,5355.77297,N,02729.49268,E,3.105,111.30,090717,,,A*65

[1499589631691]$GPVTG,111.30,T,,M,3.105,N,5.750,K,A*3F

[1499589631691]$GPGGA,054031.00,5355.77297,N,02729.49268,E,1,11,0.95,209.5,M,25.0,M,,*5F

[1499589631691]$GPGSA,A,3,10,24,01,17,13,19,11,18,28,15,12,,2.04,0.95,1.80*0F

[1499589631691]$GPGSV,3,1,12,01,14,041,27,10,13,319,31,11,08,028,08,12,21,242,30*7B

[1499589631691]$GPGSV,3,2,12,13,35,181,33,15,48,232,32,17,53,099,33,18,11,293,29*77

[1499589631691]$GPGSV,3,3,12,19,46,140,27,24,49,289,26,28,30,064,28,30,03,112,17*79

[1499589631691]$GPGLL,5355.77297,N,02729.49268,E,054031.00,A,A*6F

[1499589632687]$GPRMC,054032.00,A,5355.77269,N,02729.49388,E,2.629,111.93,090717,,,A*69

[1499589632687]$GPVTG,111.93,T,,M,2.629,N,4.868,K,A*3B

[1499589632687]$GPGGA,054032.00,5355.77269,N,02729.49388,E,1,11,0.95,209.8,M,25.0,M,,*5F

[1499589632687]$GPGSA,A,3,10,24,01,17,13,19,11,18,28,15,12,,2.04,0.95,1.80*0F

[1499589632687]$GPGSV,3,1,12,01,14,041,26,10,13,319,33,11,08,028,11,12,21,242,22*73

[1499589632687]$GPGSV,3,2,12,13,35,181,17,15,48,232,28,17,53,099,36,18,11,293,28*7E

[1499589632687]$GPGSV,3,3,12,19,46,140,31,24,49,289,37,28,30,064,29,30,03,112,16*7E

[1499589632687]$GPGLL,5355.77269,N,02729.49388,E,054032.00,A,A*62

[1499589633688]$GPRMC,054033.00,A,5355.77239,N,02729.49492,E,0.704,,090717,,,A*78

[1499589633688]$GPVTG,,T,,M,0.704,N,1.304,K,A*26

[1499589633688]$GPGGA,054033.00,5355.77239,N,02729.49492,E,1,11,0.93,208.0,M,25.0,M,,*58

[1499589633688]$GPGSA,A,3,10,24,01,17,13,19,11,18,28,15,12,,1.98,0.93,1.75*05

[1499589633688]$GPGSV,3,1,12,01,14,041,24,10,13,319,27,11,08,028,11,12,21,242,34*73

[1499589633688]$GPGSV,3,2,12,13,35,181,35,15,48,232,33,17,53,099,37,18,11,293,27*7A

[1499589633688]$GPGSV,3,3,12,19,46,140,34,24,49,289,39,28,30,064,28,30,03,112,15*77

[1499589633688]$GPGLL,5355.77239,N,02729.49492,E,054033.00,A,A*6A

[1499589634700]$GPRMC,054034.00,A,5355.77231,N,02729.49533,E,0.168,,090717,,,A*71

[1499589634700]$GPVTG,,T,,M,0.168,N,0.311,K,A*2F

[1499589634700]$GPGGA,054034.00,5355.77231,N,02729.49533,E,1,11,0.93,207.3,M,25.0,M,,*51

[1499589634700]$GPGSA,A,3,10,24,01,17,13,19,11,18,28,15,12,,1.98,0.93,1.75*05

[1499589634700]$GPGSV,3,1,12,01,14,041,22,10,13,319,27,11,08,028,11,12,21,242,34*75

[1499589634700]$GPGSV,3,2,12,13,35,181,34,15,48,232,33,17,53,099,37,18,11,293,27*7B

[1499589634700]$GPGSV,3,3,12,19,46,140,34,24,49,289,39,28,30,064,17,30,03,112,15*7B

[1499589634700]$GPGLL,5355.77231,N,02729.49533,E,054034.00,A,A*6F

[1499589635689]$GPRMC,054035.00,A,5355.77228,N,02729.49554,E,0.174,,090717,,,A*74

[1499589635689]$GPVTG,,T,,M,0.174,N,0.321,K,A*21

[1499589635689]$GPGGA,054035.00,5355.77228,N,02729.49554,E,1,11,0.93,206.9,M,25.0,M,,*52

[1499589635689]$GPGSA,A,3,10,24,01,17,13,19,11,18,28,15,12,,1.98,0.93,1.75*05

[1499589635689]$GPGSV,3,1,12,01,14,041,20,10,13,319,26,11,08,028,11,12,21,242,34*76

[1499589635689]$GPGSV,3,2,12,13,35,181,36,15,48,232,33,17,53,099,37,18,11,293,27*79

[1499589635689]$GPGSV,3,3,12,19,46,140,33,24,49,289,39,28,30,064,21,30,03,112,14*78

[1499589635689]$GPGLL,5355.77228,N,02729.49554,E,054035.00,A,A*67

[1499589636687]$GPRMC,054036.00,A,5355.77233,N,02729.49558,E,0.178,,090717,,,A*7D

[1499589636687]$GPVTG,,T,,M,0.178,N,0.330,K,A*2D

[1499589636687]$GPGGA,054036.00,5355.77233,N,02729.49558,E,1,11,0.93,206.8,M,25.0,M,,*56

[1499589636687]$GPGSA,A,3,10,24,01,17,13,19,11,18,28,15,12,,1.98,0.93,1.75*05

[1499589636687]$GPGSV,3,1,12,01,14,041,19,10,13,319,26,11,08,028,11,12,21,242,36*7E

[1499589636687]$GPGSV,3,2,12,13,35,181,35,15,48,232,29,17,53,099,36,18,11,293,28*7F

[1499589636687]$GPGSV,3,3,12,19,46,140,32,24,49,289,40,28,30,064,22,30,03,112,12*72

[1499589636687]$GPGLL,5355.77233,N,02729.49558,E,054036.00,A,A*62

[1499589637687]$GPRMC,054037.00,A,5355.77233,N,02729.49578,E,0.059,,090717,,,A*7C

[1499589637687]$GPVTG,,T,,M,0.059,N,0.109,K,A*27

[1499589637687]$GPGGA,054037.00,5355.77233,N,02729.49578,E,1,11,0.93,206.9,M,25.0,M,,*54

[1499589637687]$GPGSA,A,3,10,24,01,17,13,19,11,18,28,15,12,,1.98,0.93,1.75*05

[1499589637687]$GPGSV,3,1,12,01,14,041,17,10,13,319,27,11,08,028,11,12,21,242,35*72

[1499589637687]$GPGSV,3,2,12,13,35,181,36,15,48,232,28,17,53,099,37,18,11,293,28*7C

[1499589637687]$GPGSV,3,3,12,19,46,140,31,24,49,289,40,28,30,064,25,30,03,112,13*77

[1499589637687]$GPGLL,5355.77233,N,02729.49578,E,054037.00,A,A*61

[1499589638687]$GPRMC,054038.00,A,5355.77236,N,02729.49577,E,0.056,,090717,,,A*76

[1499589638687]$GPVTG,,T,,M,0.056,N,0.103,K,A*22

[1499589638687]$GPGGA,054038.00,5355.77236,N,02729.49577,E,1,11,0.93,207.2,M,25.0,M,,*5B

[1499589638687]$GPGSA,A,3,10,24,01,17,13,19,11,18,28,15,12,,1.98,0.93,1.75*05

[1499589638687]$GPGSV,3,1,12,01,14,040,15,10,13,319,29,11,08,028,12,12,21,242,35*7C

[1499589638687]$GPGSV,3,2,12,13,35,181,35,15,48,232,30,17,53,099,36,18,11,293,28*77

[1499589638687]$GPGSV,3,3,12,19,46,140,32,24,49,289,40,28,30,064,27,30,03,112,13*76

[1499589638687]$GPGLL,5355.77236,N,02729.49577,E,054038.00,A,A*64

[1499589639691]$GPRMC,054039.00,A,5355.77235,N,02729.49578,E,0.052,,090717,,,A*7F

[1499589639691]$GPVTG,,T,,M,0.052,N,0.096,K,A*2B

[1499589639691]$GPGGA,054039.00,5355.77235,N,02729.49578,E,1,11,0.93,207.4,M,25.0,M,,*50

[1499589639691]$GPGSA,A,3,10,24,01,17,13,19,11,18,28,15,12,,1.98,0.93,1.75*05

[1499589639691]$GPGSV,3,1,12,01,14,040,14,10,13,319,28,11,08,028,12,12,21,242,33*7A

[1499589639691]$GPGSV,3,2,12,13,35,181,35,15,48,232,33,17,53,099,36,18,11,293,28*74

[1499589639691]$GPGSV,3,3,12,19,46,140,31,24,49,289,41,28,30,064,27,30,03,112,14*73

[1499589639691]$GPGLL,5355.77235,N,02729.49578,E,054039.00,A,A*69

[1499589640687]$GPRMC,054040.00,A,5355.77235,N,02729.49586,E,0.025,,090717,,,A*70

[1499589640687]$GPVTG,,T,,M,0.025,N,0.046,K,A*26

[1499589640687]$GPGGA,054040.00,5355.77235,N,02729.49586,E,1,11,0.93,207.5,M,25.0,M,,*5E

[1499589640687]$GPGSA,A,3,10,24,01,17,13,19,11,18,28,15,12,,1.98,0.93,1.74*04

[1499589640687]$GPGSV,3,1,12,01,14,040,18,10,13,319,26,11,08,028,12,12,21,242,34*7F

[1499589640687]$GPGSV,3,2,12,13,35,181,35,15,48,232,32,17,53,099,37,18,11,293,28*74

[1499589640687]$GPGSV,3,3,12,19,46,140,32,24,49,289,40,28,30,064,25,30,03,112,15*72

[1499589640687]$GPGLL,5355.77235,N,02729.49586,E,054040.00,A,A*66

[1499589641688]$GPRMC,054041.00,A,5355.77233,N,02729.49589,E,0.032,,090717,,,A*7E

[1499589641688]$GPVTG,,T,,M,0.032,N,0.059,K,A*2E

[1499589641688]$GPGGA,054041.00,5355.77233,N,02729.49589,E,1,11,0.93,207.6,M,25.0,M,,*55

[1499589641688]$GPGSA,A,3,10,24,01,17,13,19,11,18,28,15,12,,1.98,0.93,1.74*04

[1499589641688]$GPGSV,3,1,12,01,14,040,20,10,13,319,26,11,08,028,12,12,21,242,34*74

[1499589641688]$GPGSV,3,2,12,13,35,181,35,15,48,232,32,17,53,099,35,18,11,293,28*76

[1499589641688]$GPGSV,3,3,12,19,46,140,32,24,49,289,40,28,30,064,26,30,03,112,14*70

[1499589641688]$GPGLL,5355.77233,N,02729.49589,E,054041.00,A,A*6E

[1499589642689]$GPRMC,054042.00,A,5355.77232,N,02729.49594,E,0.054,,090717,,,A*70

[1499589642689]$GPVTG,,T,,M,0.054,N,0.101,K,A*22

[1499589642689]$GPGGA,054042.00,5355.77232,N,02729.49594,E,1,11,0.93,207.9,M,25.0,M,,*54

[1499589642689]$GPGSA,A,3,10,24,01,17,13,19,11,18,28,15,12,,1.98,0.93,1.74*04

[1499589642689]$GPGSV,3,1,12,01,14,040,19,10,13,319,26,11,08,028,13,12,21,242,34*7F

[1499589642689]$GPGSV,3,2,12,13,35,181,35,15,48,232,33,17,53,099,38,18,11,293,28*7A

[1499589642689]$GPGSV,3,3,12,19,46,140,33,24,49,289,40,28,30,064,25,30,03,112,13*75

[1499589642689]$GPGLL,5355.77232,N,02729.49594,E,054042.00,A,A*60

[1499589643687]$GPRMC,054043.00,A,5355.77231,N,02729.49602,E,0.063,,090717,,,A*7A

[1499589643687]$GPVTG,,T,,M,0.063,N,0.118,K,A*2E

[1499589643687]$GPGGA,054043.00,5355.77231,N,02729.49602,E,1,11,0.95,207.9,M,25.0,M,,*5C

[1499589643687]$GPGSA,A,3,10,24,01,17,13,19,11,18,28,15,12,,2.07,0.95,1.84*08

[1499589643687]$GPGSV,3,1,12,01,14,040,18,10,13,319,30,11,08,028,13,12,21,242,30*7D

[1499589643687]$GPGSV,3,2,12,13,35,181,33,15,48,232,32,17,53,099,36,18,11,293,28*73

[1499589643687]$GPGSV,3,3,12,19,46,140,35,24,49,289,40,28,30,064,26,30,03,112,13*70

[1499589643687]$GPGLL,5355.77231,N,02729.49602,E,054043.00,A,A*6E

[1499589644687]$GPRMC,054044.00,A,5355.77230,N,02729.49612,E,0.066,,090717,,,A*78

[1499589644687]$GPVTG,,T,,M,0.066,N,0.121,K,A*21

[1499589644687]$GPGGA,054044.00,5355.77230,N,02729.49612,E,1,11,0.93,207.9,M,25.0,M,,*5D

[1499589644687]$GPGSA,A,3,10,24,01,17,13,19,11,18,28,15,12,,1.97,0.93,1.74*0B

[1499589644687]$GPGSV,3,1,12,01,14,040,18,10,13,319,29,11,08,028,11,12,21,242,33*74

[1499589644687]$GPGSV,3,2,12,13,35,181,35,15,48,232,34,17,53,099,36,18,11,293,26*7D

[1499589644687]$GPGSV,3,3,12,19,46,140,32,24,49,289,40,28,30,064,30,30,03,112,11*72

[1499589644687]$GPGLL,5355.77230,N,02729.49612,E,054044.00,A,A*69

[1499589645687]$GPRMC,054045.00,A,5355.77234,N,02729.49636,E,0.057,,090717,,,A*79

[1499589645687]$GPVTG,,T,,M,0.057,N,0.105,K,A*25

[1499589645687]$GPGGA,054045.00,5355.77234,N,02729.49636,E,1,11,0.95,208.1,M,25.0,M,,*5F

[1499589645687]$GPGSA,A,3,10,24,01,17,13,19,11,18,28,15,12,,2.07,0.95,1.84*08

[1499589645687]$GPGSV,3,1,12,01,14,040,18,10,13,319,33,11,08,028,11,12,21,242,29*74

[1499589645687]$GPGSV,3,2,12,13,35,181,32,15,48,232,35,17,53,099,39,18,11,293,26*74

[1499589645687]$GPGSV,3,3,12,19,46,140,33,24,49,289,40,28,30,064,25,30,03,112,09*7E

[1499589645687]$GPGLL,5355.77234,N,02729.49636,E,054045.00,A,A*6A

[1499589646689]$GPRMC,054046.00,A,5355.77237,N,02729.49648,E,0.017,,090717,,,A*74

[1499589646689]$GPVTG,,T,,M,0.017,N,0.031,K,A*27

[1499589646689]$GPGGA,054046.00,5355.77237,N,02729.49648,E,1,11,0.95,207.8,M,25.0,M,,*50

[1499589646689]$GPGSA,A,3,10,24,01,17,13,19,11,18,28,15,12,,2.07,0.95,1.84*08

[1499589646689]$GPGSV,3,1,12,01,14,040,19,10,13,318,33,11,08,028,11,12,21,242,34*78

[1499589646689]$GPGSV,3,2,12,13,35,181,34,15,48,232,35,17,53,099,37,18,11,293,24*7E

[1499589646689]$GPGSV,3,3,12,19,46,140,34,24,49,289,39,28,30,064,27,30,03,112,08*74

[1499589646689]$GPGLL,5355.77237,N,02729.49648,E,054046.00,A,A*63

[1499589647687]$GPRMC,054047.00,A,5355.77238,N,02729.49661,E,0.028,,090717,,,A*7D

[1499589647687]$GPVTG,,T,,M,0.028,N,0.052,K,A*2E

[1499589647687]$GPGGA,054047.00,5355.77238,N,02729.49661,E,1,11,0.95,207.4,M,25.0,M,,*59

[1499589647687]$GPGSA,A,3,10,24,01,17,13,19,11,18,28,15,12,,2.07,0.95,1.84*08

[1499589647687]$GPGSV,3,1,12,01,14,040,19,10,13,318,32,11,07,028,11,12,21,242,33*71

[1499589647687]$GPGSV,3,2,12,13,35,181,33,15,48,232,35,17,53,099,37,18,11,293,24*79

[1499589647687]$GPGSV,3,3,12,19,46,140,33,24,49,289,39,28,30,064,27,30,03,112,08*73

[1499589647687]$GPGLL,5355.77238,N,02729.49661,E,054047.00,A,A*66

[1499589648687]$GPRMC,054048.00,A,5355.77241,N,02729.49678,E,0.023,,090717,,,A*7F

[1499589648687]$GPVTG,,T,,M,0.023,N,0.042,K,A*24

[1499589648687]$GPGGA,054048.00,5355.77241,N,02729.49678,E,1,11,0.95,207.0,M,25.0,M,,*54

[1499589648687]$GPGSA,A,3,10,24,01,17,13,19,11,18,28,15,12,,2.07,0.95,1.84*08

[1499589648687]$GPGSV,3,1,12,01,14,040,18,10,13,318,33,11,07,028,11,12,21,242,32*70

[1499589648687]$GPGSV,3,2,12,13,35,181,34,15,48,232,36,17,53,099,37,18,11,293,24*7D

[1499589648687]$GPGSV,3,3,12,19,46,140,33,24,49,289,39,28,30,064,27,30,03,112,08*73

[1499589648687]$GPGLL,5355.77241,N,02729.49678,E,054048.00,A,A*6F

[1499589649687]$GPRMC,054049.00,A,5355.77242,N,02729.49689,E,0.010,,090717,,,A*73

[1499589649687]$GPVTG,,T,,M,0.010,N,0.019,K,A*2A

[1499589649687]$GPGGA,054049.00,5355.77242,N,02729.49689,E,1,10,0.95,206.6,M,25.0,M,,*5E

[1499589649687]$GPGSA,A,3,10,24,01,17,13,19,18,28,15,12,,,2.07,0.95,1.84*08

[1499589649687]$GPGSV,3,1,12,01,14,040,18,10,13,318,33,11,07,028,,12,21,242,33*71

[1499589649687]$GPGSV,3,2,12,13,35,181,35,15,48,232,36,17,53,099,36,18,11,293,24*7D

[1499589649687]$GPGSV,3,3,12,19,46,140,34,24,49,289,39,28,30,064,27,30,03,112,08*74

[1499589649687]$GPGLL,5355.77242,N,02729.49689,E,054049.00,A,A*63

[1499589650689]$GPRMC,054050.00,A,5355.77244,N,02729.49700,E,0.006,,090717,,,A*7A

[1499589650689]$GPVTG,,T,,M,0.006,N,0.011,K,A*25

[1499589650689]$GPGGA,054050.00,5355.77244,N,02729.49700,E,1,10,0.95,206.3,M,25.0,M,,*55

[1499589650689]$GPGSA,A,3,10,24,01,17,13,19,18,28,15,12,,,2.07,0.95,1.84*08

[1499589650689]$GPGSV,3,1,12,01,14,040,19,10,13,318,34,11,07,028,,12,21,242,32*76

[1499589650689]$GPGSV,3,2,12,13,35,181,34,15,48,232,36,17,53,099,36,18,11,293,24*7C

[1499589650689]$GPGSV,3,3,12,19,46,140,33,24,49,289,38,28,30,064,26,30,03,112,06*7D

[1499589650689]$GPGLL,5355.77244,N,02729.49700,E,054050.00,A,A*6D

[1499589651687]$GPRMC,054051.00,A,5355.77246,N,02729.49710,E,0.049,,090717,,,A*73

[1499589651687]$GPVTG,,T,,M,0.049,N,0.091,K,A*26

[1499589651687]$GPGGA,054051.00,5355.77246,N,02729.49710,E,1,10,0.95,206.0,M,25.0,M,,*54

[1499589651687]$GPGSA,A,3,10,24,01,17,13,19,18,28,15,12,,,2.07,0.95,1.84*08

[1499589651687]$GPGSV,3,1,12,01,14,040,18,10,13,318,34,11,07,028,,12,21,242,32*77

[1499589651687]$GPGSV,3,2,12,13,35,181,34,15,48,232,36,17,53,099,36,18,11,293,23*7B

[1499589651687]$GPGSV,3,3,12,19,46,140,34,24,49,289,38,28,30,064,27,30,03,112,06*7B

[1499589651687]$GPGLL,5355.77246,N,02729.49710,E,054051.00,A,A*6F

[1499589652688]$GPRMC,054052.00,A,5355.77247,N,02729.49725,E,0.021,,090717,,,A*79

[1499589652688]$GPVTG,,T,,M,0.021,N,0.039,K,A*2A

[1499589652688]$GPGGA,054052.00,5355.77247,N,02729.49725,E,1,10,0.95,205.7,M,25.0,M,,*54

[1499589652688]$GPGSA,A,3,10,24,01,17,13,19,18,28,15,12,,,2.07,0.95,1.84*08

[1499589652688]$GPGSV,3,1,12,01,14,040,18,10,13,318,33,11,07,028,,12,21,242,33*71

[1499589652688]$GPGSV,3,2,12,13,35,181,35,15,48,232,36,17,53,099,37,18,11,293,22*7A

[1499589652688]$GPGSV,3,3,12,19,46,140,34,24,49,289,39,28,30,064,27,30,03,112,07*7B

[1499589652688]$GPGLL,5355.77247,N,02729.49725,E,054052.00,A,A*6B

[1499589653687]$GPRMC,054053.00,A,5355.77249,N,02729.49738,E,0.030,,090717,,,A*7A

[1499589653687]$GPVTG,,T,,M,0.030,N,0.055,K,A*20

[1499589653687]$GPGGA,054053.00,5355.77249,N,02729.49738,E,1,10,0.95,205.5,M,25.0,M,,*55

[1499589653687]$GPGSA,A,3,10,24,01,17,13,19,18,28,15,12,,,2.07,0.95,1.84*08

[1499589653687]$GPGSV,3,1,12,01,14,040,19,10,13,318,33,11,07,028,,12,21,242,33*70

[1499589653687]$GPGSV,3,2,12,13,35,181,35,15,48,232,36,17,53,099,37,18,11,293,22*7A

[1499589653687]$GPGSV,3,3,12,19,46,140,35,24,49,289,39,28,30,064,27,30,03,112,07*7A

[1499589653687]$GPGLL,5355.77249,N,02729.49738,E,054053.00,A,A*68

[1499589654688]$GPRMC,054054.00,A,5355.77247,N,02729.49747,E,0.054,,090717,,,A*79

[1499589654688]$GPVTG,,T,,M,0.054,N,0.099,K,A*22

[1499589654688]$GPGGA,054054.00,5355.77247,N,02729.49747,E,1,10,0.95,205.4,M,25.0,M,,*55

[1499589654688]$GPGSA,A,3,10,24,01,17,13,19,18,28,15,12,,,2.07,0.95,1.84*08

[1499589654688]$GPGSV,3,1,12,01,14,040,19,10,13,318,37,11,07,028,,12,21,242,36*71

[1499589654688]$GPGSV,3,2,12,13,35,181,35,15,48,232,36,17,53,099,37,18,11,292,22*7B

[1499589654688]$GPGSV,3,3,12,19,46,140,34,24,49,289,39,28,30,064,27,30,03,112,07*7B

[1499589654688]$GPGLL,5355.77247,N,02729.49747,E,054054.00,A,A*69

[1499589655687]$GPRMC,054055.00,A,5355.77248,N,02729.49758,E,0.043,,090717,,,A*7F

[1499589655687]$GPVTG,,T,,M,0.043,N,0.080,K,A*2C

[1499589655687]$GPGGA,054055.00,5355.77248,N,02729.49758,E,1,10,0.95,205.3,M,25.0,M,,*52

[1499589655687]$GPGSA,A,3,10,24,01,17,13,19,18,28,15,12,,,2.07,0.95,1.84*08

[1499589655687]$GPGSV,3,1,12,01,14,040,22,10,13,318,33,11,07,028,,12,21,242,33*78

[1499589655687]$GPGSV,3,2,12,13,35,181,35,15,48,232,34,17,53,099,38,18,11,292,24*70

[1499589655687]$GPGSV,3,3,12,19,47,140,33,24,49,289,38,28,30,064,29,30,03,112,07*72

[1499589655687]$GPGLL,5355.77248,N,02729.49758,E,054055.00,A,A*69

[1499589656687]$GPRMC,054056.00,A,5355.77252,N,02729.49775,E,0.028,,090717,,,A*75

[1499589656687]$GPVTG,,T,,M,0.028,N,0.052,K,A*2E

