[1499590752238]‚ªªÊŠ’r‚‚bªšªªrºªªÊ‚b55AMAMY

[1499590752238]AMYAMYA119ÿ[1499590753236]$GPRMC,055913.00,A,5355.75588,N,02729.31161,E,0.053,,090717,,,A*7E

[1499590753236]$GPVTG,,T,,M,0.053,N,0.098,K,A*24

[1499590753236]$GPGGA,055913.00,5355.75588,N,02729.31161,E,1,10,0.90,209.4,M,25.0,M,,*5C

[1499590753236]$GPGSA,A,3,15,24,17,19,12,13,28,01,10,18,,,1.76,0.90,1.52*03

[1499590753236]$GPGSV,3,1,12,01,13,033,20,06,01,131,,10,12,311,25,11,03,023,16*7E

[1499590753236]$GPGSV,3,2,12,12,29,246,21,13,27,180,32,15,42,223,41,17,53,085,35*70

[1499590753236]$GPGSV,3,3,12,18,08,286,16,19,53,130,31,24,57,288,36,28,22,066,30*74

[1499590753236]$GPGLL,5355.75588,N,02729.31161,E,055913.00,A,A*69

[1499590754237]$GPRMC,055914.00,A,5355.75587,N,02729.31162,E,0.075,,090717,,,A*71

[1499590754237]$GPVTG,,T,,M,0.075,N,0.140,K,A*24

[1499590754237]$GPGGA,055914.00,5355.75587,N,02729.31162,E,1,10,0.90,209.5,M,25.0,M,,*56

[1499590754237]$GPGSA,A,3,15,24,17,19,12,13,28,01,10,18,,,1.76,0.90,1.52*03

[1499590754237]$GPGSV,3,1,12,01,13,033,21,06,01,131,,10,12,311,25,11,03,023,16*7F

[1499590754237]$GPGSV,3,2,12,12,29,246,22,13,27,180,32,15,42,223,41,17,53,085,34*72

[1499590754237]$GPGSV,3,3,12,18,08,286,13,19,53,130,31,24,57,288,38,28,22,066,31*7E

[1499590754237]$GPGLL,5355.75587,N,02729.31162,E,055914.00,A,A*62

[1499590755236]$GPRMC,055915.00,A,5355.75585,N,02729.31168,E,0.100,,090717,,,A*7B

[1499590755236]$GPVTG,,T,,M,0.100,N,0.185,K,A*2E

[1499590755236]$GPGGA,055915.00,5355.75585,N,02729.31168,E,1,10,0.90,209.9,M,25.0,M,,*53

[1499590755236]$GPGSA,A,3,15,24,17,19,12,13,28,01,10,18,,,1.76,0.90,1.52*03

[1499590755236]$GPGSV,3,1,12,01,13,033,21,06,01,131,,10,12,311,26,11,03,023,17*7D

[1499590755236]$GPGSV,3,2,12,12,29,246,21,13,27,180,31,15,42,223,41,17,53,085,34*72

[1499590755236]$GPGSV,3,3,12,18,08,286,14,19,53,130,32,24,57,288,38,28,22,066,31*7A

[1499590755236]$GPGLL,5355.75585,N,02729.31168,E,055915.00,A,A*6B

[1499590756236]$GPRMC,055916.00,A,5355.75584,N,02729.31173,E,0.015,,090717,,,A*76

[1499590756236]$GPVTG,,T,,M,0.015,N,0.027,K,A*22

[1499590756236]$GPGGA,055916.00,5355.75584,N,02729.31173,E,1,10,0.90,210.0,M,25.0,M,,*5A

[1499590756236]$GPGSA,A,3,15,24,17,19,12,13,28,01,10,18,,,1.76,0.90,1.52*03

[1499590756236]$GPGSV,3,1,12,01,13,033,20,06,01,131,,10,12,311,27,11,03,023,17*7D

[1499590756236]$GPGSV,3,2,12,12,29,246,21,13,27,180,30,15,42,223,41,17,53,085,34*73

[1499590756236]$GPGSV,3,3,12,18,08,286,15,19,53,130,31,24,57,288,37,28,22,066,31*77

[1499590756236]$GPGLL,5355.75584,N,02729.31173,E,055916.00,A,A*63

[1499590757237]$GPRMC,055917.00,A,5355.75581,N,02729.31175,E,0.029,,090717,,,A*7B

[1499590757237]$GPVTG,,T,,M,0.029,N,0.054,K,A*29

[1499590757237]$GPGGA,055917.00,5355.75581,N,02729.31175,E,1,10,0.90,210.2,M,25.0,M,,*5A

[1499590757237]$GPGSA,A,3,15,24,17,19,12,13,28,01,10,18,,,1.76,0.90,1.52*03

[1499590757237]$GPGSV,3,1,12,01,13,033,20,06,01,131,,10,12,311,26,11,03,023,18*73

[1499590757237]$GPGSV,3,2,12,12,29,246,21,13,27,180,29,15,42,223,41,17,53,085,34*7B

[1499590757237]$GPGSV,3,3,12,18,08,286,16,19,53,130,31,24,57,288,37,28,22,066,31*74

[1499590757237]$GPGLL,5355.75581,N,02729.31175,E,055917.00,A,A*61

[1499590758237]$GPRMC,055918.00,A,5355.75576,N,02729.31177,E,0.005,,090717,,,A*70

[1499590758237]$GPVTG,,T,,M,0.005,N,0.010,K,A*27

[1499590758237]$GPGGA,055918.00,5355.75576,N,02729.31177,E,1,10,0.90,210.4,M,25.0,M,,*59

[1499590758237]$GPGSA,A,3,15,24,17,19,12,13,28,01,10,18,,,1.76,0.90,1.51*00

[1499590758237]$GPGSV,3,1,12,01,13,033,19,06,01,131,,10,12,311,26,11,03,023,18*79

[1499590758237]$GPGSV,3,2,12,12,29,246,21,13,27,180,28,15,42,223,41,17,53,085,33*7D

[1499590758237]$GPGSV,3,3,12,18,08,286,17,19,53,130,31,24,57,288,37,28,22,066,31*75

[1499590758237]$GPGLL,5355.75576,N,02729.31177,E,055918.00,A,A*64

[1499590759239]$GPRMC,055919.00,A,5355.75570,N,02729.31178,E,0.031,,090717,,,A*7F

[1499590759239]$GPVTG,,T,,M,0.031,N,0.058,K,A*2C

[1499590759239]$GPGGA,055919.00,5355.75570,N,02729.31178,E,1,10,0.90,210.5,M,25.0,M,,*50

[1499590759239]$GPGSA,A,3,15,24,17,19,12,13,28,01,10,18,,,1.76,0.90,1.51*00

[1499590759239]$GPGSV,3,1,12,01,13,033,19,06,01,131,,10,12,311,26,11,03,023,18*79

[1499590759239]$GPGSV,3,2,12,12,29,246,20,13,27,180,27,15,42,223,41,17,53,085,33*73

[1499590759239]$GPGSV,3,3,12,18,08,286,16,19,53,130,31,24,57,288,37,28,22,066,31*74

[1499590759239]$GPGLL,5355.75570,N,02729.31178,E,055919.00,A,A*6C

[1499590760236]$GPRMC,055920.00,A,5355.75566,N,02729.31181,E,0.045,,090717,,,A*77

[1499590760236]$GPVTG,,T,,M,0.045,N,0.083,K,A*29

[1499590760236]$GPGGA,055920.00,5355.75566,N,02729.31181,E,1,10,0.90,210.6,M,25.0,M,,*58

[1499590760236]$GPGSA,A,3,15,24,17,19,12,13,28,01,10,18,,,1.76,0.90,1.51*00

[1499590760236]$GPGSV,3,1,12,01,13,033,20,06,01,131,,10,12,311,26,11,03,023,17*7C

[1499590760236]$GPGSV,3,2,12,12,29,246,19,13,27,180,27,15,42,223,41,17,53,085,33*79

[1499590760236]$GPGSV,3,3,12,18,08,286,17,19,53,130,31,24,57,288,37,28,22,066,31*75

[1499590760236]$GPGLL,5355.75566,N,02729.31181,E,055920.00,A,A*67

[1499590761236]$GPRMC,055921.00,A,5355.75562,N,02729.31183,E,0.051,,090717,,,A*75

[1499590761236]$GPVTG,,T,,M,0.051,N,0.095,K,A*2B

[1499590761236]$GPGGA,055921.00,5355.75562,N,02729.31183,E,1,10,0.90,210.9,M,25.0,M,,*50

[1499590761236]$GPGSA,A,3,15,24,17,19,12,13,28,01,10,18,,,1.76,0.90,1.51*00

[1499590761236]$GPGSV,3,1,12,01,13,033,19,06,01,131,,10,12,311,26,11,03,023,17*76

[1499590761236]$GPGSV,3,2,12,12,29,246,20,13,27,180,27,15,42,223,41,17,53,085,34*74

[1499590761236]$GPGSV,3,3,12,18,08,286,16,19,53,130,31,24,57,288,37,28,22,066,31*74

[1499590761236]$GPGLL,5355.75562,N,02729.31183,E,055921.00,A,A*60

[1499590762236]$GPRMC,055922.00,A,5355.75558,N,02729.31182,E,0.025,,090717,,,A*7D

[1499590762236]$GPVTG,,T,,M,0.025,N,0.047,K,A*27

[1499590762236]$GPGGA,055922.00,5355.75558,N,02729.31182,E,1,10,0.90,211.1,M,25.0,M,,*52

[1499590762236]$GPGSA,A,3,15,24,17,19,12,13,28,01,10,18,,,1.76,0.90,1.51*00

[1499590762236]$GPGSV,3,1,12,01,13,033,19,06,01,131,,10,12,311,26,11,03,023,17*76

[1499590762236]$GPGSV,3,2,12,12,29,246,20,13,27,180,27,15,42,223,41,17,53,085,33*73

[1499590762236]$GPGSV,3,3,12,18,08,286,15,19,53,130,31,24,57,288,37,28,22,066,32*74

[1499590762236]$GPGLL,5355.75558,N,02729.31182,E,055922.00,A,A*6B

[1499590763237]$GPRMC,055923.00,A,5355.75553,N,02729.31183,E,0.053,,090717,,,A*77

[1499590763237]$GPVTG,,T,,M,0.053,N,0.098,K,A*24

[1499590763237]$GPGGA,055923.00,5355.75553,N,02729.31183,E,1,10,0.90,211.3,M,25.0,M,,*5B

[1499590763237]$GPGSA,A,3,15,24,17,19,12,13,28,01,10,18,,,1.76,0.90,1.51*00

[1499590763237]$GPGSV,3,1,12,01,13,033,20,06,01,131,,10,12,311,26,11,03,023,18*73

[1499590763237]$GPGSV,3,2,12,12,29,246,21,13,27,180,27,15,42,223,41,17,53,085,33*72

[1499590763237]$GPGSV,3,3,12,18,08,286,15,19,53,130,31,24,57,288,37,28,22,066,32*74

[1499590763237]$GPGLL,5355.75553,N,02729.31183,E,055923.00,A,A*60

[1499590764236]$GPRMC,055924.00,A,5355.75547,N,02729.31182,E,0.057,,090717,,,A*70

[1499590764236]$GPVTG,,T,,M,0.057,N,0.106,K,A*26

[1499590764236]$GPGGA,055924.00,5355.75547,N,02729.31182,E,1,10,0.90,211.5,M,25.0,M,,*5E

[1499590764236]$GPGSA,A,3,15,24,17,19,12,13,28,01,10,18,,,1.76,0.90,1.51*00

[1499590764236]$GPGSV,3,1,12,01,13,033,20,06,01,131,,10,12,311,26,11,03,023,18*73

[1499590764236]$GPGSV,3,2,12,12,29,246,22,13,27,180,27,15,42,223,41,17,53,085,33*71

[1499590764236]$GPGSV,3,3,12,18,08,286,15,19,53,130,31,24,57,288,37,28,22,066,32*74

[1499590764236]$GPGLL,5355.75547,N,02729.31182,E,055924.00,A,A*63

[1499590765236]$GPRMC,055925.00,A,5355.75542,N,02729.31185,E,0.016,,090717,,,A*76

[1499590765236]$GPVTG,,T,,M,0.016,N,0.030,K,A*27

[1499590765236]$GPGGA,055925.00,5355.75542,N,02729.31185,E,1,10,0.90,211.9,M,25.0,M,,*51

[1499590765236]$GPGSA,A,3,15,24,17,19,12,13,28,01,10,18,,,1.76,0.90,1.51*00

[1499590765236]$GPGSV,3,1,12,01,13,033,20,06,01,131,,10,12,311,26,11,03,023,18*73

[1499590765236]$GPGSV,3,2,12,12,29,246,21,13,27,180,27,15,42,223,41,17,53,085,34*75

[1499590765236]$GPGSV,3,3,12,18,08,286,15,19,53,130,31,24,57,288,37,28,22,066,32*74

[1499590765236]$GPGLL,5355.75542,N,02729.31185,E,055925.00,A,A*60

[1499590766236]$GPRMC,055926.00,A,5355.75536,N,02729.31187,E,0.017,,090717,,,A*75

[1499590766236]$GPVTG,,T,,M,0.017,N,0.031,K,A*27

[1499590766236]$GPGGA,055926.00,5355.75536,N,02729.31187,E,1,10,0.90,212.0,M,25.0,M,,*59

[1499590766236]$GPGSA,A,3,15,24,17,19,12,13,28,01,10,18,,,1.76,0.90,1.51*00

[1499590766236]$GPGSV,3,1,12,01,13,033,21,06,01,131,,10,12,311,25,11,03,023,17*7E

[1499590766236]$GPGSV,3,2,12,12,29,246,21,13,27,180,27,15,42,223,41,17,53,085,34*75

[1499590766236]$GPGSV,3,3,12,18,08,286,15,19,53,130,30,24,57,288,38,28,22,066,31*79

[1499590766236]$GPGLL,5355.75536,N,02729.31187,E,055926.00,A,A*62

[1499590767240]$GPRMC,055927.00,A,5355.75534,N,02729.31192,E,0.041,,090717,,,A*71

[1499590767240]$GPVTG,,T,,M,0.041,N,0.077,K,A*26

[1499590767240]$GPGGA,055927.00,5355.75534,N,02729.31192,E,1,10,0.90,212.1,M,25.0,M,,*5F

[1499590767240]$GPGSA,A,3,15,24,17,19,12,13,28,01,10,18,,,1.76,0.90,1.51*00

[1499590767240]$GPGSV,3,1,12,01,13,033,21,06,01,131,,10,12,311,25,11,03,023,17*7E

[1499590767240]$GPGSV,3,2,12,12,29,246,21,13,27,180,27,15,42,223,41,17,53,085,34*75

[1499590767240]$GPGSV,3,3,12,18,08,286,15,19,53,130,31,24,57,288,37,28,22,066,31*77

[1499590767240]$GPGLL,5355.75534,N,02729.31192,E,055927.00,A,A*65

[1499590768238]$GPRMC,055928.00,A,5355.75531,N,02729.31201,E,0.070,,090717,,,A*70

[1499590768238]$GPVTG,,T,,M,0.070,N,0.130,K,A*26

[1499590768238]$GPGGA,055928.00,5355.75531,N,02729.31201,E,1,10,0.90,212.4,M,25.0,M,,*59

[1499590768238]$GPGSA,A,3,15,24,17,19,12,13,28,01,10,18,,,1.76,0.90,1.51*00

[1499590768238]$GPGSV,3,1,12,01,13,033,21,06,01,131,,10,12,311,24,11,03,023,18*70

[1499590768238]$GPGSV,3,2,12,12,29,246,22,13,27,180,28,15,42,223,41,17,53,085,34*79

[1499590768238]$GPGSV,3,3,12,18,08,286,16,19,53,130,31,24,57,288,37,28,22,066,31*74

[1499590768238]$GPGLL,5355.75531,N,02729.31201,E,055928.00,A,A*66

[1499590769240]$GPRMC,055929.00,A,5355.75527,N,02729.31206,E,0.029,,090717,,,A*7D

[1499590769240]$GPVTG,,T,,M,0.029,N,0.054,K,A*29

[1499590769240]$GPGGA,055929.00,5355.75527,N,02729.31206,E,1,10,0.90,212.7,M,25.0,M,,*5B

[1499590769240]$GPGSA,A,3,15,24,17,19,12,13,28,01,10,18,,,1.76,0.90,1.51*00

[1499590769240]$GPGSV,3,1,12,01,13,033,21,06,01,131,,10,12,311,24,11,03,023,18*70

[1499590769240]$GPGSV,3,2,12,12,29,246,21,13,27,180,28,15,42,223,41,17,53,085,34*7A

[1499590769240]$GPGSV,3,3,12,18,08,286,16,19,53,130,31,24,57,288,37,28,22,066,31*74

[1499590769240]$GPGLL,5355.75527,N,02729.31206,E,055929.00,A,A*67

[1499590770236]$GPRMC,055930.00,A,5355.75526,N,02729.31211,E,0.070,,090717,,,A*7E

[1499590770236]$GPVTG,,T,,M,0.070,N,0.130,K,A*26

[1499590770236]$GPGGA,055930.00,5355.75526,N,02729.31211,E,1,10,0.90,212.8,M,25.0,M,,*5B

[1499590770236]$GPGSA,A,3,15,24,17,19,12,13,28,01,10,18,,,1.76,0.90,1.51*00

[1499590770236]$GPGSV,3,1,12,01,13,033,21,06,01,131,,10,12,311,24,11,03,023,18*70

[1499590770236]$GPGSV,3,2,12,12,29,246,21,13,27,180,27,15,42,223,41,17,53,085,34*75

[1499590770236]$GPGSV,3,3,12,18,08,286,15,19,53,130,31,24,57,288,37,28,22,066,32*74

[1499590770236]$GPGLL,5355.75526,N,02729.31211,E,055930.00,A,A*68

[1499590771236]$GPRMC,055931.00,A,5355.75526,N,02729.31216,E,0.036,,090717,,,A*7A

[1499590771236]$GPVTG,,T,,M,0.036,N,0.066,K,A*26

[1499590771236]$GPGGA,055931.00,5355.75526,N,02729.31216,E,1,10,0.90,213.0,M,25.0,M,,*54

[1499590771236]$GPGSA,A,3,15,24,17,19,12,13,28,01,10,18,,,1.76,0.90,1.51*00

[1499590771236]$GPGSV,3,1,12,01,13,033,21,06,01,131,,10,12,311,24,11,03,023,18*70

[1499590771236]$GPGSV,3,2,12,12,29,246,21,13,27,180,27,15,42,223,41,17,53,085,34*75

[1499590771236]$GPGSV,3,3,12,18,08,286,15,19,53,130,31,24,57,288,38,28,22,066,31*78

[1499590771236]$GPGLL,5355.75526,N,02729.31216,E,055931.00,A,A*6E

[1499590772236]$GPRMC,055932.00,A,5355.75526,N,02729.31222,E,0.048,,090717,,,A*77

[1499590772236]$GPVTG,,T,,M,0.048,N,0.089,K,A*2E

[1499590772236]$GPGGA,055932.00,5355.75526,N,02729.31222,E,1,10,0.92,213.1,M,25.0,M,,*53

[1499590772236]$GPGSA,A,3,15,24,17,19,12,13,28,01,10,18,,,1.87,0.92,1.63*0D

[1499590772236]$GPGSV,3,1,12,01,13,033,21,06,01,131,,10,12,311,24,11,03,023,19*71

[1499590772236]$GPGSV,3,2,12,12,29,246,21,13,27,180,27,15,42,223,41,17,53,085,34*75

[1499590772236]$GPGSV,3,3,12,18,08,286,15,19,53,130,31,24,57,288,37,28,22,066,31*77

[1499590772236]$GPGLL,5355.75526,N,02729.31222,E,055932.00,A,A*6A

[1499590773237]$GPRMC,055933.00,A,5355.75527,N,02729.31225,E,0.069,,090717,,,A*73

[1499590773237]$GPVTG,,T,,M,0.069,N,0.127,K,A*28

[1499590773237]$GPGGA,055933.00,5355.75527,N,02729.31225,E,1,10,0.90,213.1,M,25.0,M,,*56

[1499590773237]$GPGSA,A,3,15,24,17,19,12,13,28,01,10,18,,,1.76,0.90,1.51*00

[1499590773237]$GPGSV,3,1,12,01,13,033,21,06,01,131,,10,12,311,24,11,03,023,19*71

[1499590773237]$GPGSV,3,2,12,12,29,246,21,13,27,180,27,15,42,223,41,17,53,085,34*75

[1499590773237]$GPGSV,3,3,12,18,08,286,16,19,53,130,31,24,57,288,38,28,22,066,31*7B

[1499590773237]$GPGLL,5355.75527,N,02729.31225,E,055933.00,A,A*6D

[1499590774236]$GPRMC,055934.00,A,5355.75528,N,02729.31223,E,0.061,,090717,,,A*75

[1499590774236]$GPVTG,,T,,M,0.061,N,0.112,K,A*26

[1499590774236]$GPGGA,055934.00,5355.75528,N,02729.31223,E,1,10,0.92,213.2,M,25.0,M,,*59

[1499590774236]$GPGSA,A,3,15,24,17,19,12,13,28,01,10,18,,,1.87,0.92,1.63*0D

[1499590774236]$GPGSV,3,1,12,01,13,033,21,06,01,131,,10,12,311,24,11,03,023,19*71

[1499590774236]$GPGSV,3,2,12,12,29,246,21,13,27,180,27,15,42,223,41,17,53,085,34*75

[1499590774236]$GPGSV,3,3,12,18,08,286,16,19,53,130,31,24,57,288,38,28,22,066,31*7B

[1499590774236]$GPGLL,5355.75528,N,02729.31223,E,055934.00,A,A*63

[1499590775236]$GPRMC,055935.00,A,5355.75529,N,02729.31225,E,0.025,,090717,,,A*73

[1499590775236]$GPVTG,,T,,M,0.025,N,0.046,K,A*26

[1499590775236]$GPGGA,055935.00,5355.75529,N,02729.31225,E,1,10,0.92,213.2,M,25.0,M,,*5F

[1499590775236]$GPGSA,A,3,15,24,17,19,12,13,28,01,10,18,,,1.87,0.92,1.63*0D

[1499590775236]$GPGSV,3,1,12,01,13,033,21,06,01,130,,10,12,311,23,11,03,023,19*77

[1499590775236]$GPGSV,3,2,12,12,29,246,21,13,27,180,27,15,42,223,41,17,53,085,34*75

[1499590775236]$GPGSV,3,3,12,18,08,286,17,19,53,130,31,24,57,288,38,28,22,066,31*7A

[1499590775236]$GPGLL,5355.75529,N,02729.31225,E,055935.00,A,A*65

[1499590776236]$GPRMC,055936.00,A,5355.75530,N,02729.31228,E,0.044,,090717,,,A*72

[1499590776236]$GPVTG,,T,,M,0.044,N,0.082,K,A*29

[1499590776236]$GPGGA,055936.00,5355.75530,N,02729.31228,E,1,10,0.92,213.2,M,25.0,M,,*59

[1499590776236]$GPGSA,A,3,15,24,17,19,12,13,28,01,10,18,,,1.87,0.92,1.63*0D

[1499590776236]$GPGSV,3,1,12,01,13,033,21,06,01,130,,10,12,311,23,11,03,023,19*77

[1499590776236]$GPGSV,3,2,12,12,29,246,21,13,27,180,27,15,42,223,41,17,53,085,34*75

[1499590776236]$GPGSV,3,3,12,18,08,286,17,19,53,130,31,24,57,288,38,28,22,066,31*7A

[1499590776236]$GPGLL,5355.75530,N,02729.31228,E,055936.00,A,A*63

[1499590777236]$GPRMC,055937.00,A,5355.75527,N,02729.31235,E,0.141,,090717,,,A*7D

[1499590777236]$GPVTG,,T,,M,0.141,N,0.261,K,A*22

[1499590777236]$GPGGA,055937.00,5355.75527,N,02729.31235,E,1,10,0.89,213.5,M,25.0,M,,*5F

[1499590777236]$GPGSA,A,3,15,24,17,19,12,13,28,01,10,18,,,1.75,0.89,1.51*0B

[1499590777236]$GPGSV,3,1,12,01,13,033,21,06,01,130,,10,12,311,22,11,03,023,19*76

[1499590777236]$GPGSV,3,2,12,12,29,246,22,13,27,180,27,15,42,223,41,17,53,085,34*76

[1499590777236]$GPGSV,3,3,12,18,08,286,17,19,53,130,31,24,57,288,37,28,22,066,31*75

[1499590777236]$GPGLL,5355.75527,N,02729.31235,E,055937.00,A,A*68

[1499590778238]$GPRMC,055938.00,A,5355.75527,N,02729.31236,E,0.027,,090717,,,A*70

[1499590778238]$GPVTG,,T,,M,0.027,N,0.050,K,A*23

[1499590778238]$GPGGA,055938.00,5355.75527,N,02729.31236,E,1,10,0.92,213.5,M,25.0,M,,*59

[1499590778238]$GPGSA,A,3,15,24,17,19,12,13,28,01,10,18,,,1.87,0.92,1.63*0D

[1499590778238]$GPGSV,3,1,12,01,13,033,21,06,01,130,,10,12,311,22,11,03,023,20*7C

[1499590778238]$GPGSV,3,2,12,12,29,246,21,13,27,180,27,15,42,223,41,17,53,085,34*75

[1499590778238]$GPGSV,3,3,12,18,08,286,17,19,53,130,31,24,57,288,37,28,22,066,32*76

[1499590778238]$GPGLL,5355.75527,N,02729.31236,E,055938.00,A,A*64

[1499590779238]$GPRMC,055939.00,A,5355.75525,N,02729.31237,E,0.075,,090717,,,A*75

[1499590779238]$GPVTG,,T,,M,0.075,N,0.139,K,A*2A

[1499590779238]$GPGGA,055939.00,5355.75525,N,02729.31237,E,1,10,0.92,213.6,M,25.0,M,,*58

[1499590779238]$GPGSA,A,3,15,24,17,19,12,13,28,01,10,18,,,1.87,0.92,1.63*0D

[1499590779238]$GPGSV,3,1,12,01,13,033,21,06,01,130,,10,12,311,22,11,03,023,20*7C

[1499590779238]$GPGSV,3,2,12,12,29,246,21,13,27,180,27,15,42,223,41,17,53,085,34*75

[1499590779238]$GPGSV,3,3,12,18,08,286,17,19,53,130,32,24,57,288,37,28,22,066,31*76

[1499590779238]$GPGLL,5355.75525,N,02729.31237,E,055939.00,A,A*66

[1499590780236]$GPRMC,055940.00,A,5355.75529,N,02729.31235,E,0.095,,090717,,,A*7B

[1499590780236]$GPVTG,,T,,M,0.095,N,0.175,K,A*2C

[1499590780236]$GPGGA,055940.00,5355.75529,N,02729.31235,E,1,10,0.92,213.5,M,25.0,M,,*5B

[1499590780236]$GPGSA,A,3,15,24,17,19,12,13,28,01,10,18,,,1.87,0.92,1.63*0D

[1499590780236]$GPGSV,3,1,12,01,13,033,20,06,01,130,,10,12,311,22,11,03,022,20*7C

[1499590780236]$GPGSV,3,2,12,12,29,246,21,13,27,180,27,15,42,223,41,17,53,085,34*75

[1499590780236]$GPGSV,3,3,12,18,08,286,17,19,53,130,32,24,57,288,37,28,22,066,31*76

[1499590780236]$GPGLL,5355.75529,N,02729.31235,E,055940.00,A,A*66

[1499590781236]$GPRMC,055941.00,A,5355.75529,N,02729.31236,E,0.059,,090717,,,A*79

[1499590781236]$GPVTG,,T,,M,0.059,N,0.109,K,A*27

[1499590781236]$GPGGA,055941.00,5355.75529,N,02729.31236,E,1,10,0.92,213.5,M,25.0,M,,*59

[1499590781236]$GPGSA,A,3,15,24,17,19,12,13,28,01,10,18,,,1.87,0.92,1.62*0C

[1499590781236]$GPGSV,3,1,12,01,13,033,21,06,01,130,,10,12,311,22,11,03,022,20*7D

[1499590781236]$GPGSV,3,2,12,12,29,246,21,13,27,180,26,15,42,223,41,17,53,085,34*74

[1499590781236]$GPGSV,3,3,12,18,08,286,17,19,53,130,32,24,57,288,37,28,22,066,31*76

[1499590781236]$GPGLL,5355.75529,N,02729.31236,E,055941.00,A,A*64

[1499590782236]$GPRMC,055942.00,A,5355.75533,N,02729.31237,E,0.046,,090717,,,A*7E

[1499590782236]$GPVTG,,T,,M,0.046,N,0.085,K,A*2C

[1499590782236]$GPGGA,055942.00,5355.75533,N,02729.31237,E,1,10,0.92,213.5,M,25.0,M,,*50

[1499590782236]$GPGSA,A,3,15,24,17,19,12,13,28,01,10,18,,,1.87,0.92,1.62*0C

[1499590782236]$GPGSV,3,1,12,01,13,033,21,06,01,130,,10,12,311,23,11,03,022,20*7C

[1499590782236]$GPGSV,3,2,12,12,29,246,21,13,26,180,26,15,42,223,41,17,53,085,34*75

[1499590782236]$GPGSV,3,3,12,18,08,286,17,19,53,130,32,24,57,288,37,28,22,066,31*76

[1499590782236]$GPGLL,5355.75533,N,02729.31237,E,055942.00,A,A*6D

[1499590783241]$GPRMC,055943.00,A,5355.75537,N,02729.31239,E,0.050,,090717,,,A*72

[1499590783241]$GPVTG,,T,,M,0.050,N,0.093,K,A*2C

[1499590783241]$GPGGA,055943.00,5355.75537,N,02729.31239,E,1,10,0.89,213.5,M,25.0,M,,*51

[1499590783241]$GPGSA,A,3,15,24,17,19,12,13,28,01,10,18,,,1.75,0.89,1.51*0B

[1499590783241]$GPGSV,3,1,12,01,13,033,21,06,01,130,,10,12,311,23,11,03,022,21*7D

[1499590783241]$GPGSV,3,2,12,12,29,246,21,13,26,180,26,15,42,223,41,17,53,085,34*75

[1499590783241]$GPGSV,3,3,12,18,08,286,17,19,53,130,32,24,57,288,37,28,22,066,31*76

[1499590783241]$GPGLL,5355.75537,N,02729.31239,E,055943.00,A,A*66

[1499590784236]$GPRMC,055944.00,A,5355.75536,N,02729.31241,E,0.067,,090717,,,A*7F

[1499590784236]$GPVTG,,T,,M,0.067,N,0.124,K,A*25

[1499590784236]$GPGGA,055944.00,5355.75536,N,02729.31241,E,1,10,0.92,213.7,M,25.0,M,,*50

[1499590784236]$GPGSA,A,3,15,24,17,19,12,13,28,01,10,18,,,1.87,0.92,1.62*0C

[1499590784236]$GPGSV,3,1,12,01,13,033,21,06,01,130,,10,12,311,22,11,03,022,21*7C

[1499590784236]$GPGSV,3,2,12,12,29,246,22,13,26,180,27,15,42,223,41,17,53,085,34*77

[1499590784236]$GPGSV,3,3,12,18,08,286,17,19,53,130,32,24,57,288,37,28,22,066,32*75

[1499590784236]$GPGLL,5355.75536,N,02729.31241,E,055944.00,A,A*6F

[1499590785236]$GPRMC,055945.00,A,5355.75537,N,02729.31240,E,0.039,,090717,,,A*75

[1499590785236]$GPVTG,,T,,M,0.039,N,0.073,K,A*2D

[1499590785236]$GPGGA,055945.00,5355.75537,N,02729.31240,E,1,10,0.92,213.7,M,25.0,M,,*51

[1499590785236]$GPGSA,A,3,15,24,17,19,12,13,28,01,10,18,,,1.87,0.92,1.62*0C

[1499590785236]$GPGSV,3,1,12,01,13,033,20,06,01,130,,10,12,311,23,11,03,022,21*7C

[1499590785236]$GPGSV,3,2,12,12,29,246,22,13,26,180,27,15,42,223,41,17,53,085,34*77

[1499590785236]$GPGSV,3,3,12,18,08,286,18,19,53,130,32,24,57,288,37,28,22,066,31*79

[1499590785236]$GPGLL,5355.75537,N,02729.31240,E,055945.00,A,A*6E

[1499590786237]$GPRMC,055946.00,A,5355.75541,N,02729.31242,E,0.084,,090717,,,A*73

[1499590786237]$GPVTG,,T,,M,0.084,N,0.155,K,A*2E

[1499590786237]$GPGGA,055946.00,5355.75541,N,02729.31242,E,1,10,0.89,213.8,M,25.0,M,,*54

[1499590786237]$GPGSA,A,3,15,24,17,19,12,13,28,01,10,18,,,1.75,0.89,1.51*0B

[1499590786237]$GPGSV,3,1,12,01,13,033,20,06,01,130,,10,12,311,23,11,03,022,21*7C

[1499590786237]$GPGSV,3,2,12,12,29,246,22,13,26,180,26,15,42,223,41,17,53,084,34*77

[1499590786237]$GPGSV,3,3,12,18,08,286,18,19,53,130,32,24,57,288,38,28,22,066,31*76

[1499590786237]$GPGLL,5355.75541,N,02729.31242,E,055946.00,A,A*6E

[1499590787236]$GPRMC,055947.00,A,5355.75544,N,02729.31242,E,0.049,,090717,,,A*76

[1499590787236]$GPVTG,,T,,M,0.049,N,0.090,K,A*27

[1499590787236]$GPGGA,055947.00,5355.75544,N,02729.31242,E,1,10,0.89,214.0,M,25.0,M,,*5F

[1499590787236]$GPGSA,A,3,15,24,17,19,12,13,28,01,10,18,,,1.75,0.89,1.50*0A

[1499590787236]$GPGSV,3,1,12,01,13,033,20,06,01,130,,10,12,311,24,11,03,022,21*7B

[1499590787236]$GPGSV,3,2,12,12,29,246,22,13,26,180,26,15,42,223,41,17,53,084,34*77

[1499590787236]$GPGSV,3,3,12,18,07,286,17,19,53,130,32,24,57,288,37,28,22,066,31*79

[1499590787236]$GPGLL,5355.75544,N,02729.31242,E,055947.00,A,A*6A

[1499590788236]$GPRMC,055948.00,A,5355.75546,N,02729.31241,E,0.034,,090717,,,A*72

[1499590788236]$GPVTG,,T,,M,0.034,N,0.063,K,A*21

[1499590788236]$GPGGA,055948.00,5355.75546,N,02729.31241,E,1,10,0.89,214.0,M,25.0,M,,*51

[1499590788236]$GPGSA,A,3,15,24,17,19,12,13,28,01,10,18,,,1.75,0.89,1.50*0A

[1499590788236]$GPGSV,3,1,12,01,13,033,21,06,01,130,,10,12,311,24,11,03,022,20*7B

[1499590788236]$GPGSV,3,2,12,12,29,246,22,13,26,180,27,15,42,223,41,17,53,084,34*76

[1499590788236]$GPGSV,3,3,12,18,07,286,17,19,54,129,32,24,57,288,37,28,22,066,31*76

[1499590788236]$GPGLL,5355.75546,N,02729.31241,E,055948.00,A,A*64

[1499590789237]$GPRMC,055949.00,A,5355.75548,N,02729.31240,E,0.011,,090717,,,A*7B

[1499590789237]$GPVTG,,T,,M,0.011,N,0.021,K,A*20

[1499590789237]$GPGGA,055949.00,5355.75548,N,02729.31240,E,1,10,0.89,214.2,M,25.0,M,,*5D

[1499590789237]$GPGSA,A,3,15,24,17,19,12,13,28,01,10,18,,,1.75,0.89,1.50*0A

[1499590789237]$GPGSV,3,1,12,01,13,033,21,06,01,130,,10,12,311,24,11,03,022,21*7A

[1499590789237]$GPGSV,3,2,12,12,29,246,22,13,26,180,26,15,42,223,41,17,53,084,34*77

[1499590789237]$GPGSV,3,3,12,18,07,286,18,19,54,129,32,24,57,288,38,28,22,066,32*75

[1499590789237]$GPGLL,5355.75548,N,02729.31240,E,055949.00,A,A*6A

[1499590790256]$GPRMC,055950.00,A,5355.75550,N,02729.31237,E,0.067,,090717,,,A*7B

[1499590790256]$GPVTG,,T,,M,0.067,N,0.125,K,A*24

[1499590790256]$GPGGA,055950.00,5355.75550,N,02729.31237,E,1,10,0.89,214.1,M,25.0,M,,*5F

[1499590790256]$GPGSA,A,3,15,24,17,19,12,13,28,01,10,18,,,1.75,0.89,1.50*0A

[1499590790256]$GPGSV,3,1,12,01,13,033,21,06,01,130,,10,12,311,24,11,03,022,21*7A

[1499590790256]$GPGSV,3,2,12,12,29,246,22,13,26,180,27,15,42,223,41,17,53,084,34*76

[1499590790256]$GPGSV,3,3,12,18,07,286,18,19,54,129,32,24,57,288,37,28,22,066,31*79

[1499590790256]$GPGLL,5355.75550,N,02729.31237,E,055950.00,A,A*6B

[1499590791236]$GPRMC,055951.00,A,5355.75546,N,02729.31239,E,0.058,,090717,,,A*7F

[1499590791236]$GPVTG,,T,,M,0.058,N,0.107,K,A*28

[1499590791236]$GPGGA,055951.00,5355.75546,N,02729.31239,E,1,10,0.89,214.3,M,25.0,M,,*55

[1499590791236]$GPGSA,A,3,15,24,17,19,12,13,28,01,10,18,,,1.75,0.89,1.50*0A

[1499590791236]$GPGSV,3,1,12,01,13,033,20,06,01,130,,10,12,311,24,11,03,022,21*7B

[1499590791236]$GPGSV,3,2,12,12,29,246,22,13,26,180,27,15,42,223,41,17,53,084,34*76

[1499590791236]$GPGSV,3,3,12,18,07,286,17,19,54,129,32,24,57,288,38,28,22,066,31*79

[1499590791236]$GPGLL,5355.75546,N,02729.31239,E,055951.00,A,A*63

[1499590792237]$GPRMC,055952.00,A,5355.75545,N,02729.31235,E,0.057,,090717,,,A*7C

[1499590792237]$GPVTG,,T,,M,0.057,N,0.105,K,A*25

[1499590792237]$GPGGA,055952.00,5355.75545,N,02729.31235,E,1,10,0.89,214.3,M,25.0,M,,*59

[1499590792237]$GPGSA,A,3,15,24,17,19,12,13,28,01,10,18,,,1.75,0.89,1.50*0A

[1499590792237]$GPGSV,3,1,12,01,13,033,20,06,01,130,,10,12,311,25,11,03,022,21*7A

[1499590792237]$GPGSV,3,2,12,12,29,246,21,13,26,180,27,15,42,223,41,17,53,084,34*75

[1499590792237]$GPGSV,3,3,12,18,07,286,17,19,54,129,32,24,57,288,37,28,22,066,31*76

[1499590792237]$GPGLL,5355.75545,N,02729.31235,E,055952.00,A,A*6F

[1499590793236]$GPRMC,055953.00,A,5355.75545,N,02729.31235,E,0.050,,090717,,,A*7A

[1499590793236]$GPVTG,,T,,M,0.050,N,0.093,K,A*2C

[1499590793236]$GPGGA,055953.00,5355.75545,N,02729.31235,E,1,10,0.89,214.3,M,25.0,M,,*58

[1499590793236]$GPGSA,A,3,15,24,17,19,12,13,28,01,10,18,,,1.75,0.89,1.50*0A

[1499590793236]$GPGSV,3,1,12,01,13,033,20,06,01,130,,10,12,311,24,11,03,022,21*7B

[1499590793236]$GPGSV,3,2,12,12,29,246,21,13,26,180,27,15,42,223,41,17,53,084,34*75

[1499590793236]$GPGSV,3,3,12,18,07,286,18,19,54,129,32,24,57,288,37,28,22,066,31*79

[1499590793236]$GPGLL,5355.75545,N,02729.31235,E,055953.00,A,A*6E

[1499590794236]$GPRMC,055954.00,A,5355.75548,N,02729.31235,E,0.093,,090717,,,A*7F

[1499590794236]$GPVTG,,T,,M,0.093,N,0.173,K,A*2C

[1499590794236]$GPGGA,055954.00,5355.75548,N,02729.31235,E,1,10,0.89,214.3,M,25.0,M,,*52

[1499590794236]$GPGSA,A,3,15,24,17,19,12,13,28,01,10,18,,,1.75,0.89,1.50*0A

[1499590794236]$GPGSV,3,1,12,01,13,033,20,06,01,130,,10,12,311,24,11,03,022,21*7B

[1499590794236]$GPGSV,3,2,12,12,29,246,21,13,26,180,27,15,42,223,41,17,53,084,34*75

[1499590794236]$GPGSV,3,3,12,18,07,286,19,19,54,129,32,24,57,288,37,28,22,066,31*78

[1499590794236]$GPGLL,5355.75548,N,02729.31235,E,055954.00,A,A*64

[1499590795236]$GPRMC,055955.00,A,5355.75551,N,02729.31234,E,0.123,,090717,,,A*7D

[1499590795236]$GPVTG,,T,,M,0.123,N,0.227,K,A*24

[1499590795236]$GPGGA,055955.00,5355.75551,N,02729.31234,E,1,10,0.89,214.4,M,25.0,M,,*5D

[1499590795236]$GPGSA,A,3,15,24,17,19,12,13,28,01,10,18,,,1.75,0.89,1.50*0A

[1499590795236]$GPGSV,3,1,12,01,13,033,21,06,01,130,,10,12,311,24,11,03,022,22*79

[1499590795236]$GPGSV,3,2,12,12,29,246,22,13,26,180,27,15,42,223,41,17,53,084,33*71

[1499590795236]$GPGSV,3,3,12,18,07,286,19,19,54,129,32,24,57,288,37,28,22,066,31*78

[1499590795236]$GPGLL,5355.75551,N,02729.31234,E,055955.00,A,A*6C

[1499590796236]$GPRMC,055956.00,A,5355.75551,N,02729.31236,E,0.053,,090717,,,A*7A

[1499590796236]$GPVTG,,T,,M,0.053,N,0.097,K,A*2B

[1499590796236]$GPGGA,055956.00,5355.75551,N,02729.31236,E,1,10,0.89,214.5,M,25.0,M,,*5D

[1499590796236]$GPGSA,A,3,15,24,17,19,12,13,28,01,10,18,,,1.75,0.89,1.50*0A

[1499590796236]$GPGSV,3,1,12,01,13,033,20,06,01,130,,10,12,311,24,11,03,022,22*78

[1499590796236]$GPGSV,3,2,12,12,29,246,22,13,26,180,27,15,42,223,41,17,53,084,33*71

[1499590796236]$GPGSV,3,3,12,18,07,286,19,19,54,129,32,24,57,288,37,28,22,066,31*78

[1499590796236]$GPGLL,5355.75551,N,02729.31236,E,055956.00,A,A*6D

[1499590797236]$GPRMC,055957.00,A,5355.75550,N,02729.31239,E,0.027,,090717,,,A*76

[1499590797236]$GPVTG,,T,,M,0.027,N,0.050,K,A*23

[1499590797236]$GPGGA,055957.00,5355.75550,N,02729.31239,E,1,10,0.89,214.6,M,25.0,M,,*51

[1499590797236]$GPGSA,A,3,15,24,17,19,12,13,28,01,10,18,,,1.75,0.89,1.50*0A

[1499590797236]$GPGSV,3,1,12,01,13,033,20,06,01,130,,10,12,311,24,11,03,022,22*78

[1499590797236]$GPGSV,3,2,12,12,29,246,22,13,26,180,27,15,42,223,41,17,53,084,34*76

[1499590797236]$GPGSV,3,3,12,18,07,286,20,19,54,129,32,24,57,288,37,28,22,066,31*72

[1499590797236]$GPGLL,5355.75550,N,02729.31239,E,055957.00,A,A*62

[1499590798236]$GPRMC,055958.00,A,5355.75554,N,02729.31238,E,0.167,,090717,,,A*79

[1499590798236]$GPVTG,,T,,M,0.167,N,0.309,K,A*29

[1499590798236]$GPGGA,055958.00,5355.75554,N,02729.31238,E,1,10,0.89,214.3,M,25.0,M,,*5E

[1499590798236]$GPGSA,A,3,15,24,17,19,12,13,28,01,10,18,,,1.75,0.89,1.50*0A

[1499590798236]$GPGSV,3,1,12,01,13,033,19,06,01,130,,10,12,311,25,11,03,022,22*73

[1499590798236]$GPGSV,3,2,12,12,29,246,22,13,26,180,27,15,42,223,41,17,53,084,33*71

[1499590798236]$GPGSV,3,3,12,18,07,286,19,19,54,129,32,24,57,288,37,28,22,066,31*78

[1499590798236]$GPGLL,5355.75554,N,02729.31238,E,055958.00,A,A*68

[1499590799237]$GPRMC,055959.00,A,5355.75557,N,02729.31237,E,0.022,,090717,,,A*74

[1499590799237]$GPVTG,,T,,M,0.022,N,0.041,K,A*26

[1499590799237]$GPGGA,055959.00,5355.75557,N,02729.31237,E,1,10,0.89,214.4,M,25.0,M,,*54

[1499590799237]$GPGSA,A,3,15,24,17,19,12,13,28,01,10,18,,,1.75,0.89,1.50*0A

[1499590799237]$GPGSV,3,1,12,01,13,033,19,06,01,130,,10,12,311,25,11,03,022,22*73

[1499590799237]$GPGSV,3,2,12,12,29,246,22,13,26,180,28,15,42,223,41,17,53,084,33*7E

[1499590799237]$GPGSV,3,3,12,18,07,286,19,19,54,129,32,24,57,288,38,28,22,066,31*77

[1499590799237]$GPGLL,5355.75557,N,02729.31237,E,055959.00,A,A*65

[1499590800262]$GPRMC,060000.00,A,5355.75556,N,02729.31240,E,0.004,,090717,,,A*72

[1499590800262]$GPVTG,,T,,M,0.004,N,0.008,K,A*2F

[1499590800262]$GPGGA,060000.00,5355.75556,N,02729.31240,E,1,10,0.89,214.6,M,25.0,M,,*54

[1499590800262]$GPGSA,A,3,15,24,17,19,12,13,28,01,10,18,,,1.75,0.89,1.50*0A

[1499590800262]$GPGSV,3,1,12,01,13,033,20,06,01,130,,10,12,311,24,11,03,022,23*79

[1499590800262]$GPGSV,3,2,12,12,29,246,22,13,26,180,28,15,42,223,41,17,53,084,34*79

[1499590800262]$GPGSV,3,3,12,18,07,286,20,19,54,129,32,24,57,288,38,28,22,066,31*7D

[1499590800262]$GPGLL,5355.75556,N,02729.31240,E,060000.00,A,A*67

[1499590801236]$GPRMC,060001.00,A,5355.75558,N,02729.31243,E,0.023,,090717,,,A*7B

[1499590801236]$GPVTG,,T,,M,0.023,N,0.042,K,A*24

[1499590801236]$GPGGA,060001.00,5355.75558,N,02729.31243,E,1,10,0.89,214.7,M,25.0,M,,*59

[1499590801236]$GPGSA,A,3,15,24,17,19,12,13,28,01,10,18,,,1.75,0.89,1.50*0A

[1499590801236]$GPGSV,3,1,12,01,13,033,20,06,01,130,,10,12,311,24,11,03,022,24*7E

[1499590801236]$GPGSV,3,2,12,12,29,246,22,13,26,180,28,15,42,223,41,17,53,084,34*79

[1499590801236]$GPGSV,3,3,12,18,07,286,20,19,54,129,32,24,57,288,37,28,22,066,31*72

[1499590801236]$GPGLL,5355.75558,N,02729.31243,E,060001.00,A,A*6B

[1499590802237]$GPRMC,060002.00,A,5355.75561,N,02729.31244,E,0.127,,090717,,,A*70

[1499590802237]$GPVTG,,T,,M,0.127,N,0.236,K,A*20

[1499590802237]$GPGGA,060002.00,5355.75561,N,02729.31244,E,1,10,0.89,214.8,M,25.0,M,,*58

[1499590802237]$GPGSA,A,3,15,24,17,19,12,13,28,01,10,18,,,1.75,0.89,1.50*0A

[1499590802237]$GPGSV,3,1,12,01,13,033,21,06,01,130,,10,12,311,23,11,03,022,23*7F

[1499590802237]$GPGSV,3,2,12,12,29,246,22,13,26,180,28,15,42,223,42,17,53,084,33*7D

[1499590802237]$GPGSV,3,3,12,18,07,286,20,19,54,129,32,24,57,288,38,28,22,066,31*7D

[1499590802237]$GPGLL,5355.75561,N,02729.31244,E,060002.00,A,A*65

[1499590803236]$GPRMC,060003.00,A,5355.75564,N,02729.31245,E,0.027,,090717,,,A*74

[1499590803236]$GPVTG,,T,,M,0.027,N,0.050,K,A*23

[1499590803236]$GPGGA,060003.00,5355.75564,N,02729.31245,E,1,10,0.89,214.8,M,25.0,M,,*5D

[1499590803236]$GPGSA,A,3,15,24,17,19,12,13,28,01,10,18,,,1.75,0.89,1.50*0A

[1499590803236]$GPGSV,3,1,12,01,13,033,21,06,01,130,,10,12,311,23,11,03,022,23*7F

[1499590803236]$GPGSV,3,2,12,12,29,246,22,13,26,180,28,15,42,223,42,17,53,084,33*7D

[1499590803236]$GPGSV,3,3,12,18,07,286,20,19,54,129,32,24,57,288,38,28,22,066,31*7D

[1499590803236]$GPGLL,5355.75564,N,02729.31245,E,060003.00,A,A*60

[1499590804236]$GPRMC,060004.00,A,5355.75563,N,02729.31251,E,0.041,,090717,,,A*71

[1499590804236]$GPVTG,,T,,M,0.041,N,0.076,K,A*27

[1499590804236]$GPGGA,060004.00,5355.75563,N,02729.31251,E,1,10,0.89,215.1,M,25.0,M,,*50

[1499590804236]$GPGSA,A,3,15,24,17,19,12,13,28,01,10,18,,,1.74,0.89,1.50*0B

[1499590804236]$GPGSV,3,1,12,01,13,033,20,06,01,130,,10,12,311,23,11,03,022,23*7E

[1499590804236]$GPGSV,3,2,12,12,29,246,21,13,26,180,29,15,42,223,41,17,53,084,34*7B

[1499590804236]$GPGSV,3,3,12,18,07,286,20,19,54,129,32,24,57,288,38,28,22,066,31*7D

[1499590804236]$GPGLL,5355.75563,N,02729.31251,E,060004.00,A,A*65

[1499590805236]$GPRMC,060005.00,A,5355.75564,N,02729.31257,E,0.039,,090717,,,A*7E

[1499590805236]$GPVTG,,T,,M,0.039,N,0.073,K,A*2D

[1499590805236]$GPGGA,060005.00,5355.75564,N,02729.31257,E,1,10,0.89,215.1,M,25.0,M,,*50

[1499590805236]$GPGSA,A,3,15,24,17,19,12,13,28,01,10,18,,,1.74,0.89,1.50*0B

[1499590805236]$GPGSV,3,1,12,01,13,033,20,06,01,130,,10,12,311,23,11,03,022,23*7E

[1499590805236]$GPGSV,3,2,12,12,29,246,21,13,26,180,29,15,42,223,42,17,53,084,34*78

[1499590805236]$GPGSV,3,3,12,18,07,286,20,19,54,129,32,24,57,288,38,28,22,066,31*7D

[1499590805236]$GPGLL,5355.75564,N,02729.31257,E,060005.00,A,A*65

[1499590806237]$GPRMC,060006.00,A,5355.75564,N,02729.31256,E,0.049,,090717,,,A*7B

[1499590806237]$GPVTG,,T,,M,0.049,N,0.091,K,A*26

[1499590806237]$GPGGA,060006.00,5355.75564,N,02729.31256,E,1,10,0.89,215.1,M,25.0,M,,*52

[1499590806237]$GPGSA,A,3,15,24,17,19,12,13,28,01,10,18,,,1.74,0.89,1.50*0B

[1499590806237]$GPGSV,3,1,12,01,13,033,21,06,01,130,,10,12,311,24,11,03,022,24*7F

[1499590806237]$GPGSV,3,2,12,12,29,246,20,13,26,180,29,15,42,223,42,17,53,084,34*79

[1499590806237]$GPGSV,3,3,12,18,07,286,20,19,54,129,32,24,57,288,38,28,22,066,31*7D

[1499590806237]$GPGLL,5355.75564,N,02729.31256,E,060006.00,A,A*67

[1499590807236]$GPRMC,060007.00,A,5355.75565,N,02729.31258,E,0.028,,090717,,,A*72

[1499590807236]$GPVTG,,T,,M,0.028,N,0.051,K,A*2D

[1499590807236]$GPGGA,060007.00,5355.75565,N,02729.31258,E,1,10,0.89,215.1,M,25.0,M,,*5C

[1499590807236]$GPGSA,A,3,15,24,17,19,12,13,28,01,10,18,,,1.74,0.89,1.50*0B

[1499590807236]$GPGSV,3,1,12,01,13,033,21,06,01,130,,10,12,311,24,11,03,022,24*7F

[1499590807236]$GPGSV,3,2,12,12,29,246,20,13,26,180,29,15,42,223,42,17,53,084,34*79

[1499590807236]$GPGSV,3,3,12,18,07,286,20,19,54,129,32,24,57,288,38,28,22,066,31*7D

[1499590807236]$GPGLL,5355.75565,N,02729.31258,E,060007.00,A,A*69

[1499590808236]$GPRMC,060008.00,A,5355.75566,N,02729.31259,E,0.076,,090717,,,A*74

[1499590808236]$GPVTG,,T,,M,0.076,N,0.140,K,A*27

[1499590808236]$GPGGA,060008.00,5355.75566,N,02729.31259,E,1,10,0.89,215.0,M,25.0,M,,*50

[1499590808236]$GPGSA,A,3,15,24,17,19,12,13,28,01,10,18,,,1.74,0.89,1.50*0B

[1499590808236]$GPGSV,3,1,12,01,13,033,21,06,01,130,,10,12,311,25,11,03,022,25*7F

[1499590808236]$GPGSV,3,2,12,12,29,246,20,13,26,180,29,15,42,223,42,17,53,084,34*79

[1499590808236]$GPGSV,3,3,12,18,07,286,20,19,54,129,32,24,57,288,38,28,22,066,31*7D

[1499590808236]$GPGLL,5355.75566,N,02729.31259,E,060008.00,A,A*64

[1499590809236]$GPRMC,060009.00,A,5355.75567,N,02729.31256,E,0.111,,090717,,,A*7B

[1499590809236]$GPVTG,,T,,M,0.111,N,0.206,K,A*26

[1499590809236]$GPGGA,060009.00,5355.75567,N,02729.31256,E,1,10,0.89,214.9,M,25.0,M,,*57

[1499590809236]$GPGSA,A,3,15,24,17,19,12,13,28,01,10,18,,,1.74,0.89,1.50*0B

[1499590809236]$GPGSV,3,1,12,01,13,033,22,06,01,130,,10,12,311,24,11,03,022,25*7D

[1499590809236]$GPGSV,3,2,12,12,29,246,20,13,26,180,30,15,42,223,42,17,53,084,34*71

[1499590809236]$GPGSV,3,3,12,18,07,286,20,19,54,129,32,24,57,288,38,28,22,066,31*7D

[1499590809236]$GPGLL,5355.75567,N,02729.31256,E,060009.00,A,A*6B

[1499590810236]$GPRMC,060010.00,A,5355.75567,N,02729.31257,E,0.061,,090717,,,A*74

[1499590810236]$GPVTG,,T,,M,0.061,N,0.113,K,A*27

[1499590810236]$GPGGA,060010.00,5355.75567,N,02729.31257,E,1,10,0.89,214.9,M,25.0,M,,*5E

[1499590810236]$GPGSA,A,3,15,24,17,19,12,13,28,01,10,18,,,1.74,0.89,1.50*0B

[1499590810236]$GPGSV,3,1,12,01,13,033,21,06,01,130,,10,12,311,25,11,03,022,25*7F

[1499590810236]$GPGSV,3,2,12,12,29,246,19,13,26,180,30,15,42,223,41,17,53,084,34*78

[1499590810236]$GPGSV,3,3,12,18,07,286,20,19,54,129,32,24,57,288,38,28,22,066,31*7D

[1499590810236]$GPGLL,5355.75567,N,02729.31257,E,060010.00,A,A*62

[1499590811238]$GPRMC,060011.00,A,5355.75568,N,02729.31258,E,0.070,,090717,,,A*75

[1499590811238]$GPVTG,,T,,M,0.070,N,0.130,K,A*26

[1499590811238]$GPGGA,060011.00,5355.75568,N,02729.31258,E,1,10,0.89,215.0,M,25.0,M,,*57

[1499590811238]$GPGSA,A,3,15,24,17,19,12,13,28,01,10,18,,,1.74,0.89,1.50*0B

[1499590811238]$GPGSV,3,1,12,01,13,033,21,06,01,130,,10,12,311,24,11,03,022,25*7E

[1499590811238]$GPGSV,3,2,12,12,29,246,19,13,26,180,30,15,42,223,41,17,53,084,34*78

[1499590811238]$GPGSV,3,3,12,18,07,286,19,19,54,129,32,24,57,288,38,28,22,066,31*77

[1499590811238]$GPGLL,5355.75568,N,02729.31258,E,060011.00,A,A*63

[1499590812237]$GPRMC,060012.00,A,5355.75569,N,02729.31258,E,0.054,,090717,,,A*71

[1499590812237]$GPVTG,,T,,M,0.054,N,0.100,K,A*23

[1499590812237]$GPGGA,060012.00,5355.75569,N,02729.31258,E,1,10,0.89,214.9,M,25.0,M,,*5D

[1499590812237]$GPGSA,A,3,15,24,17,19,12,13,28,01,10,18,,,1.74,0.89,1.50*0B

[1499590812237]$GPGSV,3,1,12,01,13,033,21,06,01,130,,10,12,311,24,11,03,022,24*7F

[1499590812237]$GPGSV,3,2,12,12,29,246,19,13,26,180,30,15,42,223,42,17,53,084,34*7B

[1499590812237]$GPGSV,3,3,12,18,07,286,19,19,54,129,32,24,57,288,38,28,22,066,31*77

[1499590812237]$GPGLL,5355.75569,N,02729.31258,E,060012.00,A,A*61

[1499590813236]$GPRMC,060013.00,A,5355.75567,N,02729.31259,E,0.023,,090717,,,A*7F

[1499590813236]$GPVTG,,T,,M,0.023,N,0.043,K,A*25

[1499590813236]$GPGGA,060013.00,5355.75567,N,02729.31259,E,1,10,0.89,214.7,M,25.0,M,,*5D

[1499590813236]$GPGSA,A,3,15,24,17,19,12,13,28,01,10,18,,,1.74,0.89,1.50*0B

[1499590813236]$GPGSV,3,1,12,01,13,033,21,06,01,130,,10,12,311,24,11,03,022,24*7F

[1499590813236]$GPGSV,3,2,12,12,29,246,19,13,26,180,30,15,42,223,41,17,53,084,34*78

[1499590813236]$GPGSV,3,3,12,18,07,286,19,19,54,129,33,24,57,288,38,28,22,066,31*76

[1499590813236]$GPGLL,5355.75567,N,02729.31259,E,060013.00,A,A*6F

[1499590814236]$GPRMC,060014.00,A,5355.75564,N,02729.31259,E,0.054,,090717,,,A*7B

[1499590814236]$GPVTG,,T,,M,0.054,N,0.100,K,A*23

[1499590814236]$GPGGA,060014.00,5355.75564,N,02729.31259,E,1,10,0.89,214.6,M,25.0,M,,*58

[1499590814236]$GPGSA,A,3,15,24,17,19,12,13,28,01,10,18,,,1.74,0.89,1.50*0B

[1499590814236]$GPGSV,3,1,12,01,13,032,20,06,01,130,,10,12,311,25,11,03,022,24*7E

[1499590814236]$GPGSV,3,2,12,12,29,246,19,13,26,180,30,15,42,223,41,17,53,084,34*78

[1499590814236]$GPGSV,3,3,12,18,07,286,18,19,54,129,33,24,57,288,38,28,22,066,31*77

[1499590814236]$GPGLL,5355.75564,N,02729.31259,E,060014.00,A,A*6B

[1499590815236]$GPRMC,060015.00,A,5355.75561,N,02729.31256,E,0.145,,090717,,,A*71

[1499590815236]$GPVTG,,T,,M,0.145,N,0.269,K,A*2E

[1499590815236]$GPGGA,060015.00,5355.75561,N,02729.31256,E,1,10,0.89,214.3,M,25.0,M,,*56

[1499590815236]$GPGSA,A,3,15,24,17,19,12,13,28,01,10,18,,,1.74,0.89,1.50*0B

[1499590815236]$GPGSV,3,1,12,01,13,032,20,06,01,130,,10,12,311,25,11,03,022,25*7F

[1499590815236]$GPGSV,3,2,12,12,29,246,19,13,26,180,30,15,42,223,41,17,53,084,34*78

[1499590815236]$GPGSV,3,3,12,18,07,286,18,19,54,129,33,24,57,288,38,28,22,066,31*77

[1499590815236]$GPGLL,5355.75561,N,02729.31256,E,060015.00,A,A*60

