[1499590598643]ªª²šÂr‚‚bªšªªrºªº²šb55AMAMY

[1499590598643]AMY	AMYA119ÿ[1499590599636]$GPRMC,055639.00,A,5355.75762,N,02729.31112,E,0.077,,090717,,,A*7D

[1499590599636]$GPVTG,,T,,M,0.077,N,0.142,K,A*24

[1499590599636]$GPGGA,055639.00,5355.75762,N,02729.31112,E,1,10,0.91,232.2,M,25.0,M,,*56

[1499590599636]$GPGSA,A,3,24,17,19,15,12,13,28,01,10,18,,,1.81,0.91,1.57*0F

[1499590599636]$GPGSV,3,1,12,01,13,034,22,06,00,131,,10,12,312,22,11,04,023,19*76

[1499590599636]$GPGSV,3,2,12,12,28,246,31,13,28,180,22,15,43,224,41,17,54,087,32*7A

[1499590599636]$GPGSV,3,3,12,18,08,287,23,19,53,131,23,24,56,289,32,28,23,066,27*72

[1499590599636]$GPGLL,5355.75762,N,02729.31112,E,055639.00,A,A*6C

[1499590600636]$GPRMC,055640.00,A,5355.75765,N,02729.31114,E,0.102,,090717,,,A*71

[1499590600636]$GPVTG,,T,,M,0.102,N,0.190,K,A*28

[1499590600636]$GPGGA,055640.00,5355.75765,N,02729.31114,E,1,10,0.91,232.2,M,25.0,M,,*59

[1499590600636]$GPGSA,A,3,24,17,19,15,12,13,28,01,10,18,,,1.81,0.91,1.57*0F

[1499590600636]$GPGSV,3,1,12,01,13,034,22,06,00,131,,10,12,312,22,11,04,023,19*76

[1499590600636]$GPGSV,3,2,12,12,28,246,31,13,28,180,21,15,43,224,41,17,54,087,32*79

[1499590600636]$GPGSV,3,3,12,18,08,287,23,19,53,131,23,24,56,289,32,28,23,066,27*72

[1499590600636]$GPGLL,5355.75765,N,02729.31114,E,055640.00,A,A*63

[1499590601636]$GPRMC,055641.00,A,5355.75764,N,02729.31115,E,0.064,,090717,,,A*71

[1499590601636]$GPVTG,,T,,M,0.064,N,0.119,K,A*28

[1499590601636]$GPGGA,055641.00,5355.75764,N,02729.31115,E,1,10,0.91,232.1,M,25.0,M,,*5B

[1499590601636]$GPGSA,A,3,24,17,19,15,12,13,28,01,10,18,,,1.81,0.91,1.57*0F

[1499590601636]$GPGSV,3,1,12,01,13,034,22,06,00,131,,10,12,312,22,11,04,023,19*76

[1499590601636]$GPGSV,3,2,12,12,28,246,31,13,28,180,21,15,43,224,41,17,54,087,32*79

[1499590601636]$GPGSV,3,3,12,18,08,287,23,19,53,131,23,24,56,289,32,28,23,066,27*72

[1499590601636]$GPGLL,5355.75764,N,02729.31115,E,055641.00,A,A*62

[1499590602636]$GPRMC,055642.00,A,5355.75765,N,02729.31116,E,0.121,,090717,,,A*70

[1499590602636]$GPVTG,,T,,M,0.121,N,0.224,K,A*25

[1499590602636]$GPGGA,055642.00,5355.75765,N,02729.31116,E,1,10,0.91,231.9,M,25.0,M,,*51

[1499590602636]$GPGSA,A,3,24,17,19,15,12,13,28,01,10,18,,,1.81,0.91,1.57*0F

[1499590602636]$GPGSV,3,1,12,01,13,034,22,06,00,131,,10,12,312,22,11,04,023,18*77

[1499590602636]$GPGSV,3,2,12,12,28,246,31,13,28,180,20,15,43,224,41,17,54,087,32*78

[1499590602636]$GPGSV,3,3,12,18,08,287,23,19,53,131,23,24,56,289,32,28,23,066,27*72

[1499590602636]$GPGLL,5355.75765,N,02729.31116,E,055642.00,A,A*63

[1499590603636]$GPRMC,055643.00,A,5355.75763,N,02729.31123,E,0.192,,090717,,,A*79

[1499590603636]$GPVTG,,T,,M,0.192,N,0.356,K,A*29

[1499590603636]$GPGGA,055643.00,5355.75763,N,02729.31123,E,1,10,0.91,231.7,M,25.0,M,,*5E

[1499590603636]$GPGSA,A,3,24,17,19,15,12,13,28,01,10,18,,,1.81,0.91,1.57*0F

[1499590603636]$GPGSV,3,1,12,01,13,034,22,06,00,131,,10,12,312,22,11,04,023,18*77

[1499590603636]$GPGSV,3,2,12,12,28,246,31,13,28,180,20,15,43,224,41,17,54,087,32*78

[1499590603636]$GPGSV,3,3,12,18,08,287,23,19,53,131,23,24,56,289,32,28,23,066,27*72

[1499590603636]$GPGLL,5355.75763,N,02729.31123,E,055643.00,A,A*62

[1499590604637]$GPRMC,055644.00,A,5355.75765,N,02729.31125,E,0.058,,090717,,,A*79

[1499590604637]$GPVTG,,T,,M,0.058,N,0.108,K,A*27

[1499590604637]$GPGGA,055644.00,5355.75765,N,02729.31125,E,1,10,0.91,231.4,M,25.0,M,,*5A

[1499590604637]$GPGSA,A,3,24,17,19,15,12,13,28,01,10,18,,,1.81,0.91,1.57*0F

[1499590604637]$GPGSV,3,1,12,01,13,034,22,06,00,131,,10,12,312,22,11,04,023,18*77

[1499590604637]$GPGSV,3,2,12,12,28,246,31,13,28,180,21,15,43,224,41,17,54,087,33*78

[1499590604637]$GPGSV,3,3,12,18,08,287,23,19,53,131,22,24,56,289,32,28,23,066,27*73

[1499590604637]$GPGLL,5355.75765,N,02729.31125,E,055644.00,A,A*65

[1499590605636]$GPRMC,055645.00,A,5355.75767,N,02729.31126,E,0.034,,090717,,,A*73

[1499590605636]$GPVTG,,T,,M,0.034,N,0.063,K,A*21

[1499590605636]$GPGGA,055645.00,5355.75767,N,02729.31126,E,1,10,0.91,231.3,M,25.0,M,,*5D

[1499590605636]$GPGSA,A,3,24,17,19,15,12,13,28,01,10,18,,,1.81,0.91,1.57*0F

[1499590605636]$GPGSV,3,1,12,01,13,034,21,06,00,131,,10,12,312,22,11,04,023,18*74

[1499590605636]$GPGSV,3,2,12,12,28,246,32,13,28,180,22,15,43,224,41,17,54,087,33*78

[1499590605636]$GPGSV,3,3,12,18,08,287,24,19,53,131,21,24,56,289,33,28,23,066,28*79

[1499590605636]$GPGLL,5355.75767,N,02729.31126,E,055645.00,A,A*65

[1499590606627]$GPRMC,055646.00,A,5355.75772,N,02729.31123,E,0.070,,090717,,,A*71

[1499590606627]$GPVTG,,T,,M,0.070,N,0.131,K,A*27

[1499590606627]$GPGGA,055646.00,5355.75772,N,02729.31123,E,1,10,0.90,231.3,M,25.0,M,,*5E

[1499590606627]$GPGSA,A,3,24,17,19,15,12,13,28,01,10,18,,,1.81,0.90,1.57*0E

[1499590606627]$GPGSV,3,1,12,01,13,034,21,06,00,131,,10,12,312,21,11,04,023,19*76

[1499590606627]$GPGSV,3,2,12,12,28,246,31,13,28,180,23,15,43,224,41,17,54,087,34*7D

[1499590606627]$GPGSV,3,3,12,18,08,287,23,19,53,131,21,24,56,289,36,28,23,066,29*7A

[1499590606627]$GPGLL,5355.75772,N,02729.31123,E,055646.00,A,A*67

[1499590607636]$GPRMC,055647.00,A,5355.75774,N,02729.31121,E,0.160,,090717,,,A*74

[1499590607636]$GPVTG,,T,,M,0.160,N,0.297,K,A*28

[1499590607636]$GPGGA,055647.00,5355.75774,N,02729.31121,E,1,10,0.90,231.1,M,25.0,M,,*59

[1499590607636]$GPGSA,A,3,24,17,19,15,12,13,28,01,10,18,,,1.81,0.90,1.57*0E

[1499590607636]$GPGSV,3,1,12,01,13,034,21,06,00,131,,10,12,312,21,11,04,023,19*76

[1499590607636]$GPGSV,3,2,12,12,28,246,30,13,28,180,25,15,43,224,40,17,54,087,34*7B

[1499590607636]$GPGSV,3,3,12,18,08,287,23,19,53,131,22,24,56,289,35,28,23,066,28*7B

[1499590607636]$GPGLL,5355.75774,N,02729.31121,E,055647.00,A,A*62

[1499590608636]$GPRMC,055648.00,A,5355.75777,N,02729.31120,E,0.104,,090717,,,A*7B

[1499590608636]$GPVTG,,T,,M,0.104,N,0.192,K,A*2C

[1499590608636]$GPGGA,055648.00,5355.75777,N,02729.31120,E,1,10,0.90,230.9,M,25.0,M,,*5D

[1499590608636]$GPGSA,A,3,24,17,19,15,12,13,28,01,10,18,,,1.81,0.90,1.57*0E

[1499590608636]$GPGSV,3,1,12,01,13,034,21,06,00,131,,10,12,312,20,11,04,023,19*77

[1499590608636]$GPGSV,3,2,12,12,28,246,32,13,28,180,26,15,43,224,42,17,54,087,34*78

[1499590608636]$GPGSV,3,3,12,18,08,287,23,19,53,131,30,24,56,289,34,28,23,066,27*76

[1499590608636]$GPGLL,5355.75777,N,02729.31120,E,055648.00,A,A*6F

[1499590609636]$GPRMC,055649.00,A,5355.75771,N,02729.31123,E,0.143,,090717,,,A*7C

[1499590609636]$GPVTG,,T,,M,0.143,N,0.264,K,A*25

[1499590609636]$GPGGA,055649.00,5355.75771,N,02729.31123,E,1,10,0.90,231.0,M,25.0,M,,*51

[1499590609636]$GPGSA,A,3,24,17,19,15,12,13,28,01,10,18,,,1.81,0.90,1.57*0E

[1499590609636]$GPGSV,3,1,12,01,13,034,19,06,00,131,,10,12,312,19,11,04,023,18*77

[1499590609636]$GPGSV,3,2,12,12,28,246,28,13,28,180,26,15,43,224,42,17,54,087,34*73

[1499590609636]$GPGSV,3,3,12,18,08,287,23,19,53,131,29,24,56,289,34,28,23,066,27*7E

[1499590609636]$GPGLL,5355.75771,N,02729.31123,E,055649.00,A,A*6B

[1499590610636]$GPRMC,055650.00,A,5355.75768,N,02729.31124,E,0.021,,090717,,,A*7E

[1499590610636]$GPVTG,,T,,M,0.021,N,0.039,K,A*2A

[1499590610636]$GPGGA,055650.00,5355.75768,N,02729.31124,E,1,10,0.90,230.8,M,25.0,M,,*5F

[1499590610636]$GPGSA,A,3,24,17,19,15,12,13,28,01,10,18,,,1.81,0.90,1.57*0E

[1499590610636]$GPGSV,3,1,12,01,13,034,18,06,00,131,,10,12,312,18,11,04,023,18*77

[1499590610636]$GPGSV,3,2,12,12,28,246,32,13,28,180,27,15,43,224,42,17,54,087,34*79

[1499590610636]$GPGSV,3,3,12,18,08,287,23,19,53,131,28,24,56,289,34,28,23,066,27*7F

[1499590610636]$GPGLL,5355.75768,N,02729.31124,E,055650.00,A,A*6C

[1499590611637]$GPRMC,055651.00,A,5355.75764,N,02729.31128,E,0.086,,090717,,,A*72

[1499590611637]$GPVTG,,T,,M,0.086,N,0.158,K,A*21

[1499590611637]$GPGGA,055651.00,5355.75764,N,02729.31128,E,1,10,0.90,230.6,M,25.0,M,,*50

[1499590611637]$GPGSA,A,3,24,17,19,15,12,13,28,01,10,18,,,1.81,0.90,1.57*0E

[1499590611637]$GPGSV,3,1,12,01,13,034,17,06,00,131,,10,12,312,18,11,04,023,17*77

[1499590611637]$GPGSV,3,2,12,12,28,246,32,13,28,180,27,15,43,224,42,17,54,087,34*79

[1499590611637]$GPGSV,3,3,12,18,08,287,23,19,53,131,28,24,56,289,33,28,23,066,27*78

[1499590611637]$GPGLL,5355.75764,N,02729.31128,E,055651.00,A,A*6D

[1499590612636]$GPRMC,055652.00,A,5355.75760,N,02729.31133,E,0.032,,090717,,,A*70

[1499590612636]$GPVTG,,T,,M,0.032,N,0.059,K,A*2E

[1499590612636]$GPGGA,055652.00,5355.75760,N,02729.31133,E,1,10,0.90,230.5,M,25.0,M,,*5E

[1499590612636]$GPGSA,A,3,24,17,19,15,12,13,28,01,10,18,,,1.81,0.90,1.57*0E

[1499590612636]$GPGSV,3,1,12,01,13,034,17,06,00,131,,10,12,312,18,11,04,023,17*77

[1499590612636]$GPGSV,3,2,12,12,28,246,33,13,28,180,27,15,43,224,42,17,54,087,34*78

[1499590612636]$GPGSV,3,3,12,18,08,287,23,19,53,131,28,24,56,289,33,28,23,066,27*78

[1499590612636]$GPGLL,5355.75760,N,02729.31133,E,055652.00,A,A*60

[1499590613641]$GPRMC,055653.00,A,5355.75761,N,02729.31135,E,0.114,,090717,,,A*73

[1499590613641]$GPVTG,,T,,M,0.114,N,0.211,K,A*25

[1499590613641]$GPGGA,055653.00,5355.75761,N,02729.31135,E,1,10,0.90,230.3,M,25.0,M,,*5E

[1499590613641]$GPGSA,A,3,24,17,19,15,12,13,28,01,10,18,,,1.81,0.90,1.57*0E

[1499590613641]$GPGSV,3,1,12,01,13,034,17,06,00,131,,10,12,312,17,11,04,023,17*78

[1499590613641]$GPGSV,3,2,12,12,28,246,32,13,28,180,27,15,43,224,42,17,54,087,34*79

[1499590613641]$GPGSV,3,3,12,18,08,287,22,19,53,131,28,24,56,289,33,28,23,066,27*79

[1499590613641]$GPGLL,5355.75761,N,02729.31135,E,055653.00,A,A*66

[1499590614637]$GPRMC,055654.00,A,5355.75762,N,02729.31137,E,0.054,,090717,,,A*70

[1499590614637]$GPVTG,,T,,M,0.054,N,0.099,K,A*22

[1499590614637]$GPGGA,055654.00,5355.75762,N,02729.31137,E,1,10,0.90,230.0,M,25.0,M,,*5B

[1499590614637]$GPGSA,A,3,24,17,19,15,12,13,28,01,10,18,,,1.81,0.90,1.57*0E

[1499590614637]$GPGSV,3,1,12,01,13,034,16,06,00,131,,10,12,312,17,11,04,023,18*76

[1499590614637]$GPGSV,3,2,12,12,28,246,32,13,28,180,27,15,43,224,42,17,54,087,33*7E

[1499590614637]$GPGSV,3,3,12,18,08,287,22,19,53,131,28,24,56,289,33,28,23,066,27*79

[1499590614637]$GPGLL,5355.75762,N,02729.31137,E,055654.00,A,A*60

[1499590615637]$GPRMC,055655.00,A,5355.75760,N,02729.31139,E,0.023,,090717,,,A*7D

[1499590615637]$GPVTG,,T,,M,0.023,N,0.042,K,A*24

[1499590615637]$GPGGA,055655.00,5355.75760,N,02729.31139,E,1,10,0.90,230.0,M,25.0,M,,*56

[1499590615637]$GPGSA,A,3,24,17,19,15,12,13,28,01,10,18,,,1.81,0.90,1.56*0F

[1499590615637]$GPGSV,3,1,12,01,13,034,17,06,00,131,,10,12,312,16,11,04,023,18*76

[1499590615637]$GPGSV,3,2,12,12,28,246,32,13,28,180,27,15,43,224,42,17,54,087,33*7E

[1499590615637]$GPGSV,3,3,12,18,08,287,22,19,53,131,28,24,56,289,34,28,23,066,27*7E

[1499590615637]$GPGLL,5355.75760,N,02729.31139,E,055655.00,A,A*6D

[1499590616636]$GPRMC,055656.00,A,5355.75757,N,02729.31144,E,0.085,,090717,,,A*7C

[1499590616636]$GPVTG,,T,,M,0.085,N,0.157,K,A*2D

[1499590616636]$GPGGA,055656.00,5355.75757,N,02729.31144,E,1,10,0.90,230.0,M,25.0,M,,*5B

[1499590616636]$GPGSA,A,3,24,17,19,15,12,13,28,01,10,18,,,1.81,0.90,1.56*0F

[1499590616636]$GPGSV,3,1,12,01,13,034,16,06,00,131,,10,12,312,15,11,04,023,18*74

[1499590616636]$GPGSV,3,2,12,12,28,246,32,13,28,180,28,15,43,224,42,17,54,087,34*76

[1499590616636]$GPGSV,3,3,12,18,08,287,22,19,53,131,28,24,56,289,33,28,23,066,27*79

[1499590616636]$GPGLL,5355.75757,N,02729.31144,E,055656.00,A,A*60

[1499590617636]$GPRMC,055657.00,A,5355.75758,N,02729.31146,E,0.093,,090717,,,A*77

[1499590617636]$GPVTG,,T,,M,0.093,N,0.172,K,A*2D

[1499590617636]$GPGGA,055657.00,5355.75758,N,02729.31146,E,1,10,0.90,229.8,M,25.0,M,,*57

[1499590617636]$GPGSA,A,3,24,17,19,15,12,13,28,01,10,18,,,1.81,0.90,1.56*0F

[1499590617636]$GPGSV,3,1,12,01,13,034,16,06,00,131,,10,12,312,16,11,04,023,18*77

[1499590617636]$GPGSV,3,2,12,12,28,246,32,13,28,180,28,15,43,224,42,17,54,087,34*76

[1499590617636]$GPGSV,3,3,12,18,08,287,22,19,53,131,28,24,56,289,33,28,23,066,28*76

[1499590617636]$GPGLL,5355.75758,N,02729.31146,E,055657.00,A,A*6C

[1499590618636]$GPRMC,055658.00,A,5355.75759,N,02729.31147,E,0.062,,090717,,,A*76

[1499590618636]$GPVTG,,T,,M,0.062,N,0.115,K,A*22

[1499590618636]$GPGGA,055658.00,5355.75759,N,02729.31147,E,1,10,0.90,229.7,M,25.0,M,,*57

[1499590618636]$GPGSA,A,3,24,17,19,15,12,13,28,01,10,18,,,1.81,0.90,1.56*0F

[1499590618636]$GPGSV,3,1,12,01,13,034,16,06,00,131,,10,12,312,16,11,04,023,18*77

[1499590618636]$GPGSV,3,2,12,12,28,246,32,13,28,180,28,15,43,224,42,17,54,087,34*76

[1499590618636]$GPGSV,3,3,12,18,08,287,22,19,53,131,28,24,56,289,33,28,23,066,28*76

[1499590618636]$GPGLL,5355.75759,N,02729.31147,E,055658.00,A,A*63

[1499590619636]$GPRMC,055659.00,A,5355.75758,N,02729.31147,E,0.030,,090717,,,A*71

[1499590619636]$GPVTG,,T,,M,0.030,N,0.055,K,A*20

[1499590619636]$GPGGA,055659.00,5355.75758,N,02729.31147,E,1,10,0.90,229.6,M,25.0,M,,*56

[1499590619636]$GPGSA,A,3,24,17,19,15,12,13,28,01,10,18,,,1.81,0.90,1.56*0F

[1499590619636]$GPGSV,3,1,12,01,13,034,16,06,00,131,,10,12,312,17,11,04,023,17*79

[1499590619636]$GPGSV,3,2,12,12,28,246,32,13,28,180,28,15,43,224,42,17,54,087,34*76

[1499590619636]$GPGSV,3,3,12,18,08,287,20,19,53,131,28,24,56,289,33,28,23,066,27*7B

[1499590619636]$GPGLL,5355.75758,N,02729.31147,E,055659.00,A,A*63

[1499590620636]$GPRMC,055700.00,A,5355.75760,N,02729.31146,E,0.048,,090717,,,A*79

[1499590620636]$GPVTG,,T,,M,0.048,N,0.090,K,A*26

[1499590620636]$GPGGA,055700.00,5355.75760,N,02729.31146,E,1,10,0.90,229.6,M,25.0,M,,*51

[1499590620636]$GPGSA,A,3,24,17,19,15,12,13,28,01,10,18,,,1.81,0.90,1.56*0F

[1499590620636]$GPGSV,3,1,12,01,13,034,15,06,00,131,,10,12,312,17,11,04,023,17*7A

[1499590620636]$GPGSV,3,2,12,12,28,246,32,13,28,180,28,15,43,224,42,17,54,087,34*76

[1499590620636]$GPGSV,3,3,12,18,08,287,20,19,53,131,28,24,56,289,33,28,23,066,27*7B

[1499590620636]$GPGLL,5355.75760,N,02729.31146,E,055700.00,A,A*64

[1499590621637]$GPRMC,055701.00,A,5355.75762,N,02729.31145,E,0.052,,090717,,,A*72

[1499590621637]$GPVTG,,T,,M,0.052,N,0.096,K,A*2B

[1499590621637]$GPGGA,055701.00,5355.75762,N,02729.31145,E,1,10,0.90,229.4,M,25.0,M,,*53

[1499590621637]$GPGSA,A,3,24,17,19,15,12,13,28,01,10,18,,,1.81,0.90,1.56*0F

[1499590621637]$GPGSV,3,1,12,01,13,034,15,06,00,131,,10,12,312,17,11,04,023,17*7A

[1499590621637]$GPGSV,3,2,12,12,28,246,32,13,28,180,28,15,43,224,42,17,54,087,34*76

[1499590621637]$GPGSV,3,3,12,18,08,287,19,19,53,131,27,24,56,289,33,28,23,066,27*7E

[1499590621637]$GPGLL,5355.75762,N,02729.31145,E,055701.00,A,A*64

[1499590622636]$GPRMC,055702.00,A,5355.75762,N,02729.31146,E,0.016,,090717,,,A*72

[1499590622636]$GPVTG,,T,,M,0.016,N,0.029,K,A*2F

[1499590622636]$GPGGA,055702.00,5355.75762,N,02729.31146,E,1,10,0.90,229.4,M,25.0,M,,*53

[1499590622636]$GPGSA,A,3,24,17,19,15,12,13,28,01,10,18,,,1.81,0.90,1.56*0F

[1499590622636]$GPGSV,3,1,12,01,13,034,15,06,00,131,,10,12,312,18,11,04,023,17*75

[1499590622636]$GPGSV,3,2,12,12,28,246,31,13,28,180,28,15,43,224,42,17,54,087,34*75

[1499590622636]$GPGSV,3,3,12,18,08,287,19,19,53,131,27,24,56,289,33,28,23,066,27*7E

[1499590622636]$GPGLL,5355.75762,N,02729.31146,E,055702.00,A,A*64

[1499590623643]$GPRMC,055703.00,A,5355.75765,N,02729.31143,E,0.129,,090717,,,A*7C

[1499590623643]$GPVTG,,T,,M,0.129,N,0.240,K,A*2F

[1499590623643]$GPGGA,055703.00,5355.75765,N,02729.31143,E,1,10,0.90,229.2,M,25.0,M,,*56

[1499590623643]$GPGSA,A,3,24,17,19,15,12,13,28,01,10,18,,,1.80,0.90,1.56*0E

[1499590623643]$GPGSV,3,1,12,01,13,034,15,06,00,131,,10,12,312,18,11,04,023,17*75

[1499590623643]$GPGSV,3,2,12,12,28,246,31,13,28,180,28,15,43,224,42,17,54,087,34*75

[1499590623643]$GPGSV,3,3,12,18,08,287,19,19,53,131,26,24,56,289,33,28,23,066,27*7F

[1499590623643]$GPGLL,5355.75765,N,02729.31143,E,055703.00,A,A*67

[1499590624632]$GPRMC,055704.00,A,5355.75766,N,02729.31143,E,0.043,,090717,,,A*75

[1499590624632]$GPVTG,,T,,M,0.043,N,0.080,K,A*2C

[1499590624632]$GPGGA,055704.00,5355.75766,N,02729.31143,E,1,10,0.90,229.2,M,25.0,M,,*52

[1499590624632]$GPGSA,A,3,24,17,19,15,12,13,28,01,10,18,,,1.80,0.90,1.56*0E

[1499590624632]$GPGSV,3,1,12,01,13,034,14,06,00,131,,10,12,312,18,11,04,023,17*74

[1499590624632]$GPGSV,3,2,12,12,28,246,31,13,28,180,28,15,43,224,42,17,54,087,34*75

[1499590624632]$GPGSV,3,3,12,18,08,287,20,19,53,131,26,24,56,289,33,28,23,066,27*75

[1499590624632]$GPGLL,5355.75766,N,02729.31143,E,055704.00,A,A*63

[1499590625636]$GPRMC,055705.00,A,5355.75765,N,02729.31146,E,0.096,,090717,,,A*7A

[1499590625636]$GPVTG,,T,,M,0.096,N,0.178,K,A*22

[1499590625636]$GPGGA,055705.00,5355.75765,N,02729.31146,E,1,10,0.90,229.3,M,25.0,M,,*54

[1499590625636]$GPGSA,A,3,24,17,19,15,12,13,28,01,10,18,,,1.80,0.90,1.56*0E

[1499590625636]$GPGSV,3,1,12,01,13,034,14,06,00,131,,10,12,312,18,11,04,023,17*74

[1499590625636]$GPGSV,3,2,12,12,28,246,31,13,28,180,27,15,43,224,42,17,54,087,34*7A

[1499590625636]$GPGSV,3,3,12,18,08,287,20,19,53,131,26,24,56,289,33,28,23,066,27*75

[1499590625636]$GPGLL,5355.75765,N,02729.31146,E,055705.00,A,A*64

[1499590626638]$GPRMC,055706.00,A,5355.75769,N,02729.31147,E,0.106,,090717,,,A*7C

[1499590626638]$GPVTG,,T,,M,0.106,N,0.196,K,A*2A

[1499590626638]$GPGGA,055706.00,5355.75769,N,02729.31147,E,1,10,0.90,229.1,M,25.0,M,,*58

[1499590626638]$GPGSA,A,3,24,17,19,15,12,13,28,01,10,18,,,1.80,0.90,1.56*0E

[1499590626638]$GPGSV,3,1,12,01,13,034,15,06,00,131,,10,12,312,18,11,03,023,17*72

[1499590626638]$GPGSV,3,2,12,12,28,246,31,13,28,180,27,15,43,224,42,17,54,087,34*7A

[1499590626638]$GPGSV,3,3,12,18,08,287,20,19,53,131,26,24,56,289,33,28,23,066,28*7A

[1499590626638]$GPGLL,5355.75769,N,02729.31147,E,055706.00,A,A*6A

[1499590627636]$GPRMC,055707.00,A,5355.75769,N,02729.31153,E,0.157,,090717,,,A*7C

[1499590627636]$GPVTG,,T,,M,0.157,N,0.290,K,A*2B

[1499590627636]$GPGGA,055707.00,5355.75769,N,02729.31153,E,1,10,0.90,229.2,M,25.0,M,,*5F

[1499590627636]$GPGSA,A,3,24,17,19,15,12,13,28,01,10,18,,,1.80,0.90,1.56*0E

[1499590627636]$GPGSV,3,1,12,01,13,034,16,06,00,131,,10,12,312,19,11,03,023,17*70

[1499590627636]$GPGSV,3,2,12,12,28,246,31,13,28,180,27,15,43,224,42,17,54,087,33*7D

[1499590627636]$GPGSV,3,3,12,18,08,287,19,19,53,131,26,24,56,289,33,28,23,066,28*70

[1499590627636]$GPGLL,5355.75769,N,02729.31153,E,055707.00,A,A*6E

[1499590628638]$GPRMC,055708.00,A,5355.75771,N,02729.31157,E,0.031,,090717,,,A*7F

[1499590628638]$GPVTG,,T,,M,0.031,N,0.057,K,A*23

[1499590628638]$GPGGA,055708.00,5355.75771,N,02729.31157,E,1,10,0.90,229.0,M,25.0,M,,*5F

[1499590628638]$GPGSA,A,3,24,17,19,15,12,13,28,01,10,18,,,1.80,0.90,1.56*0E

[1499590628638]$GPGSV,3,1,12,01,13,034,16,06,00,131,,10,12,312,19,11,03,023,17*70

[1499590628638]$GPGSV,3,2,12,12,28,246,31,13,27,180,27,15,43,224,42,17,54,087,33*72

[1499590628638]$GPGSV,3,3,12,18,08,287,20,19,53,131,26,24,56,289,33,28,23,066,28*7A

[1499590628638]$GPGLL,5355.75771,N,02729.31157,E,055708.00,A,A*6C

[1499590629636]$GPRMC,055709.00,A,5355.75776,N,02729.31157,E,0.081,,090717,,,A*72

[1499590629636]$GPVTG,,T,,M,0.081,N,0.150,K,A*2E

[1499590629636]$GPGGA,055709.00,5355.75776,N,02729.31157,E,1,10,0.90,228.9,M,25.0,M,,*51

[1499590629636]$GPGSA,A,3,24,17,19,15,12,13,28,01,10,18,,,1.80,0.90,1.56*0E

[1499590629636]$GPGSV,3,1,12,01,13,034,16,06,00,131,,10,12,312,19,11,03,023,17*70

[1499590629636]$GPGSV,3,2,12,12,28,246,31,13,27,180,27,15,43,224,41,17,54,087,33*71

[1499590629636]$GPGSV,3,3,12,18,08,287,20,19,53,131,26,24,56,289,33,28,23,066,28*7A

[1499590629636]$GPGLL,5355.75776,N,02729.31157,E,055709.00,A,A*6A

[1499590630636]$GPRMC,055710.00,A,5355.75779,N,02729.31157,E,0.017,,090717,,,A*7A

[1499590630636]$GPVTG,,T,,M,0.017,N,0.031,K,A*27

[1499590630636]$GPGGA,055710.00,5355.75779,N,02729.31157,E,1,10,0.90,228.9,M,25.0,M,,*56

[1499590630636]$GPGSA,A,3,24,17,19,15,12,13,28,01,10,18,,,1.80,0.90,1.56*0E

[1499590630636]$GPGSV,3,1,12,01,13,034,17,06,00,131,,10,12,312,18,11,03,023,16*71

[1499590630636]$GPGSV,3,2,12,12,28,246,30,13,27,180,27,15,43,224,42,17,54,087,33*73

[1499590630636]$GPGSV,3,3,12,18,08,287,20,19,53,131,26,24,56,289,33,28,23,066,28*7A

[1499590630636]$GPGLL,5355.75779,N,02729.31157,E,055710.00,A,A*6D

[1499590631637]$GPRMC,055711.00,A,5355.75784,N,02729.31157,E,0.056,,090717,,,A*7C

[1499590631637]$GPVTG,,T,,M,0.056,N,0.103,K,A*22

[1499590631637]$GPGGA,055711.00,5355.75784,N,02729.31157,E,1,10,0.90,228.6,M,25.0,M,,*5A

[1499590631637]$GPGSA,A,3,24,17,19,15,12,13,28,01,10,18,,,1.80,0.90,1.56*0E

[1499590631637]$GPGSV,3,1,12,01,13,034,18,06,00,131,,10,12,312,19,11,03,023,17*7E

[1499590631637]$GPGSV,3,2,12,12,28,246,30,13,27,180,27,15,43,224,42,17,54,087,34*74

[1499590631637]$GPGSV,3,3,12,18,08,287,19,19,53,131,26,24,56,289,34,28,23,066,28*77

[1499590631637]$GPGLL,5355.75784,N,02729.31157,E,055711.00,A,A*6E

[1499590632636]$GPRMC,055712.00,A,5355.75792,N,02729.31156,E,0.130,,090717,,,A*78

[1499590632636]$GPVTG,,T,,M,0.130,N,0.242,K,A*25

[1499590632636]$GPGGA,055712.00,5355.75792,N,02729.31156,E,1,10,0.90,228.4,M,25.0,M,,*5D

[1499590632636]$GPGSA,A,3,24,17,19,15,12,13,28,01,10,18,,,1.80,0.90,1.56*0E

[1499590632636]$GPGSV,3,1,12,01,13,034,19,06,00,131,,10,12,312,20,11,03,023,17*75

[1499590632636]$GPGSV,3,2,12,12,28,246,27,13,27,180,27,15,43,224,40,17,54,086,33*76

[1499590632636]$GPGSV,3,3,12,18,08,287,19,19,53,131,26,24,56,289,34,28,23,066,29*76

[1499590632636]$GPGLL,5355.75792,N,02729.31156,E,055712.00,A,A*6B

[1499590633636]$GPRMC,055713.00,A,5355.75797,N,02729.31155,E,0.112,,090717,,,A*7F

[1499590633636]$GPVTG,,T,,M,0.112,N,0.208,K,A*2B

[1499590633636]$GPGGA,055713.00,5355.75797,N,02729.31155,E,1,10,0.90,228.1,M,25.0,M,,*5F

[1499590633636]$GPGSA,A,3,24,17,19,15,12,13,28,01,10,18,,,1.80,0.90,1.56*0E

[1499590633636]$GPGSV,3,1,12,01,13,034,20,06,00,131,,10,12,312,21,11,03,023,18*71

[1499590633636]$GPGSV,3,2,12,12,28,246,27,13,27,180,24,15,43,224,41,17,54,086,34*73

[1499590633636]$GPGSV,3,3,12,18,08,287,18,19,53,131,24,24,56,289,34,28,23,066,30*7D

[1499590633636]$GPGLL,5355.75797,N,02729.31155,E,055713.00,A,A*6C

[1499590634636]$GPRMC,055714.00,A,5355.75798,N,02729.31157,E,0.082,,090717,,,A*7D

[1499590634636]$GPVTG,,T,,M,0.082,N,0.152,K,A*2F

[1499590634636]$GPGGA,055714.00,5355.75798,N,02729.31157,E,1,10,0.90,227.8,M,25.0,M,,*53

[1499590634636]$GPGSA,A,3,24,17,19,15,12,13,28,01,10,18,,,1.80,0.90,1.56*0E

[1499590634636]$GPGSV,3,1,12,01,13,034,20,06,00,131,,10,12,312,22,11,03,023,19*73

[1499590634636]$GPGSV,3,2,12,12,28,246,28,13,27,180,27,15,43,224,40,17,54,086,35*7F

[1499590634636]$GPGSV,3,3,12,18,08,287,18,19,53,131,21,24,56,289,34,28,23,066,29*70

[1499590634636]$GPGLL,5355.75798,N,02729.31157,E,055714.00,A,A*66

