[1499589018687]$GPRMC,053018.00,A,5358.07376,N,02729.83511,E,53.866,266.09,090717,,,A*52

[1499589018687]$GPVTG,266.09,T,,M,53.866,N,99.761,K,A*38

[1499589018687]$GPGGA,053018.00,5358.07376,N,02729.83511,E,1,12,0.75,205.7,M,24.9,M,,*53

[1499589018687]$GPGSA,A,3,10,24,01,30,17,13,19,11,18,28,15,12,1.54,0.75,1.35*0A

[1499589018687]$GPGSV,3,1,12,01,13,045,31,10,13,323,31,11,10,031,34,12,17,239,30*71

[1499589018687]$GPGSV,3,2,12,13,40,182,30,15,51,238,41,17,52,107,38,18,13,296,34*74

[1499589018687]$GPGSV,3,3,12,19,42,144,37,24,44,289,37,28,34,063,24,30,07,110,16*7D

[1499589018687]$GPGLL,5358.07376,N,02729.83511,E,053018.00,A,A*68

[1499589019687]$GPRMC,053019.00,A,5358.07270,N,02729.80982,E,53.936,265.74,090717,,,A*5C

[1499589019687]$GPVTG,265.74,T,,M,53.936,N,99.889,K,A*3C

[1499589019687]$GPGGA,053019.00,5358.07270,N,02729.80982,E,1,12,0.75,205.7,M,24.9,M,,*50

[1499589019687]$GPGSA,A,3,10,24,01,30,17,13,19,11,18,28,15,12,1.54,0.75,1.35*0A

[1499589019687]$GPGSV,3,1,12,01,13,045,32,10,13,323,31,11,10,031,34,12,17,239,29*7A

[1499589019687]$GPGSV,3,2,12,13,40,182,29,15,51,238,41,17,52,107,38,18,13,296,35*7D

[1499589019687]$GPGSV,3,3,12,19,42,144,37,24,44,289,37,28,34,063,24,30,07,110,18*73

[1499589019687]$GPGLL,5358.07270,N,02729.80982,E,053019.00,A,A*6B

[1499589020689]$GPRMC,053020.00,A,5358.07163,N,02729.78452,E,53.918,265.65,090717,,,A*5C

[1499589020689]$GPVTG,265.65,T,,M,53.918,N,99.856,K,A*32

[1499589020689]$GPGGA,053020.00,5358.07163,N,02729.78452,E,1,12,0.75,206.0,M,24.9,M,,*58

[1499589020689]$GPGSA,A,3,10,24,01,30,17,13,19,11,18,28,15,12,1.54,0.75,1.35*0A

[1499589020689]$GPGSV,3,1,12,01,13,045,32,10,13,323,31,11,10,031,34,12,17,239,29*7A

[1499589020689]$GPGSV,3,2,12,13,40,182,28,15,51,238,41,17,52,107,39,18,13,296,35*7D

[1499589020689]$GPGSV,3,3,12,19,42,144,37,24,44,289,36,28,34,063,24,30,07,110,17*7D

[1499589020689]$GPGLL,5358.07163,N,02729.78452,E,053020.00,A,A*67

[1499589021677]$GPRMC,053021.00,A,5358.07054,N,02729.75920,E,53.985,265.68,090717,,,A*54

[1499589021677]$GPVTG,265.68,T,,M,53.985,N,99.980,K,A*31

[1499589021677]$GPGGA,053021.00,5358.07054,N,02729.75920,E,1,12,0.75,206.2,M,24.9,M,,*5B

[1499589021677]$GPGSA,A,3,10,24,01,30,17,13,19,11,18,28,15,12,1.54,0.75,1.35*0A

[1499589021677]$GPGSV,3,1,12,01,13,045,31,10,13,323,31,11,10,031,34,12,17,239,29*79

[1499589021677]$GPGSV,3,2,12,13,40,182,28,15,51,238,41,17,52,107,39,18,13,296,35*7D

[1499589021677]$GPGSV,3,3,12,19,42,144,37,24,44,289,37,28,34,063,25,30,07,110,16*7C

[1499589021677]$GPGLL,5358.07054,N,02729.75920,E,053021.00,A,A*66

[1499589022686]$GPRMC,053022.00,A,5358.06946,N,02729.73388,E,53.962,265.71,090717,,,A*53

[1499589022686]$GPVTG,265.71,T,,M,53.962,N,99.937,K,A*3C

[1499589022686]$GPGGA,053022.00,5358.06946,N,02729.73388,E,1,12,0.75,206.3,M,24.9,M,,*5C

[1499589022686]$GPGSA,A,3,10,24,01,30,17,13,19,11,18,28,15,12,1.54,0.75,1.35*0A

[1499589022686]$GPGSV,3,1,12,01,13,045,32,10,13,323,30,11,10,031,34,12,17,239,29*7B

[1499589022686]$GPGSV,3,2,12,13,40,182,29,15,51,238,41,17,52,107,38,18,13,296,33*7B

[1499589022686]$GPGSV,3,3,12,19,42,144,37,24,44,289,37,28,34,063,22,30,07,110,14*79

[1499589022686]$GPGLL,5358.06946,N,02729.73388,E,053022.00,A,A*60

[1499589023678]$GPRMC,053023.00,A,5358.06836,N,02729.70855,E,53.969,265.66,090717,,,A*51

[1499589023678]$GPVTG,265.66,T,,M,53.969,N,99.951,K,A*31

[1499589023678]$GPGGA,053023.00,5358.06836,N,02729.70855,E,1,12,0.75,206.5,M,24.9,M,,*55

[1499589023678]$GPGSA,A,3,10,24,01,30,17,13,19,11,18,28,15,12,1.54,0.75,1.35*0A

[1499589023678]$GPGSV,3,1,12,01,13,045,35,10,13,323,28,11,10,031,36,12,17,239,29*77

[1499589023678]$GPGSV,3,2,12,13,40,182,29,15,51,238,42,17,52,107,38,18,13,296,33*78

[1499589023678]$GPGSV,3,3,12,19,42,144,37,24,44,289,37,28,34,063,22,30,07,110,14*79

[1499589023678]$GPGLL,5358.06836,N,02729.70855,E,053023.00,A,A*6F

[1499589024687]$GPRMC,053024.00,A,5358.06730,N,02729.68323,E,53.920,265.77,090717,,,A*51

[1499589024687]$GPVTG,265.77,T,,M,53.920,N,99.860,K,A*3F

[1499589024687]$GPGGA,053024.00,5358.06730,N,02729.68323,E,1,12,0.75,206.8,M,24.9,M,,*55

[1499589024687]$GPGSA,A,3,10,24,01,30,17,13,19,11,18,28,15,12,1.54,0.75,1.35*0A

[1499589024687]$GPGSV,3,1,12,01,13,045,32,10,13,323,27,11,10,031,34,12,17,239,30*75

[1499589024687]$GPGSV,3,2,12,13,40,182,29,15,51,238,42,17,52,107,38,18,13,296,32*79

[1499589024687]$GPGSV,3,3,12,19,42,144,37,24,44,289,37,28,34,063,19,30,07,110,16*73

[1499589024687]$GPGLL,5358.06730,N,02729.68323,E,053024.00,A,A*62

[1499589025678]$GPRMC,053025.00,A,5358.06615,N,02729.65801,E,53.776,265.49,090717,,,A*50

[1499589025678]$GPVTG,265.49,T,,M,53.776,N,99.594,K,A*39

[1499589025678]$GPGGA,053025.00,5358.06615,N,02729.65801,E,1,12,0.75,207.1,M,24.9,M,,*5C

[1499589025678]$GPGSA,A,3,10,24,01,30,17,13,19,11,18,28,15,12,1.54,0.75,1.35*0A

[1499589025678]$GPGSV,3,1,12,01,13,045,33,10,13,323,26,11,10,031,35,12,17,239,29*7C

[1499589025678]$GPGSV,3,2,12,13,40,182,29,15,51,238,42,17,52,107,39,18,13,296,31*7B

[1499589025678]$GPGSV,3,3,12,19,42,144,36,24,44,289,37,28,34,063,20,30,07,110,17*79

[1499589025678]$GPGLL,5358.06615,N,02729.65801,E,053025.00,A,A*63

[1499589026687]$GPRMC,053026.00,A,5358.06495,N,02729.63285,E,53.666,265.27,090717,,,A*51

[1499589026687]$GPVTG,265.27,T,,M,53.666,N,99.390,K,A*33

[1499589026687]$GPGGA,053026.00,5358.06495,N,02729.63285,E,1,12,0.75,207.5,M,24.9,M,,*51

[1499589026687]$GPGSA,A,3,10,24,01,30,17,13,19,11,18,28,15,12,1.54,0.75,1.35*0A

[1499589026687]$GPGSV,3,1,12,01,13,045,33,10,13,323,20,11,10,031,25,12,17,239,28*7A

[1499589026687]$GPGSV,3,2,12,13,40,182,28,15,51,238,42,17,52,107,39,18,13,296,34*7F

[1499589026687]$GPGSV,3,3,12,19,42,144,37,24,44,289,38,28,34,063,18,30,07,110,18*73

[1499589026687]$GPGLL,5358.06495,N,02729.63285,E,053026.00,A,A*6A

[1499589027677]$GPRMC,053027.00,A,5358.06380,N,02729.60807,E,52.532,265.39,090717,,,A*5C

[1499589027677]$GPVTG,265.39,T,,M,52.532,N,97.289,K,A*38

[1499589027677]$GPGGA,053027.00,5358.06380,N,02729.60807,E,1,12,0.75,208.1,M,24.9,M,,*5B

[1499589027677]$GPGSA,A,3,10,24,01,30,17,13,19,11,18,28,15,12,1.54,0.75,1.34*0B

[1499589027677]$GPGSV,3,1,12,01,13,045,28,10,13,323,18,11,10,031,30,12,17,239,28*7F

[1499589027677]$GPGSV,3,2,12,13,40,182,28,15,51,238,42,17,52,107,39,18,13,296,31*7A

[1499589027677]$GPGSV,3,3,12,19,42,144,36,24,44,289,37,28,34,063,16,30,07,110,20*78

[1499589027677]$GPGLL,5358.06380,N,02729.60807,E,053027.00,A,A*6B

[1499589028677]$GPRMC,053028.00,A,5358.06273,N,02729.58382,E,51.381,265.74,090717,,,A*57

[1499589028677]$GPVTG,265.74,T,,M,51.381,N,95.157,K,A*3E

[1499589028677]$GPGGA,053028.00,5358.06273,N,02729.58382,E,1,12,0.75,208.6,M,24.9,M,,*53

[1499589028677]$GPGSA,A,3,10,24,01,30,17,13,19,11,18,28,15,12,1.54,0.75,1.34*0B

[1499589028677]$GPGSV,3,1,12,01,13,045,33,10,13,323,15,11,10,031,22,12,17,239,27*74

[1499589028677]$GPGSV,3,2,12,13,40,182,27,15,51,238,42,17,52,107,39,18,13,296,31*75

[1499589028677]$GPGSV,3,3,12,19,42,144,36,24,44,289,38,28,34,063,15,30,07,110,21*75

[1499589028677]$GPGLL,5358.06273,N,02729.58382,E,053028.00,A,A*64

[1499589029686]$GPRMC,053029.00,A,5358.06172,N,02729.56012,E,50.177,265.72,090717,,,A*5C

[1499589029686]$GPVTG,265.72,T,,M,50.177,N,92.928,K,A*35

[1499589029686]$GPGGA,053029.00,5358.06172,N,02729.56012,E,1,12,0.75,209.2,M,24.9,M,,*51

[1499589029686]$GPGSA,A,3,10,24,01,30,17,13,19,11,18,28,15,12,1.54,0.75,1.34*0B

[1499589029686]$GPGSV,3,1,12,01,13,045,30,10,13,323,15,11,10,031,20,12,17,239,28*7A

[1499589029686]$GPGSV,3,2,12,13,40,182,26,15,51,238,42,17,52,107,39,18,13,296,30*75

[1499589029686]$GPGSV,3,3,12,19,42,144,36,24,44,289,38,28,34,063,15,30,07,110,22*76

[1499589029686]$GPGLL,5358.06172,N,02729.56012,E,053029.00,A,A*63

[1499589030687]$GPRMC,053030.00,A,5358.06075,N,02729.53698,E,49.000,265.83,090717,,,A*54

[1499589030687]$GPVTG,265.83,T,,M,49.000,N,90.747,K,A*37

[1499589030687]$GPGGA,053030.00,5358.06075,N,02729.53698,E,1,12,0.75,209.8,M,24.9,M,,*54

[1499589030687]$GPGSA,A,3,10,24,01,30,17,13,19,11,18,28,15,12,1.54,0.75,1.34*0B

[1499589030687]$GPGSV,3,1,12,01,13,045,28,10,13,323,15,11,10,031,18,12,17,239,28*78

[1499589030687]$GPGSV,3,2,12,13,40,182,26,15,51,238,42,17,52,107,39,18,13,296,31*74

[1499589030687]$GPGSV,3,3,12,19,42,144,36,24,44,289,38,28,34,063,17,30,07,110,21*77

[1499589030687]$GPGLL,5358.06075,N,02729.53698,E,053030.00,A,A*6C

[1499589031677]$GPRMC,053031.00,A,5358.05987,N,02729.51436,E,47.811,266.15,090717,,,A*5C

[1499589031677]$GPVTG,266.15,T,,M,47.811,N,88.546,K,A*37

[1499589031677]$GPGGA,053031.00,5358.05987,N,02729.51436,E,1,12,0.75,210.4,M,24.9,M,,*52

[1499589031677]$GPGSA,A,3,10,24,01,30,17,13,19,11,18,28,15,12,1.54,0.75,1.34*0B

[1499589031677]$GPGSV,3,1,12,01,13,045,26,10,13,323,15,11,10,031,17,12,17,239,29*78

[1499589031677]$GPGSV,3,2,12,13,40,182,26,15,51,238,42,17,52,107,39,18,13,296,31*74

[1499589031677]$GPGSV,3,3,12,19,42,144,35,24,44,289,37,28,34,063,19,30,07,110,20*74

[1499589031677]$GPGLL,5358.05987,N,02729.51436,E,053031.00,A,A*6E

[1499589032686]$GPRMC,053032.00,A,5358.05922,N,02729.49226,E,46.661,267.28,090717,,,A*59

[1499589032686]$GPVTG,267.28,T,,M,46.661,N,86.417,K,A*3B

[1499589032686]$GPGGA,053032.00,5358.05922,N,02729.49226,E,1,12,0.75,211.0,M,24.9,M,,*55

[1499589032686]$GPGSA,A,3,10,24,01,30,17,13,19,11,18,28,15,12,1.54,0.75,1.34*0B

[1499589032686]$GPGSV,3,1,12,01,13,045,25,10,13,323,15,11,10,031,16,12,17,239,30*72

[1499589032686]$GPGSV,3,2,12,13,40,182,31,15,51,238,42,17,52,107,39,18,13,296,30*73

[1499589032686]$GPGSV,3,3,12,19,42,144,36,24,44,289,37,28,34,063,20,30,07,110,20*7D

[1499589032686]$GPGLL,5358.05922,N,02729.49226,E,053032.00,A,A*6C

[1499589033677]$GPRMC,053033.00,A,5358.05875,N,02729.47064,E,45.553,268.20,090717,,,A*57

[1499589033677]$GPVTG,268.20,T,,M,45.553,N,84.364,K,A*3C

[1499589033677]$GPGGA,053033.00,5358.05875,N,02729.47064,E,1,12,0.75,211.4,M,24.9,M,,*59

[1499589033677]$GPGSA,A,3,10,24,01,30,17,13,19,11,18,28,15,12,1.54,0.75,1.34*0B

[1499589033677]$GPGSV,3,1,12,01,13,045,25,10,13,323,12,11,10,031,14,12,17,239,31*76

[1499589033677]$GPGSV,3,2,12,13,40,182,33,15,51,238,42,17,52,107,38,18,13,296,29*78

[1499589033677]$GPGSV,3,3,12,19,42,144,35,24,44,289,37,28,34,063,22,30,07,110,19*76

[1499589033677]$GPGLL,5358.05875,N,02729.47064,E,053033.00,A,A*64

[1499589034687]$GPRMC,053034.00,A,5358.05845,N,02729.44956,E,44.481,268.82,090717,,,A*5F

[1499589034687]$GPVTG,268.82,T,,M,44.481,N,82.378,K,A*30

[1499589034687]$GPGGA,053034.00,5358.05845,N,02729.44956,E,1,12,0.75,212.0,M,24.9,M,,*51

[1499589034687]$GPGSA,A,3,10,24,01,30,17,13,19,11,18,28,15,12,1.54,0.75,1.34*0B

[1499589034687]$GPGSV,3,1,12,01,13,045,24,10,13,323,13,11,10,031,13,12,17,239,31*71

[1499589034687]$GPGSV,3,2,12,13,40,182,34,15,51,238,41,17,52,107,38,18,13,296,20*75

[1499589034687]$GPGSV,3,3,12,19,42,144,33,24,44,289,37,28,34,063,25,30,07,110,16*78

[1499589034687]$GPGLL,5358.05845,N,02729.44956,E,053034.00,A,A*6B

[1499589035677]$GPRMC,053035.00,A,5358.05795,N,02729.42899,E,43.385,267.05,090717,,,A*5C

[1499589035677]$GPVTG,267.05,T,,M,43.385,N,80.349,K,A*34

[1499589035677]$GPGGA,053035.00,5358.05795,N,02729.42899,E,1,12,0.75,212.4,M,24.9,M,,*52

[1499589035677]$GPGSA,A,3,10,24,01,30,17,13,19,11,18,28,15,12,1.54,0.75,1.34*0B

[1499589035677]$GPGSV,3,1,12,01,13,045,22,10,13,323,12,11,10,031,10,12,17,239,29*7C

[1499589035677]$GPGSV,3,2,12,13,40,182,29,15,51,238,41,17,52,107,38,18,13,296,23*7A

[1499589035677]$GPGSV,3,3,12,19,42,144,37,24,44,289,37,28,34,063,24,30,07,110,15*7E

[1499589035677]$GPGLL,5358.05795,N,02729.42899,E,053035.00,A,A*6C

[1499589036677]$GPRMC,053036.00,A,5358.05721,N,02729.40884,E,42.691,266.14,090717,,,A*5E

[1499589036677]$GPVTG,266.14,T,,M,42.691,N,79.064,K,A*3E

[1499589036677]$GPGGA,053036.00,5358.05721,N,02729.40884,E,1,11,0.79,213.0,M,24.9,M,,*5A

[1499589036677]$GPGSA,A,3,10,24,01,30,17,13,19,18,28,15,12,,1.57,0.79,1.36*06

[1499589036677]$GPGSV,3,1,12,01,13,045,29,10,13,323,15,11,10,031,09,12,17,239,29*78

[1499589036677]$GPGSV,3,2,12,13,40,182,27,15,51,238,41,17,52,107,39,18,13,296,25*73

[1499589036677]$GPGSV,3,3,12,19,42,144,37,24,44,289,38,28,34,063,21,30,07,110,16*77

[1499589036677]$GPGLL,5358.05721,N,02729.40884,E,053036.00,A,A*6E

[1499589037677]$GPRMC,053037.00,A,5358.05646,N,02729.38895,E,42.219,266.35,090717,,,A*57

[1499589037677]$GPVTG,266.35,T,,M,42.219,N,78.190,K,A*32

[1499589037677]$GPGGA,053037.00,5358.05646,N,02729.38895,E,1,11,0.79,213.6,M,24.9,M,,*52

[1499589037677]$GPGSA,A,3,10,24,01,30,17,13,19,18,28,15,12,,1.57,0.79,1.36*06

[1499589037677]$GPGSV,3,1,12,01,13,045,23,10,13,323,15,11,10,031,08,12,17,239,29*73

[1499589037677]$GPGSV,3,2,12,13,40,182,27,15,51,238,41,17,52,107,39,18,13,296,27*71

[1499589037677]$GPGSV,3,3,12,19,42,144,37,24,44,289,38,28,34,063,16,30,07,110,17*72

[1499589037677]$GPGLL,5358.05646,N,02729.38895,E,053037.00,A,A*60

[1499589038686]$GPRMC,053038.00,A,5358.05563,N,02729.36911,E,42.153,265.71,090717,,,A*51

[1499589038686]$GPVTG,265.71,T,,M,42.153,N,78.067,K,A*35

[1499589038686]$GPGGA,053038.00,5358.05563,N,02729.36911,E,1,12,0.75,214.5,M,24.9,M,,*51

[1499589038686]$GPGSA,A,3,10,24,01,30,17,13,19,11,18,28,15,12,1.54,0.75,1.34*0B

[1499589038686]$GPGSV,3,1,12,01,13,045,23,10,13,323,17,11,10,031,09,12,17,239,29*70

[1499589038686]$GPGSV,3,2,12,13,40,182,27,15,51,238,41,17,52,107,39,18,13,296,28*7E

[1499589038686]$GPGSV,3,3,12,19,42,144,37,24,44,289,38,28,34,063,16,30,07,110,18*7D

[1499589038686]$GPGLL,5358.05563,N,02729.36911,E,053038.00,A,A*68

[1499589039677]$GPRMC,053039.00,A,5358.05476,N,02729.34929,E,42.219,265.52,090717,,,A*50

[1499589039677]$GPVTG,265.52,T,,M,42.219,N,78.189,K,A*38

[1499589039677]$GPGGA,053039.00,5358.05476,N,02729.34929,E,1,12,0.75,215.3,M,24.9,M,,*5B

[1499589039677]$GPGSA,A,3,10,24,01,30,17,13,19,11,18,28,15,12,1.54,0.75,1.34*0B

[1499589039677]$GPGSV,3,1,12,01,13,045,23,10,13,323,17,11,10,031,09,12,17,239,29*70

[1499589039677]$GPGSV,3,2,12,13,40,182,26,15,51,238,41,17,52,107,39,18,13,296,14*70

[1499589039677]$GPGSV,3,3,12,19,42,144,37,24,44,289,38,28,34,063,16,30,07,110,19*7C

[1499589039677]$GPGLL,5358.05476,N,02729.34929,E,053039.00,A,A*65

[1499589040686]$GPRMC,053040.00,A,5358.05381,N,02729.32944,E,42.253,265.22,090717,,,A*55

[1499589040686]$GPVTG,265.22,T,,M,42.253,N,78.253,K,A*35

[1499589040686]$GPGGA,053040.00,5358.05381,N,02729.32944,E,1,12,0.75,216.1,M,24.9,M,,*56

[1499589040686]$GPGSA,A,3,10,24,01,30,17,13,19,11,18,28,15,12,1.54,0.75,1.34*0B

[1499589040686]$GPGSV,3,1,12,01,13,045,22,10,13,323,17,11,10,031,09,12,17,239,29*71

[1499589040686]$GPGSV,3,2,12,13,40,182,25,15,51,238,41,17,52,107,39,18,13,296,16*71

[1499589040686]$GPGSV,3,3,12,19,42,144,37,24,44,289,38,28,34,063,18,30,07,110,19*72

[1499589040686]$GPGLL,5358.05381,N,02729.32944,E,053040.00,A,A*69

[1499589041680]$GPRMC,053041.00,A,5358.05291,N,02729.30951,E,42.591,265.59,090717,,,A*57

[1499589041680]$GPVTG,265.59,T,,M,42.591,N,78.878,K,A*33

[1499589041680]$GPGGA,053041.00,5358.05291,N,02729.30951,E,1,12,0.75,216.9,M,24.9,M,,*59

[1499589041680]$GPGSA,A,3,10,24,01,30,17,13,19,11,18,28,15,12,1.54,0.75,1.34*0B

[1499589041680]$GPGSV,3,1,12,01,13,045,22,10,13,323,18,11,10,031,09,12,17,239,28*7F

[1499589041680]$GPGSV,3,2,12,13,40,182,23,15,51,238,41,17,52,107,39,18,13,296,28*7A

[1499589041680]$GPGSV,3,3,12,19,42,144,37,24,44,289,38,28,34,063,19,30,07,110,20*79

[1499589041680]$GPGLL,5358.05291,N,02729.30951,E,053041.00,A,A*6E

[1499589042687]$GPRMC,053042.00,A,5358.05217,N,02729.28933,E,43.097,266.02,090717,,,A*58

[1499589042687]$GPVTG,266.02,T,,M,43.097,N,79.816,K,A*35

[1499589042687]$GPGGA,053042.00,5358.05217,N,02729.28933,E,1,12,0.75,217.7,M,24.9,M,,*56

[1499589042687]$GPGSA,A,3,10,24,01,30,17,13,19,11,18,28,15,12,1.54,0.75,1.34*0B

[1499589042687]$GPGSV,3,1,12,01,13,045,22,10,13,323,17,11,10,031,09,12,17,239,29*71

[1499589042687]$GPGSV,3,2,12,13,40,182,22,15,51,238,41,17,52,107,39,18,13,296,28*7B

[1499589042687]$GPGSV,3,3,12,19,42,144,38,24,44,289,37,28,34,063,19,30,07,110,21*78

[1499589042687]$GPGLL,5358.05217,N,02729.28933,E,053042.00,A,A*6E

[1499589043677]$GPRMC,053043.00,A,5358.05134,N,02729.26891,E,43.699,265.83,090717,,,A*5E

[1499589043677]$GPVTG,265.83,T,,M,43.699,N,80.931,K,A*35

[1499589043677]$GPGGA,053043.00,5358.05134,N,02729.26891,E,1,11,0.79,218.1,M,24.9,M,,*54

[1499589043677]$GPGSA,A,3,10,24,01,30,17,13,19,18,28,15,12,,1.57,0.79,1.36*06

[1499589043677]$GPGSV,3,1,12,01,13,045,22,10,13,323,19,11,10,031,,12,17,240,29*78

[1499589043677]$GPGSV,3,2,12,13,40,182,22,15,51,238,41,17,52,107,39,18,13,296,33*71

[1499589043677]$GPGSV,3,3,12,19,42,144,37,24,44,289,38,28,34,063,19,30,07,110,21*78

[1499589043677]$GPGLL,5358.05134,N,02729.26891,E,053043.00,A,A*6A

[1499589044677]$GPRMC,053044.00,A,5358.05043,N,02729.24824,E,44.308,265.53,090717,,,A*53

[1499589044677]$GPVTG,265.53,T,,M,44.308,N,82.059,K,A*37

[1499589044677]$GPGGA,053044.00,5358.05043,N,02729.24824,E,1,11,0.79,218.6,M,24.9,M,,*59

[1499589044677]$GPGSA,A,3,10,24,01,30,17,13,19,18,28,15,12,,1.57,0.79,1.36*06

[1499589044677]$GPGSV,3,1,12,01,13,045,20,10,13,322,20,11,10,031,,12,17,240,28*70

[1499589044677]$GPGSV,3,2,12,13,40,182,22,15,51,238,41,17,52,107,39,18,13,296,28*7B

[1499589044677]$GPGSV,3,3,12,19,42,144,37,24,44,289,38,28,34,063,19,30,07,110,22*7B

[1499589044677]$GPGLL,5358.05043,N,02729.24824,E,053044.00,A,A*60

[1499589045681]$GPRMC,053045.00,A,5358.04954,N,02729.22731,E,44.902,265.89,090717,,,A*56

[1499589045681]$GPVTG,265.89,T,,M,44.902,N,83.159,K,A*30

[1499589045681]$GPGGA,053045.00,5358.04954,N,02729.22731,E,1,11,0.79,219.0,M,24.9,M,,*5C

[1499589045681]$GPGSA,A,3,10,24,01,30,17,13,19,18,28,15,12,,1.57,0.79,1.36*06

[1499589045681]$GPGSV,3,1,12,01,13,045,19,10,13,322,22,11,10,031,,12,17,240,28*78

[1499589045681]$GPGSV,3,2,12,13,40,182,22,15,51,238,41,17,52,107,39,18,13,296,24*77

[1499589045681]$GPGSV,3,3,12,19,42,144,37,24,44,289,38,28,34,063,19,30,07,110,22*7B

[1499589045681]$GPGLL,5358.04954,N,02729.22731,E,053045.00,A,A*62

[1499589046677]$GPRMC,053046.00,A,5358.04870,N,02729.20597,E,45.697,265.97,090717,,,A*53

[1499589046677]$GPVTG,265.97,T,,M,45.697,N,84.632,K,A*30

[1499589046677]$GPGGA,053046.00,5358.04870,N,02729.20597,E,1,11,0.79,219.5,M,24.9,M,,*51

[1499589046677]$GPGSA,A,3,10,24,01,30,17,13,19,18,28,15,12,,1.57,0.79,1.36*06

[1499589046677]$GPGSV,3,1,12,01,13,045,19,10,13,322,23,11,10,031,14,12,17,240,27*73

[1499589046677]$GPGSV,3,2,12,13,40,182,21,15,51,238,41,17,52,107,39,18,13,296,22*72

[1499589046677]$GPGSV,3,3,12,19,42,144,37,24,44,289,37,28,34,063,20,30,07,110,23*7F

[1499589046677]$GPGLL,5358.04870,N,02729.20597,E,053046.00,A,A*6A

[1499589047687]$GPRMC,053047.00,A,5358.04782,N,02729.18415,E,46.663,265.79,090717,,,A*58

[1499589047687]$GPVTG,265.79,T,,M,46.663,N,86.420,K,A*3B

[1499589047687]$GPGGA,053047.00,5358.04782,N,02729.18415,E,1,11,0.79,220.3,M,24.9,M,,*5E

[1499589047687]$GPGSA,A,3,10,24,01,30,17,13,19,18,28,15,12,,1.57,0.79,1.36*06

[1499589047687]$GPGSV,3,1,12,01,13,045,21,10,13,322,22,11,10,031,16,12,17,240,29*75

[1499589047687]$GPGSV,3,2,12,13,40,182,22,15,51,238,41,17,52,107,38,18,13,296,19*78

[1499589047687]$GPGSV,3,3,12,19,42,144,38,24,44,289,38,28,34,063,19,30,07,110,22*74

[1499589047687]$GPGLL,5358.04782,N,02729.18415,E,053047.00,A,A*69

[1499589048677]$GPRMC,053048.00,A,5358.04684,N,02729.16199,E,47.537,265.72,090717,,,A*57

[1499589048677]$GPVTG,265.72,T,,M,47.537,N,88.039,K,A*31

[1499589048677]$GPGGA,053048.00,5358.04684,N,02729.16199,E,1,11,0.79,220.9,M,24.9,M,,*53

[1499589048677]$GPGSA,A,3,10,24,01,30,17,13,19,18,28,15,12,,1.57,0.79,1.36*06

[1499589048677]$GPGSV,3,1,12,01,13,045,31,10,13,322,20,11,10,031,19,12,17,240,30*71

[1499589048677]$GPGSV,3,2,12,13,40,182,21,15,51,238,41,17,52,107,38,18,13,296,19*7B

[1499589048677]$GPGSV,3,3,12,19,42,144,37,24,44,289,38,28,34,063,19,30,07,110,23*7A

[1499589048677]$GPGLL,5358.04684,N,02729.16199,E,053048.00,A,A*6E

[1499589049687]$GPRMC,053049.00,A,5358.04584,N,02729.13947,E,48.330,265.72,090717,,,A*55

[1499589049687]$GPVTG,265.72,T,,M,48.330,N,89.507,K,A*36

[1499589049687]$GPGGA,053049.00,5358.04584,N,02729.13947,E,1,12,0.79,221.0,M,24.9,M,,*54

[1499589049687]$GPGSA,A,3,10,24,01,30,17,13,19,11,18,28,15,12,1.57,0.79,1.36*06

[1499589049687]$GPGSV,3,1,12,01,13,045,29,10,13,322,19,11,10,031,18,12,17,240,29*7B

[1499589049687]$GPGSV,3,2,12,13,40,182,21,15,51,238,41,17,52,107,39,18,13,296,20*70

[1499589049687]$GPGSV,3,3,12,19,42,144,37,24,44,289,38,28,34,063,21,30,07,110,21*73

[1499589049687]$GPGLL,5358.04584,N,02729.13947,E,053049.00,A,A*62

[1499589050677]$GPRMC,053050.00,A,5358.04480,N,02729.11670,E,48.572,265.74,090717,,,A*57

[1499589050677]$GPVTG,265.74,T,,M,48.572,N,89.955,K,A*3B

[1499589050677]$GPGGA,053050.00,5358.04480,N,02729.11670,E,1,12,0.75,221.0,M,24.9,M,,*5C

[1499589050677]$GPGSA,A,3,10,24,01,30,17,13,19,11,18,28,15,12,1.54,0.75,1.34*0B

[1499589050677]$GPGSV,3,1,12,01,13,045,27,10,13,322,18,11,10,031,17,12,17,240,30*73

[1499589050677]$GPGSV,3,2,12,13,40,182,23,15,51,238,41,17,52,107,38,18,13,296,23*70

[1499589050677]$GPGSV,3,3,12,19,42,144,37,24,44,289,38,28,34,063,29,30,07,110,20*7A

[1499589050677]$GPGLL,5358.04480,N,02729.11670,E,053050.00,A,A*66

[1499589051681]$GPRMC,053051.00,A,5358.04379,N,02729.09399,E,48.399,265.96,090717,,,A*53

[1499589051681]$GPVTG,265.96,T,,M,48.399,N,89.635,K,A*3D

[1499589051681]$GPGGA,053051.00,5358.04379,N,02729.09399,E,1,12,0.75,221.1,M,24.9,M,,*56

[1499589051681]$GPGSA,A,3,10,24,01,30,17,13,19,11,18,28,15,12,1.54,0.75,1.34*0B

[1499589051681]$GPGSV,3,1,12,01,13,045,24,10,13,322,18,11,10,031,18,12,17,240,30*7F

[1499589051681]$GPGSV,3,2,12,13,40,182,25,15,51,238,41,17,52,106,39,18,13,296,22*77

[1499589051681]$GPGSV,3,3,12,19,42,144,37,24,44,289,38,28,34,063,28,30,07,110,19*71

[1499589051681]$GPGLL,5358.04379,N,02729.09399,E,053051.00,A,A*6D

[1499589052687]$GPRMC,053052.00,A,5358.04277,N,02729.07133,E,48.142,265.90,090717,,,A*51

[1499589052687]$GPVTG,265.90,T,,M,48.142,N,89.159,K,A*32

[1499589052687]$GPGGA,053052.00,5358.04277,N,02729.07133,E,1,12,0.75,221.4,M,24.9,M,,*53

[1499589052687]$GPGSA,A,3,10,24,01,30,17,13,19,11,18,28,15,12,1.54,0.75,1.34*0B

[1499589052687]$GPGSV,3,1,12,01,13,045,21,10,13,322,17,11,10,031,18,12,17,240,31*74

[1499589052687]$GPGSV,3,2,12,13,40,182,26,15,51,238,41,17,52,106,39,18,13,296,21*77

[1499589052687]$GPGSV,3,3,12,19,42,144,37,24,44,289,38,28,34,063,28,30,07,110,19*71

[1499589052687]$GPGLL,5358.04277,N,02729.07133,E,053052.00,A,A*6D

[1499589053686]$GPRMC,053053.00,A,5358.04167,N,02729.04876,E,48.062,265.46,090717,,,A*51

[1499589053686]$GPVTG,265.46,T,,M,48.062,N,89.011,K,A*37

[1499589053686]$GPGGA,053053.00,5358.04167,N,02729.04876,E,1,12,0.75,221.8,M,24.9,M,,*57

[1499589053686]$GPGSA,A,3,10,24,01,30,17,13,19,11,18,28,15,12,1.54,0.75,1.34*0B

[1499589053686]$GPGSV,3,1,12,01,13,045,21,10,13,322,17,11,10,031,16,12,17,240,31*7A

[1499589053686]$GPGSV,3,2,12,13,40,182,26,15,51,238,41,17,52,106,39,18,13,296,20*76

[1499589053686]$GPGSV,3,3,12,19,43,144,37,24,44,289,38,28,34,063,28,30,07,110,18*71

[1499589053686]$GPGLL,5358.04167,N,02729.04876,E,053053.00,A,A*65

[1499589054687]$GPRMC,053054.00,A,5358.04057,N,02729.02620,E,48.170,265.40,090717,,,A*5B

[1499589054687]$GPVTG,265.40,T,,M,48.170,N,89.210,K,A*30

[1499589054687]$GPGGA,053054.00,5358.04057,N,02729.02620,E,1,12,0.75,221.6,M,24.9,M,,*57

[1499589054687]$GPGSA,A,3,10,24,01,30,17,13,19,11,18,28,15,12,1.54,0.75,1.34*0B

[1499589054687]$GPGSV,3,1,12,01,13,045,20,10,13,322,17,11,10,031,16,12,17,240,30*7A

[1499589054687]$GPGSV,3,2,12,13,40,182,25,15,51,238,41,17,52,106,39,18,13,296,20*75

[1499589054687]$GPGSV,3,3,12,19,43,144,37,24,44,289,38,28,34,063,28,30,07,110,17*7E

[1499589054687]$GPGLL,5358.04057,N,02729.02620,E,053054.00,A,A*6B

[1499589055691]$GPRMC,053055.00,A,5358.03948,N,02729.00363,E,48.154,265.56,090717,,,A*5B

[1499589055691]$GPVTG,265.56,T,,M,48.154,N,89.181,K,A*3A

[1499589055691]$GPGGA,053055.00,5358.03948,N,02729.00363,E,1,12,0.75,221.7,M,24.9,M,,*57

[1499589055691]$GPGSA,A,3,10,24,01,30,17,13,19,11,18,28,15,12,1.54,0.75,1.34*0B

[1499589055691]$GPGSV,3,1,12,01,13,045,22,10,13,322,18,11,10,031,14,12,17,240,30*75

[1499589055691]$GPGSV,3,2,12,13,40,182,25,15,51,238,41,17,52,106,40,18,13,296,30*7A

[1499589055691]$GPGSV,3,3,12,19,43,144,37,24,44,289,38,28,34,063,27,30,07,110,16*70

[1499589055691]$GPGLL,5358.03948,N,02729.00363,E,053055.00,A,A*6A

[1499589056686]$GPRMC,053056.00,A,5358.03852,N,02728.98106,E,48.200,265.95,090717,,,A*5E

[1499589056686]$GPVTG,265.95,T,,M,48.200,N,89.266,K,A*3D

[1499589056686]$GPGGA,053056.00,5358.03852,N,02728.98106,E,1,12,0.75,221.8,M,24.9,M,,*50

[1499589056686]$GPGSA,A,3,10,24,01,30,17,13,19,11,18,28,15,12,1.54,0.75,1.34*0B

[1499589056686]$GPGSV,3,1,12,01,13,045,23,10,13,322,19,11,10,031,14,12,17,240,31*74

[1499589056686]$GPGSV,3,2,12,13,40,182,26,15,51,238,41,17,52,106,40,18,13,296,29*71

[1499589056686]$GPGSV,3,3,12,19,43,144,37,24,44,289,37,28,34,063,28,30,07,110,16*70

[1499589056686]$GPGLL,5358.03852,N,02728.98106,E,053056.00,A,A*62

[1499589057677]$GPRMC,053057.00,A,5358.03754,N,02728.95854,E,48.118,265.97,090717,,,A*5D

[1499589057677]$GPVTG,265.97,T,,M,48.118,N,89.114,K,A*33

[1499589057677]$GPGGA,053057.00,5358.03754,N,02728.95854,E,1,12,0.75,221.7,M,24.9,M,,*54

[1499589057677]$GPGSA,A,3,10,24,01,30,17,13,19,11,18,28,15,12,1.54,0.75,1.34*0B

[1499589057677]$GPGSV,3,1,12,01,13,045,22,10,13,322,18,11,10,031,14,12,17,240,32*77

[1499589057677]$GPGSV,3,2,12,13,40,182,28,15,51,238,41,17,52,106,40,18,13,296,28*7E

[1499589057677]$GPGSV,3,3,12,19,43,144,37,24,44,289,38,28,34,063,29,30,07,110,18*70

[1499589057677]$GPGLL,5358.03754,N,02728.95854,E,053057.00,A,A*69

[1499589058687]$GPRMC,053058.00,A,5358.03660,N,02728.93605,E,48.125,266.08,090717,,,A*53

[1499589058687]$GPVTG,266.08,T,,M,48.125,N,89.128,K,A*37

[1499589058687]$GPGGA,053058.00,5358.03660,N,02728.93605,E,1,12,0.75,221.5,M,24.9,M,,*53

[1499589058687]$GPGSA,A,3,10,24,01,30,17,13,19,11,18,28,15,12,1.54,0.75,1.34*0B

[1499589058687]$GPGSV,3,1,12,01,13,045,20,10,13,322,19,11,10,031,13,12,17,240,32*73

[1499589058687]$GPGSV,3,2,12,13,40,182,29,15,51,238,41,17,52,106,40,18,13,296,27*70

[1499589058687]$GPGSV,3,3,12,19,43,144,37,24,44,289,38,28,34,063,29,30,07,110,20*7B

[1499589058687]$GPGLL,5358.03660,N,02728.93605,E,053058.00,A,A*6C

[1499589059686]$GPRMC,053059.00,A,5358.03556,N,02728.91351,E,48.159,265.51,090717,,,A*56

[1499589059686]$GPVTG,265.51,T,,M,48.159,N,89.190,K,A*30

[1499589059686]$GPGGA,053059.00,5358.03556,N,02728.91351,E,1,12,0.75,221.3,M,24.9,M,,*54

[1499589059686]$GPGSA,A,3,10,24,01,30,17,13,19,11,18,28,15,12,1.54,0.75,1.34*0B

[1499589059686]$GPGSV,3,1,12,01,13,045,20,10,13,322,20,11,10,031,11,12,17,240,31*78

[1499589059686]$GPGSV,3,2,12,13,40,182,28,15,51,238,41,17,52,106,40,18,13,296,32*75

[1499589059686]$GPGSV,3,3,12,19,43,144,37,24,44,289,38,28,34,063,29,30,07,110,20*7B

[1499589059686]$GPGLL,5358.03556,N,02728.91351,E,053059.00,A,A*6D

[1499589060690]$GPRMC,053100.00,A,5358.03440,N,02728.89096,E,48.191,265.08,090717,,,A*54

[1499589060690]$GPVTG,265.08,T,,M,48.191,N,89.250,K,A*37

[1499589060690]$GPGGA,053100.00,5358.03440,N,02728.89096,E,1,12,0.75,221.0,M,24.9,M,,*5D

[1499589060690]$GPGSA,A,3,10,24,01,30,17,13,19,11,18,28,15,12,1.54,0.75,1.34*0B

[1499589060690]$GPGSV,3,1,12,01,13,045,20,10,13,322,21,11,10,031,10,12,17,240,30*79

[1499589060690]$GPGSV,3,2,12,13,40,182,27,15,51,238,41,17,52,106,39,18,13,296,26*71

[1499589060690]$GPGSV,3,3,12,19,43,144,37,24,44,289,38,28,34,063,29,30,07,110,19*71

[1499589060690]$GPGLL,5358.03440,N,02728.89096,E,053100.00,A,A*67

[1499589061677]$GPRMC,053101.00,A,5358.03315,N,02728.86839,E,48.163,264.51,090717,,,A*50

[1499589061677]$GPVTG,264.51,T,,M,48.163,N,89.198,K,A*30

[1499589061677]$GPGGA,053101.00,5358.03315,N,02728.86839,E,1,11,0.79,221.0,M,24.9,M,,*56

[1499589061677]$GPGSA,A,3,10,24,01,30,17,13,19,18,28,15,12,,1.57,0.79,1.36*06

[1499589061677]$GPGSV,3,1,12,01,13,045,21,10,13,322,20,11,10,031,09,12,17,240,29*79

[1499589061677]$GPGSV,3,2,12,13,40,182,26,15,51,238,41,17,52,106,39,18,13,296,25*73

[1499589061677]$GPGSV,3,3,12,19,43,144,37,24,44,289,37,28,34,063,29,30,07,110,19*7E

[1499589061677]$GPGLL,5358.03315,N,02728.86839,E,053101.00,A,A*63

[1499589062687]$GPRMC,053102.00,A,5358.03198,N,02728.84585,E,48.175,265.07,090717,,,A*59

[1499589062687]$GPVTG,265.07,T,,M,48.175,N,89.221,K,A*34

[1499589062687]$GPGGA,053102.00,5358.03198,N,02728.84585,E,1,12,0.75,220.9,M,24.9,M,,*5D

[1499589062687]$GPGSA,A,3,10,24,01,30,17,13,19,11,18,28,15,12,1.54,0.75,1.34*0B

[1499589062687]$GPGSV,3,1,12,01,13,045,30,10,13,322,19,11,10,031,13,12,17,240,29*78

[1499589062687]$GPGSV,3,2,12,13,40,182,25,15,51,238,41,17,52,106,40,18,13,296,24*7F

[1499589062687]$GPGSV,3,3,12,19,43,144,37,24,44,289,37,28,33,063,29,30,07,110,18*78

[1499589062687]$GPGLL,5358.03198,N,02728.84585,E,053102.00,A,A*6F

[1499589063681]$GPRMC,053103.00,A,5358.03086,N,02728.82324,E,48.257,265.20,090717,,,A*5B

[1499589063681]$GPVTG,265.20,T,,M,48.257,N,89.373,K,A*34

[1499589063681]$GPGGA,053103.00,5358.03086,N,02728.82324,E,1,12,0.91,220.8,M,24.9,M,,*52

[1499589063681]$GPGSA,A,3,10,24,01,30,17,13,19,11,18,28,15,12,1.98,0.91,1.76*07

[1499589063681]$GPGSV,3,1,12,01,13,045,23,10,13,322,20,11,10,031,15,12,17,240,29*76

[1499589063681]$GPGSV,3,2,12,13,40,182,24,15,51,238,41,17,52,106,39,18,13,296,22*76

[1499589063681]$GPGSV,3,3,12,19,43,144,37,24,44,289,36,28,33,063,30,30,07,110,17*7E

[1499589063681]$GPGLL,5358.03086,N,02728.82324,E,053103.00,A,A*6B

[1499589064687]$GPRMC,053104.00,A,5358.02967,N,02728.80066,E,48.248,264.94,090717,,,A*5C

[1499589064687]$GPVTG,264.94,T,,M,48.248,N,89.356,K,A*33

[1499589064687]$GPGGA,053104.00,5358.02967,N,02728.80066,E,1,11,0.91,220.4,M,24.9,M,,*5A

[1499589064687]$GPGSA,A,3,10,24,01,17,13,19,11,18,28,15,12,,1.98,0.91,1.76*04

[1499589064687]$GPGSV,3,1,12,01,13,045,21,10,13,322,19,11,10,031,16,12,17,240,28*7C

[1499589064687]$GPGSV,3,2,12,13,40,182,24,15,51,238,41,17,52,106,40,18,13,296,22*78

[1499589064687]$GPGSV,3,3,12,19,43,144,37,24,44,289,37,28,33,063,29,30,07,111,*70

[1499589064687]$GPGLL,5358.02967,N,02728.80066,E,053104.00,A,A*6C

[1499589065687]$GPRMC,053105.00,A,5358.02851,N,02728.77808,E,48.204,264.35,090717,,,A*52

[1499589065687]$GPVTG,264.35,T,,M,48.204,N,89.274,K,A*31

[1499589065687]$GPGGA,053105.00,5358.02851,N,02728.77808,E,1,10,0.93,220.4,M,24.9,M,,*54

[1499589065687]$GPGSA,A,3,10,24,01,17,13,19,18,28,15,12,,,2.06,0.93,1.84*0F

[1499589065687]$GPGSV,3,1,12,01,13,045,22,10,13,322,19,11,10,031,15,12,17,240,26*72

[1499589065687]$GPGSV,3,2,12,13,40,182,24,15,51,238,41,17,52,106,40,18,13,296,25*7F

[1499589065687]$GPGSV,3,3,12,19,43,144,38,24,44,289,35,28,33,063,29,30,07,111,17*7B

[1499589065687]$GPGLL,5358.02851,N,02728.77808,E,053105.00,A,A*61

[1499589066687]$GPRMC,053106.00,A,5358.02707,N,02728.75555,E,48.246,263.18,090717,,,A*54

[1499589066687]$GPVTG,263.18,T,,M,48.246,N,89.351,K,A*39

[1499589066687]$GPGGA,053106.00,5358.02707,N,02728.75555,E,1,11,0.91,220.1,M,24.9,M,,*5A

[1499589066687]$GPGSA,A,3,10,24,01,17,13,19,11,18,28,15,12,,1.98,0.91,1.76*04

[1499589066687]$GPGSV,3,1,12,01,13,045,22,10,13,322,19,11,10,031,15,12,17,240,23*77

[1499589066687]$GPGSV,3,2,12,13,40,182,26,15,51,238,41,17,52,106,39,18,13,296,23*75

[1499589066687]$GPGSV,3,3,12,19,43,144,37,24,44,289,34,28,33,063,31,30,07,111,16*7D

[1499589066687]$GPGLL,5358.02707,N,02728.75555,E,053106.00,A,A*69

[1499589067678]$GPRMC,053107.00,A,5358.02528,N,02728.73306,E,48.223,261.75,090717,,,A*56

[1499589067678]$GPVTG,261.75,T,,M,48.223,N,89.309,K,A*3E

[1499589067678]$GPGGA,053107.00,5358.02528,N,02728.73306,E,1,11,0.91,220.1,M,24.9,M,,*52

[1499589067678]$GPGSA,A,3,10,24,01,17,13,19,11,18,28,15,12,,1.98,0.91,1.76*04

[1499589067678]$GPGSV,3,1,12,01,13,045,22,10,13,322,19,11,10,031,16,12,17,240,21*76

[1499589067678]$GPGSV,3,2,12,13,40,182,27,15,51,238,42,17,52,106,39,18,13,296,22*76

[1499589067678]$GPGSV,3,3,12,19,43,144,36,24,44,289,28,28,33,063,32,30,07,111,16*72

[1499589067678]$GPGLL,5358.02528,N,02728.73306,E,053107.00,A,A*61

[1499589068677]$GPRMC,053108.00,A,5358.02329,N,02728.71062,E,48.255,261.26,090717,,,A*5A

[1499589068677]$GPVTG,261.26,T,,M,48.255,N,89.369,K,A*3F

[1499589068677]$GPGGA,053108.00,5358.02329,N,02728.71062,E,1,11,0.91,219.8,M,24.9,M,,*5A

[1499589068677]$GPGSA,A,3,10,24,01,17,13,19,11,18,28,15,12,,1.98,0.91,1.76*04

[1499589068677]$GPGSV,3,1,12,01,13,045,22,10,13,322,17,11,10,031,16,12,17,240,22*7B

[1499589068677]$GPGSV,3,2,12,13,40,182,28,15,51,238,41,17,52,106,37,18,13,296,21*77

[1499589068677]$GPGSV,3,3,12,19,43,144,33,24,44,289,28,28,33,063,32,30,07,111,15*74

[1499589068677]$GPGLL,5358.02329,N,02728.71062,E,053108.00,A,A*6A

[1499589069686]$GPRMC,053109.00,A,5358.02129,N,02728.68814,E,48.397,261.21,090717,,,A*50

[1499589069686]$GPVTG,261.21,T,,M,48.397,N,89.632,K,A*3C

[1499589069686]$GPGGA,053109.00,5358.02129,N,02728.68814,E,1,12,0.75,219.5,M,24.9,M,,*5C

[1499589069686]$GPGSA,A,3,10,24,01,30,17,13,19,11,18,28,15,12,1.54,0.75,1.34*0B

[1499589069686]$GPGSV,3,1,12,01,13,045,21,10,13,322,18,11,10,031,17,12,17,240,23*77

[1499589069686]$GPGSV,3,2,12,13,40,182,29,15,51,238,41,17,52,106,37,18,13,296,23*74

[1499589069686]$GPGSV,3,3,12,19,43,144,33,24,44,289,26,28,33,063,32,30,07,111,15*7A

[1499589069686]$GPGLL,5358.02129,N,02728.68814,E,053109.00,A,A*68

[1499589070687]$GPRMC,053110.00,A,5358.01910,N,02728.66571,E,48.377,260.18,090717,,,A*5C

[1499589070687]$GPVTG,260.18,T,,M,48.377,N,89.595,K,A*37

[1499589070687]$GPGGA,053110.00,5358.01910,N,02728.66571,E,1,12,0.75,218.9,M,24.9,M,,*58

[1499589070687]$GPGSA,A,3,10,24,01,30,17,13,19,11,18,28,15,12,1.54,0.75,1.34*0B

[1499589070687]$GPGSV,3,1,12,01,13,045,23,10,13,322,19,11,10,031,18,12,17,240,23*7B

[1499589070687]$GPGSV,3,2,12,13,40,182,30,15,51,238,41,17,52,106,37,18,13,296,22*7D

[1499589070687]$GPGSV,3,3,12,19,43,144,33,24,44,289,26,28,33,063,32,30,07,111,16*79

[1499589070687]$GPGLL,5358.01910,N,02728.66571,E,053110.00,A,A*61

[1499589071687]$GPRMC,053111.00,A,5358.01677,N,02728.64334,E,48.471,259.65,090717,,,A*57

[1499589071687]$GPVTG,259.65,T,,M,48.471,N,89.768,K,A*36

[1499589071687]$GPGGA,053111.00,5358.01677,N,02728.64334,E,1,12,0.75,218.7,M,24.9,M,,*5C

[1499589071687]$GPGSA,A,3,10,24,01,30,17,13,19,11,18,28,15,12,1.54,0.75,1.34*0B

[1499589071687]$GPGSV,3,1,12,01,13,045,24,10,13,322,18,11,10,031,18,12,17,240,20*7E

[1499589071687]$GPGSV,3,2,12,13,40,182,30,15,51,238,41,17,52,106,35,18,13,296,21*7C

[1499589071687]$GPGSV,3,3,12,19,43,144,31,24,44,289,27,28,33,063,32,30,07,111,15*79

[1499589071687]$GPGLL,5358.01677,N,02728.64334,E,053111.00,A,A*6B

[1499589072686]$GPRMC,053112.00,A,5358.01432,N,02728.62100,E,48.439,259.27,090717,,,A*5E

[1499589072686]$GPVTG,259.27,T,,M,48.439,N,89.709,K,A*3B

[1499589072686]$GPGGA,053112.00,5358.01432,N,02728.62100,E,1,12,0.75,218.1,M,24.9,M,,*59

[1499589072686]$GPGSA,A,3,10,24,01,30,17,13,19,11,18,28,15,12,1.54,0.75,1.34*0B

[1499589072686]$GPGSV,3,1,12,01,13,045,23,10,13,322,16,11,10,031,18,12,17,240,21*76

[1499589072686]$GPGSV,3,2,12,13,40,182,31,15,51,238,40,17,52,106,35,18,13,296,18*76

[1499589072686]$GPGSV,3,3,12,19,43,144,31,24,44,289,27,28,33,063,32,30,07,111,14*78

[1499589072686]$GPGLL,5358.01432,N,02728.62100,E,053112.00,A,A*68

[1499589073688]$GPRMC,053113.00,A,5358.01170,N,02728.59875,E,48.255,258.40,090717,,,A*53

[1499589073688]$GPVTG,258.40,T,,M,48.255,N,89.368,K,A*34

[1499589073688]$GPGGA,053113.00,5358.01170,N,02728.59875,E,1,12,0.75,217.4,M,24.9,M,,*52

[1499589073688]$GPGSA,A,3,10,24,01,30,17,13,19,11,18,28,15,12,1.54,0.75,1.34*0B

[1499589073688]$GPGSV,3,1,12,01,13,045,21,10,13,322,15,11,10,031,19,12,17,240,24*73

[1499589073688]$GPGSV,3,2,12,13,40,182,31,15,51,238,40,17,52,106,33,18,13,296,16*7E

[1499589073688]$GPGSV,3,3,12,19,43,144,30,24,44,289,27,28,33,063,32,30,07,111,13*7E

[1499589073688]$GPGLL,5358.01170,N,02728.59875,E,053113.00,A,A*69

[1499589074686]$GPRMC,053114.00,A,5358.00883,N,02728.57663,E,48.190,257.44,090717,,,A*56

[1499589074686]$GPVTG,257.44,T,,M,48.190,N,89.248,K,A*36

[1499589074686]$GPGGA,053114.00,5358.00883,N,02728.57663,E,1,12,0.75,216.7,M,24.9,M,,*54

[1499589074686]$GPGSA,A,3,10,24,01,30,17,13,19,11,18,28,15,12,1.54,0.75,1.34*0B

[1499589074686]$GPGSV,3,1,12,01,13,045,20,10,13,322,14,11,10,031,18,12,17,240,35*72

[1499589074686]$GPGSV,3,2,12,13,40,182,30,15,51,238,39,17,52,106,33,18,13,296,16*71

[1499589074686]$GPGSV,3,3,12,19,43,144,31,24,44,289,28,28,33,063,31,30,07,111,13*73

[1499589074686]$GPGLL,5358.00883,N,02728.57663,E,053114.00,A,A*6D

[1499589075677]$GPRMC,053115.00,A,5358.00570,N,02728.55461,E,48.157,256.52,090717,,,A*59

[1499589075677]$GPVTG,256.52,T,,M,48.157,N,89.188,K,A*34

[1499589075677]$GPGGA,053115.00,5358.00570,N,02728.55461,E,1,12,0.75,215.6,M,24.9,M,,*54

[1499589075677]$GPGSA,A,3,10,24,01,30,17,13,19,11,18,28,15,12,1.54,0.75,1.34*0B

[1499589075677]$GPGSV,3,1,12,01,13,045,22,10,13,322,12,11,10,031,16,12,17,240,36*7B

[1499589075677]$GPGSV,3,2,12,13,40,182,28,15,51,238,39,17,52,106,33,18,13,296,18*76

[1499589075677]$GPGSV,3,3,12,19,43,144,30,24,44,289,29,28,33,063,30,30,07,111,12*73

[1499589075677]$GPGLL,5358.00570,N,02728.55461,E,053115.00,A,A*6F

[1499589076686]$GPRMC,053116.00,A,5358.00245,N,02728.53269,E,47.976,256.07,090717,,,A*57

[1499589076686]$GPVTG,256.07,T,,M,47.976,N,88.852,K,A*3F

[1499589076686]$GPGGA,053116.00,5358.00245,N,02728.53269,E,1,12,0.75,214.5,M,24.9,M,,*5C

[1499589076686]$GPGSA,A,3,10,24,01,30,17,13,19,11,18,28,15,12,1.54,0.75,1.34*0B

[1499589076686]$GPGSV,3,1,12,01,13,045,23,10,13,322,13,11,10,031,14,12,17,240,36*79

[1499589076686]$GPGSV,3,2,12,13,40,182,27,15,51,238,38,17,52,106,34,18,13,296,19*7E

[1499589076686]$GPGSV,3,3,12,19,43,144,29,24,44,289,29,28,33,063,30,30,07,111,13*7A

[1499589076686]$GPGLL,5358.00245,N,02728.53269,E,053116.00,A,A*65

[1499589077677]$GPRMC,053117.00,A,5357.99913,N,02728.51085,E,48.026,255.61,090717,,,A*53

[1499589077677]$GPVTG,255.61,T,,M,48.026,N,88.945,K,A*38

[1499589077677]$GPGGA,053117.00,5357.99913,N,02728.51085,E,1,12,0.75,214.0,M,24.9,M,,*5D

[1499589077677]$GPGSA,A,3,10,24,01,30,17,13,19,11,18,28,15,12,1.54,0.75,1.34*0B

[1499589077677]$GPGSV,3,1,12,01,13,045,23,10,13,322,14,11,10,031,14,12,17,240,37*7F

[1499589077677]$GPGSV,3,2,12,13,40,182,28,15,51,238,37,17,52,106,33,18,13,296,17*77

[1499589077677]$GPGSV,3,3,12,19,43,144,28,24,44,289,29,28,33,063,30,30,07,111,13*7B

[1499589077677]$GPGLL,5357.99913,N,02728.51085,E,053117.00,A,A*61

[1499589078686]$GPRMC,053118.00,A,5357.99569,N,02728.48912,E,47.822,255.00,090717,,,A*56

[1499589078686]$GPVTG,255.00,T,,M,47.822,N,88.567,K,A*30

[1499589078686]$GPGGA,053118.00,5357.99569,N,02728.48912,E,1,12,0.75,213.7,M,24.9,M,,*5C

[1499589078686]$GPGSA,A,3,10,24,01,30,17,13,19,11,18,28,15,12,1.54,0.75,1.34*0B

[1499589078686]$GPGSV,3,1,12,01,13,045,20,10,13,322,15,11,10,031,17,12,17,240,38*71

[1499589078686]$GPGSV,3,2,12,13,40,182,29,15,51,238,37,17,52,106,33,18,13,296,20*72

[1499589078686]$GPGSV,3,3,12,19,43,144,28,24,44,289,27,28,33,063,31,30,07,111,12*75

[1499589078686]$GPGLL,5357.99569,N,02728.48912,E,053118.00,A,A*60

[1499589079677]$GPRMC,053119.00,A,5357.99209,N,02728.46751,E,47.787,254.15,090717,,,A*54

[1499589079677]$GPVTG,254.15,T,,M,47.787,N,88.501,K,A*35

[1499589079677]$GPGGA,053119.00,5357.99209,N,02728.46751,E,1,12,0.75,213.7,M,24.9,M,,*5B

[1499589079677]$GPGSA,A,3,10,24,01,30,17,13,19,11,18,28,15,12,1.54,0.75,1.34*0B

[1499589079677]$GPGSV,3,1,12,01,13,044,17,10,13,322,17,11,10,031,16,12,17,240,39*76

[1499589079677]$GPGSV,3,2,12,13,40,182,31,15,51,238,37,17,52,106,32,18,13,296,23*79

[1499589079677]$GPGSV,3,3,12,19,43,144,30,24,44,289,27,28,33,063,31,30,07,111,11*7F

[1499589079677]$GPGLL,5357.99209,N,02728.46751,E,053119.00,A,A*67

[1499589080686]$GPRMC,053120.00,A,5357.98837,N,02728.44591,E,47.873,253.65,090717,,,A*50

[1499589080686]$GPVTG,253.65,T,,M,47.873,N,88.661,K,A*34

[1499589080686]$GPGGA,053120.00,5357.98837,N,02728.44591,E,1,12,0.75,213.3,M,24.9,M,,*5F

[1499589080686]$GPGSA,A,3,10,24,01,30,17,13,19,11,18,28,15,12,1.54,0.75,1.34*0B

[1499589080686]$GPGSV,3,1,12,01,13,044,17,10,13,322,17,11,10,031,16,12,17,240,39*76

[1499589080686]$GPGSV,3,2,12,13,40,182,33,15,51,238,37,17,52,106,32,18,13,296,25*7D

[1499589080686]$GPGSV,3,3,12,19,43,144,34,24,44,289,25,28,33,063,31,30,07,111,10*78

[1499589080686]$GPGLL,5357.98837,N,02728.44591,E,053120.00,A,A*67

[1499589081687]$GPRMC,053121.00,A,5357.98446,N,02728.42430,E,47.876,253.16,090717,,,A*56

[1499589081687]$GPVTG,253.16,T,,M,47.876,N,88.667,K,A*33

[1499589081687]$GPGGA,053121.00,5357.98446,N,02728.42430,E,1,12,0.91,212.2,M,24.9,M,,*52

[1499589081687]$GPGSA,A,3,10,24,01,30,17,13,19,11,18,28,15,12,1.99,0.91,1.76*06

[1499589081687]$GPGSV,3,1,12,01,13,044,20,10,13,322,16,11,10,031,15,12,17,240,39*70

[1499589081687]$GPGSV,3,2,12,13,40,182,34,15,51,238,36,17,52,106,31,18,13,296,25*78

[1499589081687]$GPGSV,3,3,12,19,43,144,34,24,44,289,25,28,33,063,31,30,07,111,12*7A

[1499589081687]$GPGLL,5357.98446,N,02728.42430,E,053121.00,A,A*60

[1499589082686]$GPRMC,053122.00,A,5357.98058,N,02728.40276,E,47.888,253.03,090717,,,A*5D

[1499589082686]$GPVTG,253.03,T,,M,47.888,N,88.688,K,A*37

[1499589082686]$GPGGA,053122.00,5357.98058,N,02728.40276,E,1,12,0.75,211.6,M,24.9,M,,*51

[1499589082686]$GPGSA,A,3,10,24,01,30,17,13,19,11,18,28,15,12,1.54,0.75,1.34*0B

[1499589082686]$GPGSV,3,1,12,01,13,044,21,10,13,322,16,11,10,031,11,12,17,240,38*74

[1499589082686]$GPGSV,3,2,12,13,40,182,34,15,51,238,36,17,52,106,31,18,13,296,25*78

[1499589082686]$GPGSV,3,3,12,19,43,144,34,24,44,289,27,28,33,063,32,30,07,111,14*7D

[1499589082686]$GPGLL,5357.98058,N,02728.40276,E,053122.00,A,A*6E

[1499589083677]$GPRMC,053123.00,A,5357.97664,N,02728.38120,E,48.003,253.16,090717,,,A*55

[1499589083677]$GPVTG,253.16,T,,M,48.003,N,88.901,K,A*39

[1499589083677]$GPGGA,053123.00,5357.97664,N,02728.38120,E,1,11,0.91,210.9,M,24.9,M,,*5E

[1499589083677]$GPGSA,A,3,10,24,01,17,13,19,11,18,28,15,12,,1.99,0.91,1.76*05

[1499589083677]$GPGSV,3,1,12,01,13,044,20,10,13,322,15,11,10,031,10,12,17,240,39*76

[1499589083677]$GPGSV,3,2,12,13,40,182,34,15,51,238,36,17,52,106,32,18,13,296,25*7B

[1499589083677]$GPGSV,3,3,12,19,43,144,34,24,44,289,31,28,33,063,32,30,07,111,*7F

[1499589083677]$GPGLL,5357.97664,N,02728.38120,E,053123.00,A,A*66

[1499589084687]$GPRMC,053124.00,A,5357.97281,N,02728.35961,E,47.966,253.09,090717,,,A*56

[1499589084687]$GPVTG,253.09,T,,M,47.966,N,88.833,K,A*32

[1499589084687]$GPGGA,053124.00,5357.97281,N,02728.35961,E,1,10,0.93,210.5,M,24.9,M,,*59

[1499589084687]$GPGSA,A,3,10,24,01,17,13,19,18,28,15,12,,,2.07,0.93,1.85*0F

[1499589084687]$GPGSV,3,1,12,01,13,044,21,10,13,322,16,11,10,031,09,12,17,240,39*7C

[1499589084687]$GPGSV,3,2,12,13,40,182,35,15,51,238,36,17,52,106,32,18,13,296,23*7C

[1499589084687]$GPGSV,3,3,12,19,43,144,34,24,44,289,25,28,33,063,32,30,07,111,17*7C

[1499589084687]$GPGLL,5357.97281,N,02728.35961,E,053124.00,A,A*6E

[1499589085687]$GPRMC,053125.00,A,5357.96895,N,02728.33802,E,47.994,253.31,090717,,,A*5D

[1499589085687]$GPVTG,253.31,T,,M,47.994,N,88.885,K,A*39

[1499589085687]$GPGGA,053125.00,5357.96895,N,02728.33802,E,1,10,0.93,210.1,M,24.9,M,,*50

[1499589085687]$GPGSA,A,3,10,24,01,17,13,19,18,28,15,12,,,2.07,0.93,1.85*0F

[1499589085687]$GPGSV,3,1,12,01,13,044,21,10,13,322,15,11,10,031,09,12,17,240,39*7F

[1499589085687]$GPGSV,3,2,12,13,40,182,35,15,51,238,36,17,52,106,32,18,13,296,22*7D

[1499589085687]$GPGSV,3,3,12,19,43,144,34,24,44,289,27,28,33,063,32,30,07,111,17*7E

[1499589085687]$GPGLL,5357.96895,N,02728.33802,E,053125.00,A,A*63

[1499589086677]$GPRMC,053126.00,A,5357.96511,N,02728.31641,E,47.951,253.32,090717,,,A*5E

[1499589086677]$GPVTG,253.32,T,,M,47.951,N,88.806,K,A*38

[1499589086677]$GPGGA,053126.00,5357.96511,N,02728.31641,E,1,11,0.91,209.8,M,24.9,M,,*5B

[1499589086677]$GPGSA,A,3,10,24,01,17,13,19,11,18,28,15,12,,1.99,0.91,1.77*04

[1499589086677]$GPGSV,3,1,12,01,13,044,23,10,13,322,15,11,10,031,07,12,17,240,39*73

[1499589086677]$GPGSV,3,2,12,13,40,182,35,15,51,238,36,17,52,106,33,18,13,296,22*7C

[1499589086677]$GPGSV,3,3,12,19,43,144,34,24,44,289,27,28,33,063,32,30,07,111,16*7F

[1499589086677]$GPGLL,5357.96511,N,02728.31641,E,053126.00,A,A*6A

[1499589087677]$GPRMC,053127.00,A,5357.96129,N,02728.29480,E,47.957,253.31,090717,,,A*53

[1499589087677]$GPVTG,253.31,T,,M,47.957,N,88.816,K,A*3C

[1499589087677]$GPGGA,053127.00,5357.96129,N,02728.29480,E,1,11,0.91,209.6,M,24.9,M,,*5D

[1499589087677]$GPGSA,A,3,10,24,01,17,13,19,11,18,28,15,12,,1.99,0.91,1.77*04

[1499589087677]$GPGSV,3,1,12,01,13,044,26,10,13,322,14,11,10,031,07,12,17,240,39*77

[1499589087677]$GPGSV,3,2,12,13,40,182,35,15,51,238,36,17,52,106,32,18,13,296,21*7E

[1499589087677]$GPGSV,3,3,12,19,43,144,34,24,44,289,27,28,33,063,32,30,07,111,16*7F

[1499589087677]$GPGLL,5357.96129,N,02728.29480,E,053127.00,A,A*62

[1499589088686]$GPRMC,053128.00,A,5357.95751,N,02728.27318,E,48.003,253.35,090717,,,A*5D

[1499589088686]$GPVTG,253.35,T,,M,48.003,N,88.901,K,A*38

[1499589088686]$GPGGA,053128.00,5357.95751,N,02728.27318,E,1,12,0.91,209.3,M,24.9,M,,*56

[1499589088686]$GPGSA,A,3,10,24,01,30,17,13,19,11,18,28,15,12,1.99,0.91,1.77*07

[1499589088686]$GPGSV,3,1,12,01,13,044,26,10,13,322,13,11,09,031,07,12,17,240,39*78

[1499589088686]$GPGSV,3,2,12,13,40,182,35,15,51,238,36,17,52,106,33,18,13,296,25*7B

[1499589088686]$GPGSV,3,3,12,19,43,144,34,24,44,289,26,28,33,063,32,30,07,111,17*7F

[1499589088686]$GPGLL,5357.95751,N,02728.27318,E,053128.00,A,A*6F

[1499589089687]$GPRMC,053129.00,A,5357.95362,N,02728.25155,E,48.030,252.90,090717,,,A*5F

[1499589089687]$GPVTG,252.90,T,,M,48.030,N,88.952,K,A*30

[1499589089687]$GPGGA,053129.00,5357.95362,N,02728.25155,E,1,12,0.91,209.0,M,24.9,M,,*59

[1499589089687]$GPGSA,A,3,10,24,01,30,17,13,19,11,18,28,15,12,1.99,0.91,1.77*07

[1499589089687]$GPGSV,3,1,12,01,13,044,32,10,13,322,13,11,09,031,07,12,17,240,39*7D

[1499589089687]$GPGSV,3,2,12,13,40,182,36,15,51,238,36,17,52,106,32,18,13,296,24*78

[1499589089687]$GPGSV,3,3,12,19,43,144,34,24,44,289,27,28,33,063,27,30,07,111,16*7B

[1499589089687]$GPGLL,5357.95362,N,02728.25155,E,053129.00,A,A*63

[1499589090686]$GPRMC,053130.00,A,5357.94953,N,02728.23001,E,48.116,251.57,090717,,,A*55

[1499589090686]$GPVTG,251.57,T,,M,48.116,N,89.110,K,A*32

[1499589090686]$GPGGA,053130.00,5357.94953,N,02728.23001,E,1,12,0.91,209.0,M,24.9,M,,*5E

[1499589090686]$GPGSA,A,3,10,24,01,30,17,13,19,11,18,28,15,12,1.99,0.91,1.77*07

[1499589090686]$GPGSV,3,1,12,01,13,044,31,10,13,322,12,11,09,031,07,12,17,240,39*7F

[1499589090686]$GPGSV,3,2,12,13,40,182,36,15,51,238,35,17,52,106,30,18,13,296,22*7F

[1499589090686]$GPGSV,3,3,12,19,43,144,35,24,44,289,30,28,33,063,32,30,07,111,14*7A

[1499589090686]$GPGLL,5357.94953,N,02728.23001,E,053130.00,A,A*64

[1499589091677]$GPRMC,053131.00,A,5357.94497,N,02728.20879,E,48.030,249.18,090717,,,A*52

[1499589091677]$GPVTG,249.18,T,,M,48.030,N,88.951,K,A*39

[1499589091677]$GPGGA,053131.00,5357.94497,N,02728.20879,E,1,12,0.91,208.9,M,24.9,M,,*56

[1499589091677]$GPGSA,A,3,10,24,01,30,17,13,19,11,18,28,15,12,1.99,0.91,1.77*07

[1499589091677]$GPGSV,3,1,12,01,13,044,25,10,13,322,11,11,09,031,07,12,17,240,36*76

[1499589091677]$GPGSV,3,2,12,13,40,182,32,15,51,238,36,17,52,106,32,18,13,296,18*73

[1499589091677]$GPGSV,3,3,12,19,43,144,35,24,44,289,33,28,33,063,33,30,07,111,13*7F

[1499589091677]$GPGLL,5357.94497,N,02728.20879,E,053131.00,A,A*64

[1499589092677]$GPRMC,053132.00,A,5357.93978,N,02728.18805,E,48.032,245.81,090717,,,A*54

[1499589092677]$GPVTG,245.81,T,,M,48.032,N,88.955,K,A*33

[1499589092677]$GPGGA,053132.00,5357.93978,N,02728.18805,E,1,10,0.99,208.8,M,24.9,M,,*55

[1499589092677]$GPGSA,A,3,24,01,30,17,13,19,18,28,15,12,,,2.10,0.99,1.85*01

[1499589092677]$GPGSV,3,1,12,01,13,044,29,10,13,322,09,11,09,031,,12,17,240,29*7A

[1499589092677]$GPGSV,3,2,12,13,40,182,31,15,51,237,36,17,52,106,34,18,13,296,16*77

[1499589092677]$GPGSV,3,3,12,19,43,144,34,24,44,289,29,28,33,063,32,30,07,111,14*73

[1499589092677]$GPGLL,5357.93978,N,02728.18805,E,053132.00,A,A*6C

[1499589093677]$GPRMC,053133.00,A,5357.93425,N,02728.16764,E,48.032,244.75,090717,,,A*5C

[1499589093677]$GPVTG,244.75,T,,M,48.032,N,88.955,K,A*39

[1499589093677]$GPGGA,053133.00,5357.93425,N,02728.16764,E,1,10,0.99,208.7,M,24.9,M,,*58

[1499589093677]$GPGSA,A,3,24,01,30,17,13,19,18,28,15,12,,,2.10,0.99,1.85*01

[1499589093677]$GPGSV,3,1,12,01,13,044,31,10,13,322,08,11,09,031,,12,17,240,30*7A

[1499589093677]$GPGSV,3,2,12,13,40,182,29,15,51,237,37,17,52,106,35,18,13,296,14*7C

[1499589093677]$GPGSV,3,3,12,19,43,144,34,24,44,289,29,28,33,063,32,30,07,111,13*74

[1499589093677]$GPGLL,5357.93425,N,02728.16764,E,053133.00,A,A*6E

[1499589094677]$GPRMC,053134.00,A,5357.92857,N,02728.14734,E,47.987,244.11,090717,,,A*5E

[1499589094677]$GPVTG,244.11,T,,M,47.987,N,88.871,K,A*34

[1499589094677]$GPGGA,053134.00,5357.92857,N,02728.14734,E,1,09,0.99,208.5,M,24.9,M,,*5A

[1499589094677]$GPGSA,A,3,24,01,17,13,19,18,28,15,12,,,,2.10,0.99,1.85*02

[1499589094677]$GPGSV,3,1,12,01,13,044,31,10,13,322,08,11,09,031,,12,17,240,30*7A

[1499589094677]$GPGSV,3,2,12,13,40,182,28,15,51,237,37,17,52,106,35,18,13,296,16*7F

[1499589094677]$GPGSV,3,3,12,19,43,144,34,24,44,289,29,28,33,063,32,30,07,111,12*75

[1499589094677]$GPGLL,5357.92857,N,02728.14734,E,053134.00,A,A*66

[1499589095677]$GPRMC,053135.00,A,5357.92272,N,02728.12716,E,48.019,243.53,090717,,,A*54

[1499589095677]$GPVTG,243.53,T,,M,48.019,N,88.932,K,A*32

[1499589095677]$GPGGA,053135.00,5357.92272,N,02728.12716,E,1,09,0.99,208.4,M,24.9,M,,*51

[1499589095677]$GPGSA,A,3,24,01,17,13,19,18,28,15,12,,,,2.10,0.99,1.85*02

[1499589095677]$GPGSV,3,1,12,01,13,044,32,10,13,322,08,11,09,031,07,12,17,240,30*7E

[1499589095677]$GPGSV,3,2,12,13,40,182,27,15,51,237,37,17,52,106,36,18,13,296,17*72

[1499589095677]$GPGSV,3,3,12,19,43,144,34,24,44,289,29,28,33,063,32,30,07,111,10*77

[1499589095677]$GPGLL,5357.92272,N,02728.12716,E,053135.00,A,A*6C

[1499589096677]$GPRMC,053136.00,A,5357.91669,N,02728.10714,E,48.082,242.70,090717,,,A*58

[1499589096677]$GPVTG,242.70,T,,M,48.082,N,89.049,K,A*34

[1499589096677]$GPGGA,053136.00,5357.91669,N,02728.10714,E,1,09,0.99,208.0,M,24.9,M,,*5B

[1499589096677]$GPGSA,A,3,24,01,17,13,19,18,28,15,12,,,,2.10,0.99,1.85*02

[1499589096677]$GPGSV,3,1,12,01,13,044,33,10,13,322,08,11,09,031,08,12,17,240,31*71

[1499589096677]$GPGSV,3,2,12,13,40,182,28,15,51,237,38,17,52,106,38,18,13,296,16*7D

[1499589096677]$GPGSV,3,3,12,19,43,144,35,24,44,289,30,28,33,063,31,30,07,111,*7C

[1499589096677]$GPGLL,5357.91669,N,02728.10714,E,053136.00,A,A*62

[1499589097679]$GPRMC,053137.00,A,5357.91056,N,02728.08719,E,48.094,242.52,090717,,,A*50

[1499589097679]$GPVTG,242.52,T,,M,48.094,N,89.069,K,A*31

[1499589097679]$GPGGA,053137.00,5357.91056,N,02728.08719,E,1,09,0.99,207.5,M,24.9,M,,*5E

[1499589097679]$GPGSA,A,3,24,01,17,13,19,18,28,15,12,,,,2.10,0.99,1.85*02

[1499589097679]$GPGSV,3,1,12,01,13,044,32,10,13,322,08,11,09,031,10,12,17,240,31*79

[1499589097679]$GPGSV,3,2,12,13,40,182,28,15,51,237,38,17,52,106,38,18,13,296,14*7F

[1499589097679]$GPGSV,3,3,12,19,43,144,36,24,44,289,30,28,33,063,31,30,07,111,*7F

[1499589097679]$GPGLL,5357.91056,N,02728.08719,E,053137.00,A,A*6D

[1499589098677]$GPRMC,053138.00,A,5357.90440,N,02728.06722,E,48.120,242.35,090717,,,A*54

[1499589098677]$GPVTG,242.35,T,,M,48.120,N,89.119,K,A*38

[1499589098677]$GPGGA,053138.00,5357.90440,N,02728.06722,E,1,09,0.99,207.1,M,24.9,M,,*51

[1499589098677]$GPGSA,A,3,24,01,17,13,19,18,28,15,12,,,,2.10,0.99,1.85*02

[1499589098677]$GPGSV,3,1,12,01,13,044,33,10,13,322,,11,09,031,11,12,17,240,31*71

[1499589098677]$GPGSV,3,2,12,13,40,182,27,15,51,237,38,17,52,106,38,18,13,296,13*77

[1499589098677]$GPGSV,3,3,12,19,43,144,36,24,44,289,30,28,33,063,31,30,07,111,*7F

[1499589098677]$GPGLL,5357.90440,N,02728.06722,E,053138.00,A,A*66

[1499589099678]$GPRMC,053139.00,A,5357.89820,N,02728.04732,E,48.105,241.86,090717,,,A*58

[1499589099678]$GPVTG,241.86,T,,M,48.105,N,89.091,K,A*35

[1499589099678]$GPGGA,053139.00,5357.89820,N,02728.04732,E,1,09,0.99,206.7,M,24.9,M,,*56

[1499589099678]$GPGSA,A,3,24,01,17,13,19,18,28,15,12,,,,2.10,0.99,1.85*02

[1499589099678]$GPGSV,3,1,12,01,13,044,35,10,13,322,,11,09,031,10,12,17,240,30*77

[1499589099678]$GPGSV,3,2,12,13,40,182,28,15,51,237,38,17,52,106,39,18,13,296,13*79

[1499589099678]$GPGSV,3,3,12,19,43,144,36,24,44,289,30,28,33,063,31,30,07,111,*7F

[1499589099678]$GPGLL,5357.89820,N,02728.04732,E,053139.00,A,A*66

[1499589100687]$GPRMC,053140.00,A,5357.89188,N,02728.02755,E,48.089,241.22,090717,,,A*51

[1499589100687]$GPVTG,241.22,T,,M,48.089,N,89.062,K,A*32

[1499589100687]$GPGGA,053140.00,5357.89188,N,02728.02755,E,1,09,0.99,206.4,M,24.9,M,,*57

[1499589100687]$GPGSA,A,3,24,01,17,13,19,18,28,15,12,,,,2.10,0.99,1.85*02

[1499589100687]$GPGSV,3,1,12,01,13,044,33,10,13,322,,11,09,031,10,12,17,240,31*70

[1499589100687]$GPGSV,3,2,12,13,40,182,28,15,51,237,38,17,52,106,40,18,13,296,14*70

[1499589100687]$GPGSV,3,3,12,19,43,144,36,24,44,289,30,28,33,063,31,30,07,111,18*76

[1499589100687]$GPGLL,5357.89188,N,02728.02755,E,053140.00,A,A*64

[1499589101687]$GPRMC,053141.00,A,5357.88536,N,02728.00807,E,48.061,240.48,090717,,,A*51

[1499589101687]$GPVTG,240.48,T,,M,48.061,N,89.009,K,A*34

[1499589101687]$GPGGA,053141.00,5357.88536,N,02728.00807,E,1,09,0.99,205.8,M,24.9,M,,*53

[1499589101687]$GPGSA,A,3,24,01,17,13,19,18,28,15,12,,,,2.10,0.99,1.85*02

[1499589101687]$GPGSV,3,1,12,01,13,044,33,10,13,322,18,11,09,031,09,12,17,240,32*72

[1499589101687]$GPGSV,3,2,12,13,40,182,29,15,51,237,39,17,52,106,41,18,13,296,19*7C

[1499589101687]$GPGSV,3,3,12,19,43,144,36,24,45,289,30,28,33,063,31,30,07,111,16*79

[1499589101687]$GPGLL,5357.88536,N,02728.00807,E,053141.00,A,A*6F

[1499589102687]$GPRMC,053142.00,A,5357.87865,N,02727.98873,E,48.098,239.72,090717,,,A*5A

[1499589102687]$GPVTG,239.72,T,,M,48.098,N,89.077,K,A*3C

[1499589102687]$GPGGA,053142.00,5357.87865,N,02727.98873,E,1,09,0.99,205.1,M,24.9,M,,*50

[1499589102687]$GPGSA,A,3,24,01,17,13,19,18,28,15,12,,,,2.10,0.99,1.85*02

[1499589102687]$GPGSV,3,1,12,01,13,044,32,10,13,322,17,11,09,031,09,12,17,240,35*7B

[1499589102687]$GPGSV,3,2,12,13,40,182,30,15,51,237,39,17,52,106,41,18,13,296,22*7C

[1499589102687]$GPGSV,3,3,12,19,43,144,36,24,45,289,30,28,33,063,31,30,07,111,16*79

[1499589102687]$GPGLL,5357.87865,N,02727.98873,E,053142.00,A,A*65

[1499589103691]$GPRMC,053143.00,A,5357.87178,N,02727.96953,E,48.164,238.77,090717,,,A*55

[1499589103691]$GPVTG,238.77,T,,M,48.164,N,89.200,K,A*38

[1499589103691]$GPGGA,053143.00,5357.87178,N,02727.96953,E,1,09,0.99,204.5,M,24.9,M,,*5C

[1499589103691]$GPGSA,A,3,24,01,17,13,19,18,28,15,12,,,,2.10,0.99,1.85*02

[1499589103691]$GPGSV,3,1,12,01,13,044,32,10,13,322,15,11,09,031,09,12,17,240,33*7F

[1499589103691]$GPGSV,3,2,12,13,40,182,32,15,51,237,39,17,52,106,41,18,13,296,23*7F

[1499589103691]$GPGSV,3,3,12,19,43,144,37,24,45,289,31,28,33,063,31,30,07,111,15*7A

[1499589103691]$GPGLL,5357.87178,N,02727.96953,E,053143.00,A,A*6C

[1499589104687]$GPRMC,053144.00,A,5357.86477,N,02727.95043,E,48.109,237.73,090717,,,A*52

[1499589104687]$GPVTG,237.73,T,,M,48.109,N,89.099,K,A*3A

[1499589104687]$GPGGA,053144.00,5357.86477,N,02727.95043,E,1,10,0.85,204.4,M,24.9,M,,*5F

[1499589104687]$GPGSA,A,3,24,01,30,17,13,19,18,28,15,12,,,1.61,0.85,1.37*00

[1499589104687]$GPGSV,3,1,12,01,13,044,33,10,13,322,15,11,09,031,09,12,17,240,34*79

[1499589104687]$GPGSV,3,2,12,13,40,182,33,15,51,237,38,17,52,106,42,18,13,296,23*7C

[1499589104687]$GPGSV,3,3,12,19,43,144,37,24,45,289,32,28,33,063,32,30,07,111,16*79

[1499589104687]$GPGLL,5357.86477,N,02727.95043,E,053144.00,A,A*6B

[1499589105687]$GPRMC,053145.00,A,5357.85766,N,02727.93150,E,48.130,237.31,090717,,,A*5A

[1499589105687]$GPVTG,237.31,T,,M,48.130,N,89.138,K,A*3C

[1499589105687]$GPGGA,053145.00,5357.85766,N,02727.93150,E,1,11,0.85,204.4,M,24.9,M,,*5A

[1499589105687]$GPGSA,A,3,10,24,01,30,17,13,19,18,28,15,12,,1.61,0.85,1.37*01

[1499589105687]$GPGSV,3,1,12,01,13,044,33,10,13,322,27,11,09,031,09,12,17,240,37*7B

[1499589105687]$GPGSV,3,2,12,13,40,182,33,15,51,237,38,17,52,106,41,18,13,296,21*7D

[1499589105687]$GPGSV,3,3,12,19,43,144,37,24,45,289,32,28,33,063,32,30,07,111,15*7A

[1499589105687]$GPGLL,5357.85766,N,02727.93150,E,053145.00,A,A*6F

[1499589106687]$GPRMC,053146.00,A,5357.85046,N,02727.91256,E,48.138,237.15,090717,,,A*55

[1499589106687]$GPVTG,237.15,T,,M,48.138,N,89.151,K,A*3D

[1499589106687]$GPGGA,053146.00,5357.85046,N,02727.91256,E,1,12,0.75,204.0,M,24.9,M,,*53

[1499589106687]$GPGSA,A,3,10,24,01,30,17,13,19,11,18,28,15,12,1.53,0.75,1.34*0C

[1499589106687]$GPGSV,3,1,12,01,13,044,33,10,13,322,23,11,09,031,09,12,17,240,37*7F

[1499589106687]$GPGSV,3,2,12,13,40,182,33,15,51,237,37,17,52,106,41,18,13,296,19*79

[1499589106687]$GPGSV,3,3,12,19,43,144,37,24,45,289,32,28,33,063,32,30,07,111,15*7A

[1499589106687]$GPGLL,5357.85046,N,02727.91256,E,053146.00,A,A*6E

[1499589107677]$GPRMC,053147.00,A,5357.84323,N,02727.89369,E,48.168,236.93,090717,,,A*5B

[1499589107677]$GPVTG,236.93,T,,M,48.168,N,89.208,K,A*38

[1499589107677]$GPGGA,053147.00,5357.84323,N,02727.89369,E,1,12,0.75,203.7,M,24.9,M,,*57

[1499589107677]$GPGSA,A,3,10,24,01,30,17,13,19,11,18,28,15,12,1.53,0.75,1.34*0C

[1499589107677]$GPGSV,3,1,12,01,13,044,33,10,13,322,19,11,09,031,09,12,17,240,36*77

[1499589107677]$GPGSV,3,2,12,13,40,182,33,15,51,237,37,17,52,106,41,18,13,296,18*78

[1499589107677]$GPGSV,3,3,12,19,43,144,37,24,45,289,32,28,33,063,32,30,06,111,14*7A

[1499589107677]$GPGLL,5357.84323,N,02727.89369,E,053147.00,A,A*6A

[1499589108677]$GPRMC,053148.00,A,5357.83593,N,02727.87491,E,48.192,236.48,090717,,,A*53

[1499589108677]$GPVTG,236.48,T,,M,48.192,N,89.252,K,A*34

[1499589108677]$GPGGA,053148.00,5357.83593,N,02727.87491,E,1,11,0.85,203.6,M,24.9,M,,*51

[1499589108677]$GPGSA,A,3,10,24,01,30,17,13,19,18,28,15,12,,1.61,0.85,1.37*01

[1499589108677]$GPGSV,3,1,12,01,13,044,34,10,13,322,12,11,09,031,04,12,17,240,36*76

[1499589108677]$GPGSV,3,2,12,13,40,182,33,15,51,237,37,17,52,106,41,18,13,296,16*76

[1499589108677]$GPGSV,3,3,12,19,43,144,37,24,45,289,33,28,33,063,32,30,06,111,13*7C

[1499589108677]$GPGLL,5357.83593,N,02727.87491,E,053148.00,A,A*61

[1499589109677]$GPRMC,053149.00,A,5357.82849,N,02727.85625,E,48.184,235.87,090717,,,A*51

[1499589109677]$GPVTG,235.87,T,,M,48.184,N,89.237,K,A*30

[1499589109677]$GPGGA,053149.00,5357.82849,N,02727.85625,E,1,11,0.80,203.4,M,24.9,M,,*53

[1499589109677]$GPGSA,A,3,24,01,30,17,13,19,11,18,28,15,12,,1.56,0.80,1.34*02

[1499589109677]$GPGSV,3,1,12,01,13,044,34,10,13,322,,11,09,031,30,12,17,240,37*73

[1499589109677]$GPGSV,3,2,12,13,40,182,32,15,51,237,37,17,52,106,40,18,13,296,14*74

[1499589109677]$GPGSV,3,3,12,19,43,144,36,24,45,289,33,28,33,063,32,30,06,111,14*7A

[1499589109677]$GPGLL,5357.82849,N,02727.85625,E,053149.00,A,A*64

[1499589110687]$GPRMC,053150.00,A,5357.82090,N,02727.83773,E,48.233,234.86,090717,,,A*5E

[1499589110687]$GPVTG,234.86,T,,M,48.233,N,89.327,K,A*3F

[1499589110687]$GPGGA,053150.00,5357.82090,N,02727.83773,E,1,11,0.80,203.4,M,24.9,M,,*53

[1499589110687]$GPGSA,A,3,24,01,30,17,13,19,11,18,28,15,12,,1.56,0.80,1.34*02

[1499589110687]$GPGSV,3,1,12,01,13,044,34,10,13,322,,11,09,031,21,12,17,240,37*73

[1499589110687]$GPGSV,3,2,12,13,40,182,32,15,51,237,36,17,52,106,39,18,13,296,12*7D

[1499589110687]$GPGSV,3,3,12,19,43,144,35,24,45,289,34,28,33,063,32,30,06,111,15*7F

[1499589110687]$GPGLL,5357.82090,N,02727.83773,E,053150.00,A,A*64

[1499589111679]$GPRMC,053151.00,A,5357.81307,N,02727.81941,E,48.222,234.17,090717,,,A*54

[1499589111679]$GPVTG,234.17,T,,M,48.222,N,89.308,K,A*3A

[1499589111679]$GPGGA,053151.00,5357.81307,N,02727.81941,E,1,11,0.80,203.1,M,24.9,M,,*54

[1499589111679]$GPGSA,A,3,24,01,30,17,13,19,11,18,28,15,12,,1.56,0.80,1.34*02

[1499589111679]$GPGSV,3,1,12,01,13,044,34,10,13,322,,11,09,031,19,12,17,240,37*78

[1499589111679]$GPGSV,3,2,12,13,40,182,31,15,51,237,35,17,52,106,39,18,13,296,11*7E

