[1499553139577]$GPRMC,193219.00,A,5356.96522,N,02741.58775,E,22.141,152.85,080717,,,A*5E

[1499553139577]$GPVTG,152.85,T,,M,22.141,N,41.005,K,A*32

[1499553139577]$GPGGA,193219.00,5356.96522,N,02741.58775,E,1,10,1.16,222.0,M,24.7,M,,*5E

[1499553139577]$GPGSA,A,3,22,01,14,03,11,32,17,31,19,23,,,2.22,1.16,1.89*0D

[1499553139577]$GPGSV,4,1,13,01,74,209,25,03,51,270,24,04,16,129,24,08,00,192,*79

[1499553139577]$GPGSV,4,2,13,11,47,195,29,12,05,017,,14,50,066,34,17,30,306,32*7E

[1499553139577]$GPGSV,4,3,13,19,17,325,29,22,80,263,30,23,15,215,16,31,29,109,24*72

[1499553139577]$GPGSV,4,4,13,32,31,055,30*4B

[1499553139577]$GPGLL,5356.96522,N,02741.58775,E,193219.00,A,A*6F

[1499553140580]$GPRMC,193220.00,A,5356.95982,N,02741.59249,E,22.148,152.43,080717,,,A*59

[1499553140580]$GPVTG,152.43,T,,M,22.148,N,41.019,K,A*3C

[1499553140580]$GPGGA,193220.00,5356.95982,N,02741.59249,E,1,10,1.16,222.1,M,24.7,M,,*5B

[1499553140580]$GPGSA,A,3,22,01,14,03,11,32,17,31,19,23,,,2.22,1.16,1.89*0D

[1499553140580]$GPGSV,4,1,13,01,74,209,25,03,51,270,23,04,16,129,26,08,00,192,*7C

[1499553140580]$GPGSV,4,2,13,11,47,195,28,12,05,017,,14,50,066,33,17,30,306,32*78

[1499553140580]$GPGSV,4,3,13,19,17,325,29,22,80,263,31,23,15,215,16,31,29,109,24*73

[1499553140580]$GPGSV,4,4,13,32,31,055,30*4B

[1499553140580]$GPGLL,5356.95982,N,02741.59249,E,193220.00,A,A*6B

[1499553141577]$GPRMC,193221.00,A,5356.95444,N,02741.59719,E,22.009,152.77,080717,,,A*5C

[1499553141577]$GPVTG,152.77,T,,M,22.009,N,40.760,K,A*37

[1499553141577]$GPGGA,193221.00,5356.95444,N,02741.59719,E,1,10,1.16,222.3,M,24.7,M,,*5F

[1499553141577]$GPGSA,A,3,22,01,14,03,11,32,17,31,19,23,,,2.22,1.16,1.89*0D

[1499553141577]$GPGSV,4,1,13,01,74,209,25,03,51,270,23,04,16,129,24,08,00,192,*7E

[1499553141577]$GPGSV,4,2,13,11,47,195,28,12,05,017,,14,50,066,33,17,30,306,28*73

[1499553141577]$GPGSV,4,3,13,19,17,325,29,22,80,263,31,23,15,215,16,31,29,109,34*72

[1499553141577]$GPGSV,4,4,13,32,31,055,21*4B

[1499553141577]$GPGLL,5356.95444,N,02741.59719,E,193221.00,A,A*6D

[1499553142566]$GPRMC,193222.00,A,5356.94905,N,02741.60169,E,21.502,153.14,080717,,,A*54

[1499553142566]$GPVTG,153.14,T,,M,21.502,N,39.822,K,A*39

[1499553142566]$GPGGA,193222.00,5356.94905,N,02741.60169,E,1,10,1.16,222.4,M,24.7,M,,*59

[1499553142566]$GPGSA,A,3,22,01,14,03,11,32,17,31,19,23,,,2.22,1.16,1.89*0D

[1499553142566]$GPGSV,4,1,13,01,74,209,26,03,51,270,31,04,16,129,25,08,00,192,*7F

[1499553142566]$GPGSV,4,2,13,11,47,195,29,12,05,017,,14,50,066,34,17,30,306,26*7B

[1499553142566]$GPGSV,4,3,13,19,17,325,29,22,80,263,30,23,15,215,16,31,29,109,34*73

[1499553142566]$GPGSV,4,4,13,32,31,055,29*43

[1499553142566]$GPGLL,5356.94905,N,02741.60169,E,193222.00,A,A*6C

[1499553143577]$GPRMC,193223.00,A,5356.94380,N,02741.60584,E,20.284,155.24,080717,,,A*58

[1499553143577]$GPVTG,155.24,T,,M,20.284,N,37.565,K,A*34

[1499553143577]$GPGGA,193223.00,5356.94380,N,02741.60584,E,1,10,1.16,222.3,M,24.7,M,,*5F

[1499553143577]$GPGSA,A,3,22,01,14,03,11,32,17,31,19,23,,,2.22,1.16,1.89*0D

[1499553143577]$GPGSV,4,1,13,01,74,209,26,03,51,270,30,04,16,129,24,08,00,192,*7F

[1499553143577]$GPGSV,4,2,13,11,47,195,30,12,05,017,,14,50,066,34,17,30,306,26*73

[1499553143577]$GPGSV,4,3,13,19,17,325,28,22,80,263,30,23,15,215,16,31,29,109,29*7E

[1499553143577]$GPGSV,4,4,13,32,31,055,26*4C

[1499553143577]$GPGLL,5356.94380,N,02741.60584,E,193223.00,A,A*6D

[1499553144576]$GPRMC,193224.00,A,5356.93886,N,02741.60974,E,18.672,156.39,080717,,,A*5F

[1499553144576]$GPVTG,156.39,T,,M,18.672,N,34.581,K,A*34

[1499553144576]$GPGGA,193224.00,5356.93886,N,02741.60974,E,1,10,1.16,221.3,M,24.7,M,,*52

[1499553144576]$GPGSA,A,3,22,01,14,03,11,32,17,31,19,23,,,2.22,1.16,1.90*05

[1499553144576]$GPGSV,4,1,13,01,74,208,26,03,51,270,34,04,16,129,23,08,00,192,*7D

[1499553144576]$GPGSV,4,2,13,11,47,195,29,12,05,017,,14,50,066,35,17,30,306,31*7C

[1499553144576]$GPGSV,4,3,13,19,17,325,26,22,80,263,31,23,15,215,17,31,29,109,32*7A

[1499553144576]$GPGSV,4,4,13,32,31,055,32*49

[1499553144576]$GPGLL,5356.93886,N,02741.60974,E,193224.00,A,A*63

[1499553145576]$GPRMC,193225.00,A,5356.93403,N,02741.61318,E,18.543,158.33,080717,,,A*5B

[1499553145576]$GPVTG,158.33,T,,M,18.543,N,34.342,K,A*38

[1499553145576]$GPGGA,193225.00,5356.93403,N,02741.61318,E,1,10,1.16,220.8,M,24.7,M,,*59

[1499553145576]$GPGSA,A,3,22,01,14,03,11,32,17,31,19,23,,,2.22,1.16,1.90*05

[1499553145576]$GPGSV,4,1,13,01,74,208,25,03,51,270,33,04,16,129,30,08,00,192,*7B

[1499553145576]$GPGSV,4,2,13,11,47,195,28,12,05,017,,14,50,066,35,17,30,306,27*7A

[1499553145576]$GPGSV,4,3,13,19,17,325,28,22,80,263,31,23,15,215,20,31,29,109,28*7B

[1499553145576]$GPGSV,4,4,13,32,31,055,31*4A

[1499553145576]$GPGLL,5356.93403,N,02741.61318,E,193225.00,A,A*62

[1499553146582]$GPRMC,193226.00,A,5356.92933,N,02741.61671,E,18.121,156.18,080717,,,A*5A

[1499553146582]$GPVTG,156.18,T,,M,18.121,N,33.561,K,A*3F

[1499553146582]$GPGGA,193226.00,5356.92933,N,02741.61671,E,1,10,1.16,220.3,M,24.7,M,,*54

[1499553146582]$GPGSA,A,3,22,01,14,03,11,32,17,31,19,23,,,2.22,1.16,1.90*05

[1499553146582]$GPGSV,4,1,13,01,74,208,23,03,51,270,34,04,16,129,29,08,00,192,*72

[1499553146582]$GPGSV,4,2,13,11,47,195,28,12,05,017,,14,50,066,35,17,30,306,27*7A

[1499553146582]$GPGSV,4,3,13,19,17,325,27,22,80,263,31,23,15,215,24,31,29,109,29*71

[1499553146582]$GPGSV,4,4,13,32,31,055,26*4C

[1499553146582]$GPGLL,5356.92933,N,02741.61671,E,193226.00,A,A*64

[1499553147582]$GPRMC,193227.00,A,5356.92470,N,02741.62046,E,18.348,154.76,080717,,,A*57

[1499553147582]$GPVTG,154.76,T,,M,18.348,N,33.980,K,A*3B

[1499553147582]$GPGGA,193227.00,5356.92470,N,02741.62046,E,1,10,1.16,219.7,M,24.7,M,,*50

[1499553147582]$GPGSA,A,3,22,01,14,03,11,32,17,31,19,23,,,2.22,1.16,1.90*05

[1499553147582]$GPGSV,4,1,13,01,74,208,25,03,51,270,28,04,16,129,24,08,00,192,*74

[1499553147582]$GPGSV,4,2,13,11,47,195,27,12,05,017,,14,50,066,34,17,30,306,25*76

[1499553147582]$GPGSV,4,3,13,19,17,325,27,22,80,263,32,23,15,215,25,31,29,109,32*79

[1499553147582]$GPGSV,4,4,13,32,31,055,30*4B

[1499553147582]$GPGLL,5356.92470,N,02741.62046,E,193227.00,A,A*6E

[1499553148584]$GPRMC,193228.00,A,5356.92009,N,02741.62435,E,18.652,153.68,080717,,,A*54

[1499553148584]$GPVTG,153.68,T,,M,18.652,N,34.544,K,A*3E

[1499553148584]$GPGGA,193228.00,5356.92009,N,02741.62435,E,1,10,1.16,219.4,M,24.7,M,,*56

[1499553148584]$GPGSA,A,3,22,01,14,03,11,32,17,31,19,23,,,2.22,1.16,1.90*05

[1499553148584]$GPGSV,4,1,13,01,74,208,28,03,51,270,27,04,16,129,24,08,00,192,*76

[1499553148584]$GPGSV,4,2,13,11,47,195,29,12,05,017,,14,50,066,33,17,30,306,26*7C

[1499553148584]$GPGSV,4,3,13,19,17,325,27,22,80,263,32,23,15,215,23,31,29,109,33*7E

[1499553148584]$GPGSV,4,4,13,32,31,055,31*4A

[1499553148584]$GPGLL,5356.92009,N,02741.62435,E,193228.00,A,A*6B

[1499553149566]$GPRMC,193229.00,A,5356.91546,N,02741.62845,E,18.913,153.02,080717,,,A*55

[1499553149566]$GPVTG,153.02,T,,M,18.913,N,35.027,K,A*39

[1499553149566]$GPGGA,193229.00,5356.91546,N,02741.62845,E,1,10,1.16,219.1,M,24.7,M,,*54

[1499553149566]$GPGSA,A,3,22,01,14,03,11,32,17,31,19,23,,,2.22,1.16,1.90*05

[1499553149566]$GPGSV,4,1,13,01,74,208,27,03,51,270,27,04,16,129,25,08,00,192,*78

[1499553149566]$GPGSV,4,2,13,11,47,195,28,12,05,017,,14,50,066,33,17,30,306,27*7C

[1499553149566]$GPGSV,4,3,13,19,17,325,28,22,80,263,32,23,15,215,22,31,29,109,32*71

[1499553149566]$GPGSV,4,4,13,32,31,055,31*4A

[1499553149566]$GPGLL,5356.91546,N,02741.62845,E,193229.00,A,A*6C

[1499553150566]$GPRMC,193230.00,A,5356.91071,N,02741.63266,E,19.729,153.06,080717,,,A*54

[1499553150566]$GPVTG,153.06,T,,M,19.729,N,36.538,K,A*33

[1499553150566]$GPGGA,193230.00,5356.91071,N,02741.63266,E,1,09,1.16,218.8,M,24.7,M,,*57

[1499553150566]$GPGSA,A,3,22,01,14,03,11,32,17,31,19,,,,2.22,1.16,1.90*04

[1499553150566]$GPGSV,4,1,13,01,74,208,27,03,51,270,28,04,16,129,23,08,00,192,*71

[1499553150566]$GPGSV,4,2,13,11,47,195,29,12,05,017,,14,50,066,31,17,30,306,26*7E

[1499553150566]$GPGSV,4,3,13,19,17,325,28,22,80,263,33,23,15,215,,31,29,109,36*74

[1499553150566]$GPGSV,4,4,13,32,31,055,34*4F

[1499553150566]$GPGLL,5356.91071,N,02741.63266,E,193230.00,A,A*6F

[1499553151582]$GPRMC,193231.00,A,5356.90584,N,02741.63679,E,19.814,154.11,080717,,,A*51

[1499553151582]$GPVTG,154.11,T,,M,19.814,N,36.695,K,A*37

[1499553151582]$GPGGA,193231.00,5356.90584,N,02741.63679,E,1,09,1.16,218.4,M,24.7,M,,*5E

[1499553151582]$GPGSA,A,3,22,01,14,03,11,32,17,31,19,,,,2.22,1.16,1.90*04

[1499553151582]$GPGSV,4,1,13,01,74,208,27,03,51,270,30,04,16,129,25,08,00,192,*7E

[1499553151582]$GPGSV,4,2,13,11,47,195,29,12,05,017,,14,50,066,33,17,30,306,26*7C

[1499553151582]$GPGSV,4,3,13,19,17,325,28,22,80,263,33,23,15,215,,31,29,109,36*74

[1499553151582]$GPGSV,4,4,13,32,31,055,30*4B

[1499553151582]$GPGLL,5356.90584,N,02741.63679,E,193231.00,A,A*6A

[1499553152580]$GPRMC,193232.00,A,5356.90087,N,02741.64066,E,19.509,157.25,080717,,,A*5E

[1499553152580]$GPVTG,157.25,T,,M,19.509,N,36.130,K,A*3A

[1499553152580]$GPGGA,193232.00,5356.90087,N,02741.64066,E,1,09,1.16,218.2,M,24.7,M,,*52

[1499553152580]$GPGSA,A,3,22,01,14,03,11,32,17,31,19,,,,2.22,1.16,1.90*04

[1499553152580]$GPGSV,4,1,13,01,74,208,26,03,51,270,35,04,16,129,26,08,00,192,*79

[1499553152580]$GPGSV,4,2,13,11,47,195,29,12,05,017,,14,50,066,34,17,30,306,33*7F

[1499553152580]$GPGSV,4,3,13,19,17,325,29,22,80,263,32,23,15,215,15,31,29,109,30*76

[1499553152580]$GPGSV,4,4,13,32,31,055,30*4B

[1499553152580]$GPGLL,5356.90087,N,02741.64066,E,193232.00,A,A*60

[1499553153581]$GPRMC,193233.00,A,5356.89612,N,02741.64385,E,18.188,159.82,080717,,,A*5C

[1499553153581]$GPVTG,159.82,T,,M,18.188,N,33.685,K,A*39

[1499553153581]$GPGGA,193233.00,5356.89612,N,02741.64385,E,1,09,1.16,218.0,M,24.7,M,,*5D

[1499553153581]$GPGSA,A,3,22,01,14,03,11,32,17,31,19,,,,2.22,1.16,1.90*04

[1499553153581]$GPGSV,4,1,13,01,74,208,24,03,51,270,33,04,16,129,32,08,00,192,*78

[1499553153581]$GPGSV,4,2,13,11,47,195,31,12,05,017,,14,50,066,35,17,30,306,33*77

[1499553153581]$GPGSV,4,3,13,19,17,325,30,22,80,263,31,23,15,215,20,31,29,109,30*7B

[1499553153581]$GPGSV,4,4,13,32,31,055,22*48

[1499553153581]$GPGLL,5356.89612,N,02741.64385,E,193233.00,A,A*6D

[1499553154576]$GPRMC,193234.00,A,5356.89165,N,02741.64717,E,17.418,156.44,080717,,,A*55

[1499553154576]$GPVTG,156.44,T,,M,17.418,N,32.259,K,A*3B

[1499553154576]$GPGGA,193234.00,5356.89165,N,02741.64717,E,1,09,1.16,217.9,M,24.7,M,,*54

[1499553154576]$GPGSA,A,3,22,01,14,03,11,32,17,31,19,,,,2.22,1.16,1.90*04

[1499553154576]$GPGSV,4,1,13,01,74,208,23,03,51,270,36,04,16,129,27,08,00,192,*7E

[1499553154576]$GPGSV,4,2,13,11,47,195,30,12,05,017,,14,50,066,36,17,30,306,29*7E

[1499553154576]$GPGSV,4,3,13,19,17,325,29,22,80,263,30,23,15,215,20,31,29,109,30*72

[1499553154576]$GPGSV,4,4,13,32,31,055,31*4A

[1499553154576]$GPGLL,5356.89165,N,02741.64717,E,193234.00,A,A*62

[1499553155576]$GPRMC,193235.00,A,5356.88742,N,02741.65069,E,16.761,154.35,080717,,,A*51

[1499553155576]$GPVTG,154.35,T,,M,16.761,N,31.041,K,A*3B

[1499553155576]$GPGGA,193235.00,5356.88742,N,02741.65069,E,1,10,1.16,217.6,M,24.7,M,,*5F

[1499553155576]$GPGSA,A,3,22,01,14,03,11,32,17,31,19,23,,,2.22,1.16,1.90*05

[1499553155576]$GPGSV,4,1,13,01,74,208,24,03,51,270,32,04,16,129,30,08,00,192,*7B

[1499553155576]$GPGSV,4,2,13,11,47,195,28,12,05,017,15,14,50,066,35,17,30,306,27*7E

[1499553155576]$GPGSV,4,3,13,19,17,325,29,22,80,263,30,23,15,215,21,31,29,109,30*73

[1499553155576]$GPGSV,4,4,13,32,31,055,32*49

[1499553155576]$GPGLL,5356.88742,N,02741.65069,E,193235.00,A,A*6E

[1499553156584]$GPRMC,193236.00,A,5356.88361,N,02741.65404,E,15.225,152.66,080717,,,A*5E

[1499553156584]$GPVTG,152.66,T,,M,15.225,N,28.197,K,A*3F

[1499553156584]$GPGGA,193236.00,5356.88361,N,02741.65404,E,1,10,0.87,217.7,M,24.7,M,,*5E

[1499553156584]$GPGSA,A,3,22,01,14,03,11,32,17,31,19,23,,,1.59,0.87,1.33*0A

[1499553156584]$GPGSV,4,1,13,01,74,208,29,03,51,270,26,04,16,129,23,08,00,192,*71

[1499553156584]$GPGSV,4,2,13,11,47,195,28,12,05,017,14,14,50,066,34,17,30,306,26*7F

[1499553156584]$GPGSV,4,3,13,19,17,325,30,22,80,263,30,23,15,215,21,31,29,109,29*73

[1499553156584]$GPGSV,4,4,13,32,31,055,32*49

[1499553156584]$GPGLL,5356.88361,N,02741.65404,E,193236.00,A,A*67

[1499553157576]$GPRMC,193237.00,A,5356.88030,N,02741.65702,E,12.956,152.69,080717,,,A*5A

[1499553157576]$GPVTG,152.69,T,,M,12.956,N,23.995,K,A*39

[1499553157576]$GPGGA,193237.00,5356.88030,N,02741.65702,E,1,10,0.87,217.6,M,24.7,M,,*5C

[1499553157576]$GPGSA,A,3,22,01,14,03,11,32,17,31,19,23,,,1.59,0.87,1.33*0A

[1499553157576]$GPGSV,4,1,13,01,74,208,30,03,51,270,25,04,16,129,25,08,00,192,*7C

[1499553157576]$GPGSV,4,2,13,11,47,195,28,12,05,017,15,14,50,066,34,17,30,306,31*78

[1499553157576]$GPGSV,4,3,13,19,17,325,28,22,80,263,30,23,15,215,29,31,29,109,33*79

[1499553157576]$GPGSV,4,4,13,32,31,055,26*4C

[1499553157576]$GPGLL,5356.88030,N,02741.65702,E,193237.00,A,A*64

[1499553158577]$GPRMC,193238.00,A,5356.87740,N,02741.65946,E,11.611,155.05,080717,,,A*56

[1499553158577]$GPVTG,155.05,T,,M,11.611,N,21.503,K,A*3A

[1499553158577]$GPGGA,193238.00,5356.87740,N,02741.65946,E,1,10,0.87,217.6,M,24.7,M,,*52

[1499553158577]$GPGSA,A,3,22,01,14,03,11,32,17,31,19,23,,,1.59,0.87,1.33*0A

[1499553158577]$GPGSV,4,1,13,01,74,208,29,03,51,270,26,04,16,129,26,08,00,192,*74

[1499553158577]$GPGSV,4,2,13,11,47,195,28,12,05,017,16,14,50,066,34,17,30,306,26*7D

[1499553158577]$GPGSV,4,3,13,19,17,325,28,22,80,263,31,23,15,215,32,31,29,109,32*73

[1499553158577]$GPGSV,4,4,13,32,31,055,27*4D

[1499553158577]$GPGLL,5356.87740,N,02741.65946,E,193238.00,A,A*6A

[1499553159577]$GPRMC,193239.00,A,5356.87489,N,02741.66131,E,9.757,160.75,080717,,,A*61

[1499553159577]$GPVTG,160.75,T,,M,9.757,N,18.071,K,A*0B

[1499553159577]$GPGGA,193239.00,5356.87489,N,02741.66131,E,1,10,0.87,218.0,M,24.7,M,,*57

[1499553159577]$GPGSA,A,3,22,01,14,03,11,32,17,31,19,23,,,1.59,0.87,1.33*0A

[1499553159577]$GPGSV,4,1,13,01,74,208,26,03,51,270,34,04,16,129,27,08,00,192,*79

[1499553159577]$GPGSV,4,2,13,11,47,195,33,12,05,017,16,14,50,066,36,17,30,306,31*73

[1499553159577]$GPGSV,4,3,13,19,17,325,29,22,80,263,31,23,15,215,33,31,29,109,32*73

[1499553159577]$GPGSV,4,4,13,32,31,055,20*4A

[1499553159577]$GPGLL,5356.87489,N,02741.66131,E,193239.00,A,A*66

[1499553160566]$GPRMC,193240.00,A,5356.87249,N,02741.66200,E,9.927,171.87,080717,,,A*60

[1499553160566]$GPVTG,171.87,T,,M,9.927,N,18.384,K,A*06

[1499553160566]$GPGGA,193240.00,5356.87249,N,02741.66200,E,1,10,0.87,219.1,M,24.7,M,,*52

[1499553160566]$GPGSA,A,3,22,01,14,03,11,32,17,31,19,23,,,1.59,0.87,1.33*0A

[1499553160566]$GPGSV,4,1,13,01,74,208,26,03,51,270,35,04,16,129,27,08,00,192,*78

[1499553160566]$GPGSV,4,2,13,11,47,195,32,12,05,017,16,14,50,066,27,17,30,306,35*76

[1499553160566]$GPGSV,4,3,13,19,17,325,33,22,80,263,31,23,15,215,36,31,29,109,31*7E

[1499553160566]$GPGSV,4,4,13,32,31,055,21*4B

[1499553160566]$GPGLL,5356.87249,N,02741.66200,E,193240.00,A,A*63

[1499553161576]$GPRMC,193241.00,A,5356.87015,N,02741.66143,E,9.764,191.31,080717,,,A*64

[1499553161576]$GPVTG,191.31,T,,M,9.764,N,18.082,K,A*09

[1499553161576]$GPGGA,193241.00,5356.87015,N,02741.66143,E,1,10,0.87,218.6,M,24.7,M,,*5A

[1499553161576]$GPGSA,A,3,22,01,14,03,11,32,17,31,19,23,,,1.59,0.87,1.33*0A

[1499553161576]$GPGSV,4,1,13,01,74,208,41,03,51,270,35,04,16,129,29,08,00,192,*77

[1499553161576]$GPGSV,4,2,13,11,47,195,37,12,05,017,,14,50,066,37,17,30,306,33*73

[1499553161576]$GPGSV,4,3,13,19,17,325,33,22,80,263,25,23,15,215,36,31,29,109,27*7C

[1499553161576]$GPGSV,4,4,13,32,31,055,32*49

[1499553161576]$GPGLL,5356.87015,N,02741.66143,E,193241.00,A,A*6D

[1499553162577]$GPRMC,193242.00,A,5356.86781,N,02741.65917,E,9.070,211.03,080717,,,A*6E

[1499553162577]$GPVTG,211.03,T,,M,9.070,N,16.798,K,A*03

[1499553162577]$GPGGA,193242.00,5356.86781,N,02741.65917,E,1,10,0.87,220.1,M,24.7,M,,*54

[1499553162577]$GPGSA,A,3,22,01,14,03,11,32,17,31,19,23,,,1.59,0.87,1.33*0A

[1499553162577]$GPGSV,4,1,13,01,74,208,39,03,51,270,34,04,16,129,29,08,00,192,*79

[1499553162577]$GPGSV,4,2,13,11,47,195,39,12,05,017,,14,50,066,28,17,30,306,36*76

[1499553162577]$GPGSV,4,3,13,19,17,325,34,22,80,263,31,23,15,215,33,31,29,109,35*78

[1499553162577]$GPGSV,4,4,13,32,31,055,32*49

[1499553162577]$GPGLL,5356.86781,N,02741.65917,E,193242.00,A,A*6F

[1499553163577]$GPRMC,193243.00,A,5356.86592,N,02741.65634,E,9.317,217.72,080717,,,A*63

[1499553163577]$GPVTG,217.72,T,,M,9.317,N,17.255,K,A*04

[1499553163577]$GPGGA,193243.00,5356.86592,N,02741.65634,E,1,10,0.87,220.3,M,24.7,M,,*59

[1499553163577]$GPGSA,A,3,22,01,14,03,11,32,17,31,19,23,,,1.59,0.87,1.33*0A

[1499553163577]$GPGSV,4,1,13,01,74,208,41,03,51,270,32,04,16,129,29,08,00,192,*70

[1499553163577]$GPGSV,4,2,13,11,47,195,37,12,05,017,,14,50,066,36,17,30,306,29*79

[1499553163577]$GPGSV,4,3,13,19,17,325,29,22,80,263,34,23,15,215,33,31,29,109,35*71

[1499553163577]$GPGSV,4,4,13,32,31,055,35*4E

[1499553163577]$GPGLL,5356.86592,N,02741.65634,E,193243.00,A,A*60

[1499553164576]$GPRMC,193244.00,A,5356.86376,N,02741.65252,E,11.399,228.85,080717,,,A*57

[1499553164576]$GPVTG,228.85,T,,M,11.399,N,21.110,K,A*38

[1499553164576]$GPGGA,193244.00,5356.86376,N,02741.65252,E,1,10,0.87,219.0,M,24.7,M,,*5F

[1499553164576]$GPGSA,A,3,22,01,14,03,11,32,17,31,19,23,,,1.59,0.87,1.33*0A

[1499553164576]$GPGSV,4,1,13,01,74,208,41,03,51,270,31,04,16,129,28,08,00,192,*72

[1499553164576]$GPGSV,4,2,13,11,47,195,35,12,05,017,,14,50,066,35,17,30,306,36*76

[1499553164576]$GPGSV,4,3,13,19,17,325,30,22,80,263,34,23,15,215,40,31,29,109,28*71

[1499553164576]$GPGSV,4,4,13,32,31,055,30*4B

[1499553164576]$GPGLL,5356.86376,N,02741.65252,E,193244.00,A,A*6F

[1499553165578]$GPRMC,193245.00,A,5356.86157,N,02741.64758,E,13.776,234.73,080717,,,A*5A

[1499553165578]$GPVTG,234.73,T,,M,13.776,N,25.513,K,A*38

[1499553165578]$GPGGA,193245.00,5356.86157,N,02741.64758,E,1,09,1.00,217.9,M,24.7,M,,*50

[1499553165578]$GPGSA,A,3,22,01,14,03,11,32,17,31,23,,,,1.79,1.00,1.48*02

[1499553165578]$GPGSV,4,1,13,01,74,208,41,03,51,270,32,04,16,129,35,08,00,192,*7D

[1499553165578]$GPGSV,4,2,13,11,47,195,32,12,05,017,,14,50,066,36,17,30,306,22*77

[1499553165578]$GPGSV,4,3,13,19,17,325,,22,80,263,35,23,15,215,38,31,29,109,32*77

[1499553165578]$GPGSV,4,4,13,32,31,055,31*4A

[1499553165578]$GPGLL,5356.86157,N,02741.64758,E,193245.00,A,A*61

[1499553166576]$GPRMC,193246.00,A,5356.85937,N,02741.64126,E,16.090,241.49,080717,,,A*5A

[1499553166576]$GPVTG,241.49,T,,M,16.090,N,29.799,K,A*35

[1499553166576]$GPGGA,193246.00,5356.85937,N,02741.64126,E,1,10,0.87,217.8,M,24.7,M,,*56

[1499553166576]$GPGSA,A,3,22,01,14,03,11,32,17,31,19,23,,,1.59,0.87,1.33*0A

[1499553166576]$GPGSV,4,1,13,01,74,208,41,03,51,270,31,04,16,129,26,08,00,192,*7C

[1499553166576]$GPGSV,4,2,13,11,47,195,33,12,05,017,,14,50,066,32,17,30,306,18*7B

[1499553166576]$GPGSV,4,3,13,19,17,325,29,22,80,263,35,23,15,215,33,31,29,109,25*71

[1499553166576]$GPGSV,4,4,13,32,31,055,32*49

[1499553166576]$GPGLL,5356.85937,N,02741.64126,E,193246.00,A,A*60

[1499553167597]$GPRMC,193247.00,A,5356.85719,N,02741.63391,E,18.024,243.21,080717,,,A*5D

[1499553167597]$GPVTG,243.21,T,,M,18.024,N,33.381,K,A*3E

[1499553167597]$GPGGA,193247.00,5356.85719,N,02741.63391,E,1,09,1.00,217.7,M,24.7,M,,*55

[1499553167597]$GPGSA,A,3,22,01,14,03,11,32,17,31,23,,,,1.79,1.00,1.48*02

[1499553167597]$GPGSV,4,1,13,01,74,208,42,03,51,270,35,04,16,129,26,08,00,192,*7B

[1499553167597]$GPGSV,4,2,13,11,47,195,35,12,05,017,,14,50,066,28,17,30,306,15*7B

[1499553167597]$GPGSV,4,3,13,19,17,325,,22,80,263,36,23,15,215,24,31,29,109,31*7A

[1499553167597]$GPGSV,4,4,13,32,31,055,33*48

[1499553167597]$GPGLL,5356.85719,N,02741.63391,E,193247.00,A,A*6A

[1499553168576]$GPRMC,193248.00,A,5356.85488,N,02741.62628,E,18.339,242.26,080717,,,A*56

[1499553168576]$GPVTG,242.26,T,,M,18.339,N,33.964,K,A*36

[1499553168576]$GPGGA,193248.00,5356.85488,N,02741.62628,E,1,09,1.00,218.1,M,24.7,M,,*5E

[1499553168576]$GPGSA,A,3,22,01,14,03,11,32,17,31,23,,,,1.79,1.00,1.48*02

[1499553168576]$GPGSV,4,1,13,01,74,208,42,03,51,270,34,04,16,129,25,08,00,192,*79

[1499553168576]$GPGSV,4,2,13,11,47,195,36,12,05,017,,14,50,066,28,17,30,306,11*7C

[1499553168576]$GPGSV,4,3,13,19,17,325,,22,80,263,35,23,15,215,35,31,29,109,32*7A

[1499553168576]$GPGSV,4,4,13,32,31,055,34*4F

[1499553168576]$GPGLL,5356.85488,N,02741.62628,E,193248.00,A,A*68

[1499553169577]$GPRMC,193249.00,A,5356.85257,N,02741.61878,E,17.643,241.98,080717,,,A*5A

[1499553169577]$GPVTG,241.98,T,,M,17.643,N,32.675,K,A*39

[1499553169577]$GPGGA,193249.00,5356.85257,N,02741.61878,E,1,09,1.45,218.3,M,24.7,M,,*50

[1499553169577]$GPGSA,A,3,22,01,14,03,11,32,17,31,23,,,,2.26,1.45,1.73*02

[1499553169577]$GPGSV,4,1,13,01,74,208,41,03,51,270,35,04,16,129,24,08,00,192,*7A

[1499553169577]$GPGSV,4,2,13,11,47,195,33,12,05,017,30,14,50,066,29,17,30,306,10*7A

[1499553169577]$GPGSV,4,3,13,19,17,325,,22,80,263,35,23,15,215,30,31,29,109,32*7F

[1499553169577]$GPGSV,4,4,13,32,31,055,33*48

[1499553169577]$GPGLL,5356.85257,N,02741.61878,E,193249.00,A,A*65

[1499553170581]$GPRMC,193250.00,A,5356.85045,N,02741.61155,E,16.723,242.04,080717,,,A*55

[1499553170581]$GPVTG,242.04,T,,M,16.723,N,30.971,K,A*30

[1499553170581]$GPGGA,193250.00,5356.85045,N,02741.61155,E,1,08,1.45,218.8,M,24.7,M,,*55

[1499553170581]$GPGSA,A,3,22,01,14,03,11,32,31,23,,,,,2.26,1.45,1.73*04

[1499553170581]$GPGSV,4,1,13,01,74,208,42,03,51,270,37,04,16,129,22,08,00,192,*7D

[1499553170581]$GPGSV,4,2,13,11,47,195,34,12,05,017,23,14,50,066,32,17,30,306,09*7D

[1499553170581]$GPGSV,4,3,13,19,17,325,22,22,80,263,35,23,15,215,31,31,29,109,26*7B

[1499553170581]$GPGSV,4,4,13,32,31,055,34*4F

[1499553170581]$GPGLL,5356.85045,N,02741.61155,E,193250.00,A,A*6A

[1499553171566]$GPRMC,193251.00,A,5356.84852,N,02741.60451,E,15.744,242.90,080717,,,A*54

[1499553171566]$GPVTG,242.90,T,,M,15.744,N,29.159,K,A*35

[1499553171566]$GPGGA,193251.00,5356.84852,N,02741.60451,E,1,08,1.45,219.3,M,24.7,M,,*51

[1499553171566]$GPGSA,A,3,22,01,14,03,11,32,31,23,,,,,2.26,1.45,1.73*04

[1499553171566]$GPGSV,4,1,13,01,74,208,42,03,51,270,37,04,16,129,21,08,00,192,*7E

[1499553171566]$GPGSV,4,2,13,11,47,195,34,12,05,017,20,14,50,066,33,17,30,306,09*7F

[1499553171566]$GPGSV,4,3,13,19,17,325,,22,80,263,33,23,15,215,31,31,29,109,32*78

[1499553171566]$GPGSV,4,4,13,32,31,055,34*4F

[1499553171566]$GPGLL,5356.84852,N,02741.60451,E,193251.00,A,A*64

[1499553172566]$GPRMC,193252.00,A,5356.84669,N,02741.59834,E,14.240,242.65,080717,,,A*5E

[1499553172566]$GPVTG,242.65,T,,M,14.240,N,26.373,K,A*3A

[1499553172566]$GPGGA,193252.00,5356.84669,N,02741.59834,E,1,08,1.81,219.7,M,24.7,M,,*5D

[1499553172566]$GPGSA,A,3,22,01,14,03,11,32,31,23,,,,,2.51,1.81,1.73*0C

[1499553172566]$GPGSV,4,1,13,01,74,208,42,03,51,270,36,04,16,129,20,08,00,192,*7E

[1499553172566]$GPGSV,4,2,13,11,47,195,34,12,05,017,13,14,50,066,32,17,30,306,09*7E

[1499553172566]$GPGSV,4,3,13,19,17,325,,22,80,263,34,23,15,215,31,31,29,109,24*78

[1499553172566]$GPGSV,4,4,13,32,31,055,34*4F

[1499553172566]$GPGLL,5356.84669,N,02741.59834,E,193252.00,A,A*64

[1499553173566]$GPRMC,193253.00,A,5356.84498,N,02741.59260,E,13.193,242.74,080717,,,A*52

[1499553173566]$GPVTG,242.74,T,,M,13.193,N,24.433,K,A*31

[1499553173566]$GPGGA,193253.00,5356.84498,N,02741.59260,E,1,08,1.81,219.9,M,24.7,M,,*55

[1499553173566]$GPGSA,A,3,22,01,14,03,11,32,31,23,,,,,2.51,1.81,1.73*0C

[1499553173566]$GPGSV,4,1,13,01,74,208,42,03,51,270,36,04,16,129,21,08,00,192,*7F

[1499553173566]$GPGSV,4,2,13,11,47,195,36,12,05,017,09,14,50,066,32,17,30,306,09*77

[1499553173566]$GPGSV,4,3,13,19,17,325,,22,80,263,34,23,15,215,30,31,29,109,33*7F

[1499553173566]$GPGSV,4,4,13,32,31,055,34*4F

[1499553173566]$GPGLL,5356.84498,N,02741.59260,E,193253.00,A,A*62

[1499553174566]$GPRMC,193254.00,A,5356.84336,N,02741.58722,E,12.342,242.04,080717,,,A*5C

[1499553174566]$GPVTG,242.04,T,,M,12.342,N,22.858,K,A*3E

[1499553174566]$GPGGA,193254.00,5356.84336,N,02741.58722,E,1,08,1.45,219.9,M,24.7,M,,*5B

[1499553174566]$GPGSA,A,3,22,01,14,03,11,32,31,23,,,,,2.26,1.45,1.73*04

[1499553174566]$GPGSV,4,1,13,01,74,208,42,03,51,270,36,04,16,129,25,08,00,192,*7B

[1499553174566]$GPGSV,4,2,13,11,47,195,36,12,05,017,08,14,50,066,32,17,30,306,09*76

[1499553174566]$GPGSV,4,3,13,19,17,325,,22,80,263,34,23,15,215,31,31,29,108,29*74

[1499553174566]$GPGSV,4,4,13,32,31,055,33*48

[1499553174566]$GPGLL,5356.84336,N,02741.58722,E,193254.00,A,A*64

[1499553175566]$GPRMC,193255.00,A,5356.84193,N,02741.58224,E,11.470,241.99,080717,,,A*51

[1499553175566]$GPVTG,241.99,T,,M,11.470,N,21.242,K,A*3E

[1499553175566]$GPGGA,193255.00,5356.84193,N,02741.58224,E,1,08,1.45,220.1,M,24.7,M,,*56

[1499553175566]$GPGSA,A,3,22,01,14,03,11,32,31,23,,,,,2.26,1.45,1.73*04

[1499553175566]$GPGSV,4,1,13,01,74,208,42,03,51,270,36,04,16,129,27,08,00,192,*79

[1499553175566]$GPGSV,4,2,13,11,47,195,33,12,05,017,08,14,50,066,31,17,30,306,09*70

[1499553175566]$GPGSV,4,3,13,19,17,325,,22,80,263,35,23,15,215,31,31,29,108,28*74

[1499553175566]$GPGSV,4,4,13,32,31,055,33*48

[1499553175566]$GPGLL,5356.84193,N,02741.58224,E,193255.00,A,A*6B

[1499553176567]$GPRMC,193256.00,A,5356.84055,N,02741.57751,E,11.236,242.23,080717,,,A*57

[1499553176567]$GPVTG,242.23,T,,M,11.236,N,20.809,K,A*3C

[1499553176567]$GPGGA,193256.00,5356.84055,N,02741.57751,E,1,08,1.81,220.3,M,24.7,M,,*5C

[1499553176567]$GPGSA,A,3,22,01,14,03,11,32,31,23,,,,,2.51,1.81,1.73*0C

[1499553176567]$GPGSV,4,1,13,01,74,208,42,03,51,270,35,04,16,129,26,08,00,192,*7B

[1499553176567]$GPGSV,4,2,13,11,47,195,36,12,05,017,,14,50,066,30,17,30,306,*75

[1499553176567]$GPGSV,4,3,13,19,17,325,,22,80,263,36,23,15,215,31,31,29,108,33*7D

[1499553176567]$GPGSV,4,4,13,32,31,055,34*4F

[1499553176567]$GPGLL,5356.84055,N,02741.57751,E,193256.00,A,A*6B

[1499553177577]$GPRMC,193257.00,A,5356.83913,N,02741.57286,E,11.138,241.48,080717,,,A*56

[1499553177577]$GPVTG,241.48,T,,M,11.138,N,20.628,K,A*32

[1499553177577]$GPGGA,193257.00,5356.83913,N,02741.57286,E,1,08,1.45,220.4,M,24.7,M,,*51

[1499553177577]$GPGSA,A,3,22,01,14,03,11,32,31,23,,,,,2.26,1.45,1.73*04

[1499553177577]$GPGSV,4,1,13,01,74,208,41,03,51,270,34,04,16,129,25,08,00,192,*7A

[1499553177577]$GPGSV,4,2,13,11,47,195,36,12,05,017,,14,50,066,30,17,30,306,16*72

[1499553177577]$GPGSV,4,3,13,19,17,325,,22,80,263,35,23,15,215,30,31,29,108,28*75

[1499553177577]$GPGSV,4,4,13,32,31,055,34*4F

[1499553177577]$GPGLL,5356.83913,N,02741.57286,E,193257.00,A,A*69

[1499553178567]$GPRMC,193258.00,A,5356.83766,N,02741.56813,E,11.322,241.34,080717,,,A*50

[1499553178567]$GPVTG,241.34,T,,M,11.322,N,20.969,K,A*3A

[1499553178567]$GPGGA,193258.00,5356.83766,N,02741.56813,E,1,08,1.45,220.7,M,24.7,M,,*56

[1499553178567]$GPGSA,A,3,22,01,14,03,11,32,31,23,,,,,2.26,1.45,1.73*04

[1499553178567]$GPGSV,4,1,13,01,74,208,41,03,51,270,35,04,16,129,23,08,00,192,*7D

[1499553178567]$GPGSV,4,2,13,11,47,195,33,12,05,017,,14,50,066,32,17,30,306,14*77

[1499553178567]$GPGSV,4,3,13,19,17,325,,22,80,263,34,23,15,215,29,31,29,108,35*70

[1499553178567]$GPGSV,4,4,13,32,31,055,32*49

[1499553178567]$GPGLL,5356.83766,N,02741.56813,E,193258.00,A,A*6D

[1499553179576]$GPRMC,193259.00,A,5356.83610,N,02741.56314,E,12.184,241.20,080717,,,A*55

[1499553179576]$GPVTG,241.20,T,,M,12.184,N,22.565,K,A*30

[1499553179576]$GPGGA,193259.00,5356.83610,N,02741.56314,E,1,08,1.45,220.4,M,24.7,M,,*58

[1499553179576]$GPGSA,A,3,22,01,14,03,11,32,31,23,,,,,2.26,1.45,1.73*04

[1499553179576]$GPGSV,4,1,13,01,74,208,41,03,51,270,34,04,16,129,21,08,00,192,*7E

[1499553179576]$GPGSV,4,2,13,11,47,195,33,12,05,017,,14,50,066,32,17,30,306,12*71

[1499553179576]$GPGSV,4,3,13,19,17,325,,22,80,263,33,23,15,215,28,31,29,108,32*71

[1499553179576]$GPGSV,4,4,13,32,31,055,32*49

[1499553179576]$GPGLL,5356.83610,N,02741.56314,E,193259.00,A,A*60

[1499553180566]$GPRMC,193300.00,A,5356.83440,N,02741.55770,E,13.117,240.80,080717,,,A*5A

[1499553180566]$GPVTG,240.80,T,,M,13.117,N,24.293,K,A*38

[1499553180566]$GPGGA,193300.00,5356.83440,N,02741.55770,E,1,08,1.45,220.3,M,24.7,M,,*50

[1499553180566]$GPGSA,A,3,22,01,14,03,11,32,31,23,,,,,2.26,1.45,1.73*04

[1499553180566]$GPGSV,4,1,13,01,74,208,41,03,51,270,37,04,16,129,21,08,00,192,*7D

[1499553180566]$GPGSV,4,2,13,11,47,195,33,12,05,017,,14,50,066,32,17,30,306,10*73

[1499553180566]$GPGSV,4,3,13,19,17,325,,22,80,263,35,23,15,215,27,31,29,108,31*7B

[1499553180566]$GPGSV,4,4,13,32,31,055,30*4B

[1499553180566]$GPGLL,5356.83440,N,02741.55770,E,193300.00,A,A*6F

[1499553181577]$GPRMC,193301.00,A,5356.83261,N,02741.55183,E,14.222,241.82,080717,,,A*55

[1499553181577]$GPVTG,241.82,T,,M,14.222,N,26.340,K,A*34

[1499553181577]$GPGGA,193301.00,5356.83261,N,02741.55183,E,1,08,1.45,220.1,M,24.7,M,,*5C

[1499553181577]$GPGSA,A,3,22,01,14,03,11,32,31,23,,,,,2.26,1.45,1.73*04

[1499553181577]$GPGSV,4,1,13,01,74,208,41,03,51,270,37,04,16,129,19,08,00,192,*76

[1499553181577]$GPGSV,4,2,13,11,47,195,30,12,05,017,,14,50,066,32,17,30,306,09*78

[1499553181577]$GPGSV,4,3,13,19,17,325,,22,80,263,35,23,15,215,28,31,29,108,26*72

[1499553181577]$GPGSV,4,4,13,32,31,055,31*4A

[1499553181577]$GPGLL,5356.83261,N,02741.55183,E,193301.00,A,A*61

[1499553182567]$GPRMC,193302.00,A,5356.83086,N,02741.54536,E,14.809,242.25,080717,,,A*5B

[1499553182567]$GPVTG,242.25,T,,M,14.809,N,27.427,K,A*3E

[1499553182567]$GPGGA,193302.00,5356.83086,N,02741.54536,E,1,08,1.45,220.3,M,24.7,M,,*5D

[1499553182567]$GPGSA,A,3,22,01,14,03,11,32,31,23,,,,,2.26,1.45,1.73*04

[1499553182567]$GPGSV,4,1,13,01,74,208,41,03,51,270,38,04,16,129,17,08,00,192,*77

[1499553182567]$GPGSV,4,2,13,11,47,195,30,12,05,017,,14,50,066,32,17,30,306,09*78

[1499553182567]$GPGSV,4,3,13,19,17,325,,22,80,263,35,23,15,215,32,31,29,108,33*7D

[1499553182567]$GPGSV,4,4,13,32,31,055,31*4A

[1499553182567]$GPGLL,5356.83086,N,02741.54536,E,193302.00,A,A*62

[1499553183566]$GPRMC,193303.00,A,5356.82913,N,02741.53888,E,14.824,242.98,080717,,,A*58

[1499553183566]$GPVTG,242.98,T,,M,14.824,N,27.455,K,A*32

[1499553183566]$GPGGA,193303.00,5356.82913,N,02741.53888,E,1,08,1.45,220.3,M,24.7,M,,*57

[1499553183566]$GPGSA,A,3,22,01,14,03,11,32,31,23,,,,,2.26,1.45,1.73*04

[1499553183566]$GPGSV,4,1,13,01,74,208,43,03,51,270,38,04,16,129,18,08,00,192,*7A

[1499553183566]$GPGSV,4,2,13,11,47,195,34,12,05,017,,14,50,066,31,17,30,306,08*7E

[1499553183566]$GPGSV,4,3,13,19,17,325,,22,80,263,35,23,15,215,32,31,29,108,27*78

[1499553183566]$GPGSV,4,4,13,32,31,055,31*4A

[1499553183566]$GPGLL,5356.82913,N,02741.53888,E,193303.00,A,A*68

[1499553184576]$GPRMC,193304.00,A,5356.82740,N,02741.53240,E,14.711,243.11,080717,,,A*50

[1499553184576]$GPVTG,243.11,T,,M,14.711,N,27.245,K,A*3C

[1499553184576]$GPGGA,193304.00,5356.82740,N,02741.53240,E,1,08,1.45,220.1,M,24.7,M,,*54

[1499553184576]$GPGSA,A,3,22,01,14,03,11,32,31,23,,,,,2.26,1.45,1.73*04

[1499553184576]$GPGSV,4,1,13,01,74,208,41,03,51,270,39,04,16,129,20,08,00,192,*72

[1499553184576]$GPGSV,4,2,13,11,47,195,35,12,05,017,,14,50,066,30,17,30,306,08*7E

[1499553184576]$GPGSV,4,3,13,19,17,325,,22,80,263,36,23,15,215,31,31,29,108,32*7C

[1499553184576]$GPGSV,4,4,13,32,31,055,27*4D

[1499553184576]$GPGLL,5356.82740,N,02741.53240,E,193304.00,A,A*69

[1499553185567]$GPRMC,193305.00,A,5356.82564,N,02741.52616,E,14.363,242.48,080717,,,A*5F

[1499553185567]$GPVTG,242.48,T,,M,14.363,N,26.599,K,A*37

[1499553185567]$GPGGA,193305.00,5356.82564,N,02741.52616,E,1,08,1.45,219.9,M,24.7,M,,*55

[1499553185567]$GPGSA,A,3,22,01,14,03,11,32,31,23,,,,,2.26,1.45,1.73*04

[1499553185567]$GPGSV,4,1,13,01,74,208,41,03,51,270,39,04,16,129,20,08,00,192,*72

[1499553185567]$GPGSV,4,2,13,11,47,195,35,12,05,017,,14,50,066,31,17,30,306,08*7F

[1499553185567]$GPGSV,4,3,13,19,17,325,,22,80,263,33,23,15,215,31,31,29,108,31*7A

[1499553185567]$GPGSV,4,4,13,32,31,055,28*42

[1499553185567]$GPGLL,5356.82564,N,02741.52616,E,193305.00,A,A*6A

[1499553186566]$GPRMC,193306.00,A,5356.82384,N,02741.52017,E,14.003,242.20,080717,,,A*58

[1499553186566]$GPVTG,242.20,T,,M,14.003,N,25.934,K,A*34

[1499553186566]$GPGGA,193306.00,5356.82384,N,02741.52017,E,1,08,1.81,219.8,M,24.7,M,,*50

[1499553186566]$GPGSA,A,3,22,01,14,03,11,32,31,23,,,,,2.51,1.81,1.73*0C

[1499553186566]$GPGSV,4,1,13,01,74,208,42,03,51,270,39,04,16,129,21,08,00,192,*70

[1499553186566]$GPGSV,4,2,13,11,47,195,35,12,05,017,,14,50,066,30,17,30,306,08*7E

[1499553186566]$GPGSV,4,3,13,19,17,325,,22,80,263,36,23,15,215,30,31,29,108,34*7B

[1499553186566]$GPGSV,4,4,13,32,31,055,29*43

[1499553186566]$GPGLL,5356.82384,N,02741.52017,E,193306.00,A,A*66

[1499553187566]$GPRMC,193307.00,A,5356.82209,N,02741.51422,E,13.759,241.65,080717,,,A*51

[1499553187566]$GPVTG,241.65,T,,M,13.759,N,25.482,K,A*39

[1499553187566]$GPGGA,193307.00,5356.82209,N,02741.51422,E,1,08,1.44,219.6,M,24.7,M,,*53

[1499553187566]$GPGSA,A,3,22,01,14,03,11,32,31,23,,,,,2.26,1.44,1.73*05

[1499553187566]$GPGSV,4,1,13,01,74,208,41,03,51,270,38,04,16,129,22,08,00,192,*71

[1499553187566]$GPGSV,4,2,13,11,47,195,35,12,05,017,,14,50,066,30,17,30,306,08*7E

[1499553187566]$GPGSV,4,3,13,19,17,325,,22,80,263,37,23,15,215,29,31,29,108,33*75

[1499553187566]$GPGSV,4,4,13,32,31,055,29*43

[1499553187566]$GPGLL,5356.82209,N,02741.51422,E,193307.00,A,A*62

[1499553188584]$GPRMC,193308.00,A,5356.82035,N,02741.50837,E,13.862,242.07,080717,,,A*5A

[1499553188584]$GPVTG,242.07,T,,M,13.862,N,25.672,K,A*34

[1499553188584]$GPGGA,193308.00,5356.82035,N,02741.50837,E,1,08,1.44,219.3,M,24.7,M,,*5D

[1499553188584]$GPGSA,A,3,22,01,14,03,11,32,31,23,,,,,2.26,1.44,1.73*05

[1499553188584]$GPGSV,4,1,13,01,74,207,41,03,51,270,39,04,16,129,23,08,00,192,*7E

[1499553188584]$GPGSV,4,2,13,11,47,195,35,12,05,017,,14,50,066,30,17,30,306,*76

[1499553188584]$GPGSV,4,3,13,19,17,325,,22,80,263,37,23,15,215,33,31,29,108,22*7E

[1499553188584]$GPGSV,4,4,13,32,31,055,30*4B

[1499553188584]$GPGLL,5356.82035,N,02741.50837,E,193308.00,A,A*69

[1499553189567]$GPRMC,193309.00,A,5356.81859,N,02741.50238,E,14.188,242.10,080717,,,A*53

[1499553189567]$GPVTG,242.10,T,,M,14.188,N,26.276,K,A*3B

[1499553189567]$GPGGA,193309.00,5356.81859,N,02741.50238,E,1,08,1.44,219.0,M,24.7,M,,*5B

[1499553189567]$GPGSA,A,3,22,01,14,03,11,32,31,23,,,,,2.26,1.44,1.73*05

[1499553189567]$GPGSV,4,1,13,01,74,207,41,03,51,270,39,04,16,129,26,08,00,192,*7B

[1499553189567]$GPGSV,4,2,13,11,47,195,35,12,05,017,19,14,50,066,30,17,30,306,*7E

[1499553189567]$GPGSV,4,3,13,19,17,325,,22,80,263,37,23,15,215,33,31,29,108,30*7D

[1499553189567]$GPGSV,4,4,13,32,31,055,29*43

[1499553189567]$GPGLL,5356.81859,N,02741.50238,E,193309.00,A,A*6C

[1499553190566]$GPRMC,193310.00,A,5356.81680,N,02741.49638,E,14.292,242.27,080717,,,A*51

[1499553190566]$GPVTG,242.27,T,,M,14.292,N,26.469,K,A*3F

[1499553190566]$GPGGA,193310.00,5356.81680,N,02741.49638,E,1,08,1.44,219.0,M,24.7,M,,*55

[1499553190566]$GPGSA,A,3,22,01,14,03,11,32,31,23,,,,,2.26,1.44,1.73*05

[1499553190566]$GPGSV,4,1,13,01,74,207,41,03,52,270,38,04,16,129,26,08,00,192,*79

[1499553190566]$GPGSV,4,2,13,11,47,195,35,12,05,017,19,14,50,066,29,17,30,306,*76

[1499553190566]$GPGSV,4,3,13,19,17,325,,22,80,263,36,23,15,215,29,31,29,108,30*77

[1499553190566]$GPGSV,4,4,13,32,31,055,30*4B

[1499553190566]$GPGLL,5356.81680,N,02741.49638,E,193310.00,A,A*62

[1499553191586]$GPRMC,193311.00,A,5356.81494,N,02741.49014,E,14.823,241.78,080717,,,A*56

[1499553191586]$GPVTG,241.78,T,,M,14.823,N,27.452,K,A*3F

[1499553191586]$GPGGA,193311.00,5356.81494,N,02741.49014,E,1,08,1.44,218.6,M,24.7,M,,*5C

[1499553191586]$GPGSA,A,3,22,01,14,03,11,32,31,23,,,,,2.26,1.44,1.73*05

[1499553191586]$GPGSV,4,1,13,01,74,207,41,03,52,270,38,04,16,129,24,08,00,192,*7B

[1499553191586]$GPGSV,4,2,13,11,47,195,35,12,05,017,21,14,50,066,29,17,30,306,*7D

[1499553191586]$GPGSV,4,3,13,19,17,325,,22,80,263,37,23,15,215,29,31,29,108,30*76

[1499553191586]$GPGSV,4,4,13,32,31,055,31*4A

[1499553191586]$GPGLL,5356.81494,N,02741.49014,E,193311.00,A,A*6C

[1499553192567]$GPRMC,193312.00,A,5356.81294,N,02741.48381,E,15.178,241.16,080717,,,A*53

[1499553192567]$GPVTG,241.16,T,,M,15.178,N,28.110,K,A*3D

[1499553192567]$GPGGA,193312.00,5356.81294,N,02741.48381,E,1,08,1.44,218.5,M,24.7,M,,*54

[1499553192567]$GPGSA,A,3,22,01,14,03,11,32,31,23,,,,,2.26,1.44,1.73*05

[1499553192567]$GPGSV,4,1,13,01,74,207,41,03,52,270,38,04,16,129,22,08,00,192,*7D

[1499553192567]$GPGSV,4,2,13,11,47,195,35,12,05,017,19,14,50,066,31,17,30,306,*7F

[1499553192567]$GPGSV,4,3,13,19,17,325,,22,80,263,37,23,15,215,27,31,29,108,29*70

[1499553192567]$GPGSV,4,4,13,32,31,055,30*4B

[1499553192567]$GPGLL,5356.81294,N,02741.48381,E,193312.00,A,A*67

[1499553193577]$GPRMC,193313.00,A,5356.81089,N,02741.47737,E,15.627,240.85,080717,,,A*5C

[1499553193577]$GPVTG,240.85,T,,M,15.627,N,28.941,K,A*37

[1499553193577]$GPGGA,193313.00,5356.81089,N,02741.47737,E,1,08,1.44,218.3,M,24.7,M,,*5B

[1499553193577]$GPGSA,A,3,22,01,14,03,11,32,31,23,,,,,2.26,1.44,1.73*05

[1499553193577]$GPGSV,4,1,13,01,74,207,41,03,52,270,37,04,16,129,21,08,00,192,*71

[1499553193577]$GPGSV,4,2,13,11,47,195,35,12,05,017,18,14,50,066,31,17,30,306,*7E

[1499553193577]$GPGSV,4,3,13,19,17,325,,22,80,263,37,23,15,215,31,31,29,108,24*7A

[1499553193577]$GPGSV,4,4,13,32,31,055,30*4B

[1499553193577]$GPGLL,5356.81089,N,02741.47737,E,193313.00,A,A*6E

[1499553194567]$GPRMC,193314.00,A,5356.80878,N,02741.47065,E,16.196,241.76,080717,,,A*5F

[1499553194567]$GPVTG,241.76,T,,M,16.196,N,29.995,K,A*3C

[1499553194567]$GPGGA,193314.00,5356.80878,N,02741.47065,E,1,08,1.81,217.9,M,24.7,M,,*57

[1499553194567]$GPGSA,A,3,22,01,14,03,11,32,31,23,,,,,2.51,1.81,1.73*0C

[1499553194567]$GPGSV,4,1,13,01,74,207,41,03,52,270,38,04,16,129,20,08,00,192,*7F

[1499553194567]$GPGSV,4,2,13,11,47,195,35,12,05,017,17,14,50,066,30,17,30,306,*70

[1499553194567]$GPGSV,4,3,13,19,17,325,,22,80,263,38,23,15,215,31,31,29,108,23*72

[1499553194567]$GPGSV,4,4,13,32,31,055,30*4B

[1499553194567]$GPGLL,5356.80878,N,02741.47065,E,193314.00,A,A*6E

[1499553195576]$GPRMC,193315.00,A,5356.80682,N,02741.46356,E,16.452,242.79,080717,,,A*56

[1499553195576]$GPVTG,242.79,T,,M,16.452,N,30.469,K,A*3B

[1499553195576]$GPGGA,193315.00,5356.80682,N,02741.46356,E,1,08,1.44,217.8,M,24.7,M,,*57

[1499553195576]$GPGSA,A,3,22,01,14,03,11,32,31,23,,,,,2.26,1.44,1.73*05

[1499553195576]$GPGSV,3,1,12,01,74,207,41,03,52,270,40,04,16,129,21,11,47,195,34*7C

[1499553195576]$GPGSV,3,2,12,12,05,017,,14,50,066,33,17,30,306,,19,17,325,*71

[1499553195576]$GPGSV,3,3,12,22,80,263,37,23,15,215,32,31,29,108,29,32,31,055,31*79

[1499553195576]$GPGLL,5356.80682,N,02741.46356,E,193315.00,A,A*66

[1499553196577]$GPRMC,193316.00,A,5356.80477,N,02741.45642,E,16.742,243.08,080717,,,A*5B

[1499553196577]$GPVTG,243.08,T,,M,16.742,N,31.006,K,A*32

[1499553196577]$GPGGA,193316.00,5356.80477,N,02741.45642,E,1,08,1.44,217.8,M,24.7,M,,*5F

[1499553196577]$GPGSA,A,3,22,01,14,03,11,32,31,23,,,,,2.26,1.44,1.73*05

[1499553196577]$GPGSV,3,1,12,01,74,207,41,03,52,270,39,04,16,129,22,11,47,195,35*70

[1499553196577]$GPGSV,3,2,12,12,05,017,,14,50,066,31,17,30,306,23,19,17,325,*72

[1499553196577]$GPGSV,3,3,12,22,80,263,36,23,15,215,34,31,29,108,29,32,31,055,30*7F

[1499553196577]$GPGLL,5356.80477,N,02741.45642,E,193316.00,A,A*6E

[1499553197576]$GPRMC,193317.00,A,5356.80266,N,02741.44935,E,16.994,242.62,080717,,,A*5A

[1499553197576]$GPVTG,242.62,T,,M,16.994,N,31.473,K,A*3C

[1499553197576]$GPGGA,193317.00,5356.80266,N,02741.44935,E,1,08,1.44,217.8,M,24.7,M,,*56

[1499553197576]$GPGSA,A,3,22,01,14,03,11,32,31,23,,,,,2.26,1.44,1.73*05

[1499553197576]$GPGSV,3,1,12,01,74,207,41,03,52,270,39,04,16,129,21,11,47,195,35*73

[1499553197576]$GPGSV,3,2,12,12,05,017,,14,50,066,30,17,30,306,21,19,17,325,*71

[1499553197576]$GPGSV,3,3,12,22,80,263,36,23,15,215,33,31,29,108,29,32,31,055,30*78

[1499553197576]$GPGLL,5356.80266,N,02741.44935,E,193317.00,A,A*67

[1499553198567]$GPRMC,193318.00,A,5356.80050,N,02741.44211,E,17.274,243.06,080717,,,A*58

[1499553198567]$GPVTG,243.06,T,,M,17.274,N,31.992,K,A*39

[1499553198567]$GPGGA,193318.00,5356.80050,N,02741.44211,E,1,09,1.44,217.6,M,24.7,M,,*5C

[1499553198567]$GPGSA,A,3,22,01,14,03,11,32,17,31,23,,,,2.26,1.44,1.73*03

[1499553198567]$GPGSV,3,1,12,01,74,207,41,03,52,270,39,04,16,129,23,11,47,195,37*73

[1499553198567]$GPGSV,3,2,12,12,05,017,19,14,50,066,29,17,30,306,21,19,17,325,*71

[1499553198567]$GPGSV,3,3,12,22,80,263,37,23,15,215,31,31,29,108,33,32,31,055,30*70

[1499553198567]$GPGLL,5356.80050,N,02741.44211,E,193318.00,A,A*62

[1499553199582]$GPRMC,193319.00,A,5356.79832,N,02741.43485,E,17.257,242.48,080717,,,A*55

[1499553199582]$GPVTG,242.48,T,,M,17.257,N,31.961,K,A*3F

[1499553199582]$GPGGA,193319.00,5356.79832,N,02741.43485,E,1,08,1.44,217.4,M,24.7,M,,*58

[1499553199582]$GPGSA,A,3,22,01,14,03,11,32,31,23,,,,,2.26,1.44,1.73*05

[1499553199582]$GPGSV,3,1,12,01,74,207,42,03,52,270,40,04,16,129,24,11,47,195,35*7B

[1499553199582]$GPGSV,3,2,12,12,05,016,,14,50,066,30,17,30,306,,19,17,325,*73

[1499553199582]$GPGSV,3,3,12,22,80,263,37,23,15,215,32,31,29,108,32,32,31,055,30*72

[1499553199582]$GPGLL,5356.79832,N,02741.43485,E,193319.00,A,A*65

[1499553200567]$GPRMC,193320.00,A,5356.79609,N,02741.42769,E,17.081,242.39,080717,,,A*56

[1499553200567]$GPVTG,242.39,T,,M,17.081,N,31.635,K,A*3E

[1499553200567]$GPGGA,193320.00,5356.79609,N,02741.42769,E,1,08,1.44,217.1,M,24.7,M,,*51

[1499553200567]$GPGSA,A,3,22,01,14,03,11,32,31,23,,,,,2.26,1.44,1.73*05

[1499553200567]$GPGSV,3,1,12,01,74,207,42,03,52,270,39,04,16,129,23,11,47,195,37*70

[1499553200567]$GPGSV,3,2,12,12,05,016,20,14,50,066,30,17,30,306,,19,17,325,*71

[1499553200567]$GPGSV,3,3,12,22,80,263,37,23,15,215,32,31,29,108,28,32,31,055,29*71

[1499553200567]$GPGLL,5356.79609,N,02741.42769,E,193320.00,A,A*69

[1499553201566]$GPRMC,193321.00,A,5356.79389,N,02741.42063,E,16.913,241.65,080717,,,A*5E

[1499553201566]$GPVTG,241.65,T,,M,16.913,N,31.323,K,A*35

[1499553201566]$GPGGA,193321.00,5356.79389,N,02741.42063,E,1,08,1.44,216.7,M,24.7,M,,*57

[1499553201566]$GPGSA,A,3,22,01,14,03,11,32,31,23,,,,,2.26,1.44,1.73*05

[1499553201566]$GPGSV,3,1,12,01,74,207,41,03,52,270,39,04,16,129,22,11,47,195,35*70

[1499553201566]$GPGSV,3,2,12,12,05,016,21,14,49,066,31,17,30,306,,19,17,325,*79

[1499553201566]$GPGSV,3,3,12,22,80,263,37,23,15,215,31,31,29,108,20,32,31,055,27*74

[1499553201566]$GPGLL,5356.79389,N,02741.42063,E,193321.00,A,A*68

[1499553202566]$GPRMC,193322.00,A,5356.79167,N,02741.41367,E,16.790,241.29,080717,,,A*56

[1499553202566]$GPVTG,241.29,T,,M,16.790,N,31.096,K,A*35

[1499553202566]$GPGGA,193322.00,5356.79167,N,02741.41367,E,1,08,1.44,216.3,M,24.7,M,,*56

[1499553202566]$GPGSA,A,3,22,01,14,03,11,32,31,23,,,,,2.26,1.44,1.73*05

[1499553202566]$GPGSV,3,1,12,01,74,207,41,03,52,270,40,04,16,129,22,11,47,195,35*7E

[1499553202566]$GPGSV,3,2,12,12,05,016,22,14,49,066,33,17,30,306,,19,17,325,*78

[1499553202566]$GPGSV,3,3,12,22,80,263,37,23,15,215,30,31,29,108,28,32,31,055,26*7C

[1499553202566]$GPGLL,5356.79167,N,02741.41367,E,193322.00,A,A*6D

[1499553203576]$GPRMC,193323.00,A,5356.78940,N,02741.40682,E,16.594,241.00,080717,,,A*59

[1499553203576]$GPVTG,241.00,T,,M,16.594,N,30.732,K,A*30

[1499553203576]$GPGGA,193323.00,5356.78940,N,02741.40682,E,1,08,1.44,216.0,M,24.8,M,,*58

[1499553203576]$GPGSA,A,3,22,01,14,03,11,32,31,23,,,,,2.26,1.44,1.73*05

[1499553203576]$GPGSV,3,1,12,01,74,207,41,03,52,270,39,04,16,129,22,11,47,195,35*70

[1499553203576]$GPGSV,3,2,12,12,05,016,21,14,49,066,33,17,30,306,17,19,17,325,*7D

[1499553203576]$GPGSV,3,3,12,22,80,263,38,23,15,215,29,31,29,108,27,32,31,055,25*77

[1499553203576]$GPGLL,5356.78940,N,02741.40682,E,193323.00,A,A*6F

[1499553204576]$GPRMC,193324.00,A,5356.78715,N,02741.40008,E,16.414,240.72,080717,,,A*59

[1499553204576]$GPVTG,240.72,T,,M,16.414,N,30.399,K,A*38

[1499553204576]$GPGGA,193324.00,5356.78715,N,02741.40008,E,1,09,1.14,215.9,M,24.8,M,,*5B

[1499553204576]$GPGSA,A,3,22,01,14,03,11,32,17,31,23,,,,1.92,1.14,1.55*0E

[1499553204576]$GPGSV,3,1,12,01,74,207,40,03,52,270,38,04,16,129,21,11,47,195,35*73

[1499553204576]$GPGSV,3,2,12,12,05,016,19,14,49,066,32,17,30,305,38,19,17,325,*79

[1499553204576]$GPGSV,3,3,12,22,80,263,38,23,15,215,30,31,29,108,28,32,31,055,25*70

[1499553204576]$GPGLL,5356.78715,N,02741.40008,E,193324.00,A,A*62

[1499553205581]$GPRMC,193325.00,A,5356.78507,N,02741.39330,E,16.056,242.37,080717,,,A*5E

[1499553205581]$GPVTG,242.37,T,,M,16.056,N,29.736,K,A*30

[1499553205581]$GPGGA,193325.00,5356.78507,N,02741.39330,E,1,09,1.00,215.6,M,24.8,M,,*57

[1499553205581]$GPGSA,A,3,22,01,14,03,11,32,17,31,23,,,,1.79,1.00,1.49*03

[1499553205581]$GPGSV,3,1,12,01,74,207,40,03,52,270,40,04,16,129,22,11,47,195,35*7F

[1499553205581]$GPGSV,3,2,12,12,05,016,18,14,49,066,31,17,30,305,32,19,17,325,*71

[1499553205581]$GPGSV,3,3,12,22,80,263,38,23,15,215,30,31,29,108,28,32,31,055,24*71

[1499553205581]$GPGLL,5356.78507,N,02741.39330,E,193325.00,A,A*64

[1499553206567]$GPRMC,193326.00,A,5356.78312,N,02741.38643,E,16.114,244.07,080717,,,A*5D

[1499553206567]$GPVTG,244.07,T,,M,16.114,N,29.843,K,A*3F

[1499553206567]$GPGGA,193326.00,5356.78312,N,02741.38643,E,1,09,1.00,215.6,M,24.8,M,,*56

[1499553206567]$GPGSA,A,3,22,01,14,03,11,32,17,31,23,,,,1.79,1.00,1.49*03

[1499553206567]$GPGSV,3,1,12,01,74,207,40,03,52,270,39,04,16,129,22,11,47,195,35*71

[1499553206567]$GPGSV,3,2,12,12,05,016,,14,49,066,30,17,30,305,25,19,18,325,*70

[1499553206567]$GPGSV,3,3,12,22,80,263,37,23,15,215,34,31,29,108,34,32,31,055,23*70

[1499553206567]$GPGLL,5356.78312,N,02741.38643,E,193326.00,A,A*65

[1499553207566]$GPRMC,193327.00,A,5356.78116,N,02741.37975,E,15.788,244.09,080717,,,A*51

[1499553207566]$GPVTG,244.09,T,,M,15.788,N,29.239,K,A*36

[1499553207566]$GPGGA,193327.00,5356.78116,N,02741.37975,E,1,09,1.00,215.4,M,24.8,M,,*56

[1499553207566]$GPGSA,A,3,22,01,14,03,11,32,17,31,23,,,,1.79,1.00,1.49*03

[1499553207566]$GPGSV,3,1,12,01,74,207,41,03,52,270,38,04,16,129,23,11,47,195,35*70

[1499553207566]$GPGSV,3,2,12,12,05,016,,14,49,066,29,17,30,305,24,19,18,325,*79

[1499553207566]$GPGSV,3,3,12,22,80,263,38,23,15,215,29,31,29,108,37,32,31,055,25*76

[1499553207566]$GPGLL,5356.78116,N,02741.37975,E,193327.00,A,A*67

[1499553208566]$GPRMC,193328.00,A,5356.77913,N,02741.37317,E,15.750,242.56,080717,,,A*5B

[1499553208566]$GPVTG,242.56,T,,M,15.750,N,29.168,K,A*38

[1499553208566]$GPGGA,193328.00,5356.77913,N,02741.37317,E,1,09,1.44,215.3,M,24.8,M,,*52

[1499553208566]$GPGSA,A,3,22,01,14,03,11,32,17,31,23,,,,2.26,1.44,1.73*03

[1499553208566]$GPGSV,3,1,12,01,74,207,41,03,52,270,40,04,16,129,21,11,47,195,35*7D

[1499553208566]$GPGSV,3,2,12,12,05,016,,14,49,066,31,17,30,305,21,19,18,325,*75

[1499553208566]$GPGSV,3,3,12,22,80,263,38,23,15,215,29,31,29,108,33,32,31,055,26*71

[1499553208566]$GPGLL,5356.77913,N,02741.37317,E,193328.00,A,A*64

[1499553209570]$GPRMC,193329.00,A,5356.77721,N,02741.36665,E,15.501,243.15,080717,,,A*54

[1499553209570]$GPVTG,243.15,T,,M,15.501,N,28.708,K,A*39

[1499553209570]$GPGGA,193329.00,5356.77721,N,02741.36665,E,1,09,1.44,215.2,M,24.8,M,,*5C

[1499553209570]$GPGSA,A,3,22,01,14,03,11,32,17,31,23,,,,2.26,1.44,1.73*03

[1499553209570]$GPGSV,3,1,12,01,74,207,40,03,52,270,39,04,16,129,20,11,47,195,35*73

[1499553209570]$GPGSV,3,2,12,12,05,016,,14,49,066,30,17,30,305,20,19,18,325,20*77

[1499553209570]$GPGSV,3,3,12,22,80,263,38,23,15,215,29,31,29,108,33,32,31,055,27*70

[1499553209570]$GPGLL,5356.77721,N,02741.36665,E,193329.00,A,A*6B

[1499553210582]$GPRMC,193330.00,A,5356.77515,N,02741.36006,E,16.277,242.22,080717,,,A*5A

[1499553210582]$GPVTG,242.22,T,,M,16.277,N,30.145,K,A*3F

[1499553210582]$GPGGA,193330.00,5356.77515,N,02741.36006,E,1,09,1.44,214.7,M,24.8,M,,*56

[1499553210582]$GPGSA,A,3,22,01,14,03,11,32,17,31,23,,,,2.26,1.44,1.73*03

[1499553210582]$GPGSV,3,1,12,01,74,207,41,03,52,270,37,04,16,129,19,11,47,195,35*76

[1499553210582]$GPGSV,3,2,12,12,05,016,,14,49,066,30,17,30,305,19,19,18,325,*7F

[1499553210582]$GPGSV,3,3,12,22,80,263,38,23,15,215,29,31,29,108,35,32,31,055,27*76

[1499553210582]$GPGLL,5356.77515,N,02741.36006,E,193330.00,A,A*65

[1499553211576]$GPRMC,193331.00,A,5356.77312,N,02741.35320,E,16.526,243.31,080717,,,A*5E

[1499553211576]$GPVTG,243.31,T,,M,16.526,N,30.606,K,A*3F

[1499553211576]$GPGGA,193331.00,5356.77312,N,02741.35320,E,1,09,1.44,214.0,M,24.8,M,,*55

[1499553211576]$GPGSA,A,3,22,01,14,03,11,32,17,31,23,,,,2.26,1.44,1.73*03

[1499553211576]$GPGSV,3,1,12,01,74,207,40,03,52,270,38,04,16,129,18,11,47,195,35*79

[1499553211576]$GPGSV,3,2,12,12,05,016,,14,49,066,30,17,30,305,18,19,18,325,19*76

[1499553211576]$GPGSV,3,3,12,22,80,263,38,23,15,215,30,31,29,108,35,32,31,055,26*7F

[1499553211576]$GPGLL,5356.77312,N,02741.35320,E,193331.00,A,A*61

[1499553212576]$GPRMC,193332.00,A,5356.77094,N,02741.34605,E,17.205,242.64,080717,,,A*55

[1499553212576]$GPVTG,242.64,T,,M,17.205,N,31.864,K,A*32

[1499553212576]$GPGGA,193332.00,5356.77094,N,02741.34605,E,1,09,1.00,213.4,M,24.8,M,,*5B

[1499553212576]$GPGSA,A,3,22,01,14,03,11,32,17,31,23,,,,1.79,1.00,1.49*03

[1499553212576]$GPGSV,3,1,12,01,74,207,41,03,52,270,40,04,16,129,20,11,47,195,35*7C

[1499553212576]$GPGSV,3,2,12,12,05,016,,14,49,066,31,17,30,305,33,19,18,325,*76

[1499553212576]$GPGSV,3,3,12,22,80,263,38,23,15,215,30,31,29,108,34,32,31,055,26*7E

[1499553212576]$GPGLL,5356.77094,N,02741.34605,E,193332.00,A,A*6C

[1499553213576]$GPRMC,193333.00,A,5356.76875,N,02741.33869,E,17.531,243.21,080717,,,A*51

[1499553213576]$GPVTG,243.21,T,,M,17.531,N,32.468,K,A*31

[1499553213576]$GPGGA,193333.00,5356.76875,N,02741.33869,E,1,09,1.00,213.1,M,24.8,M,,*5A

[1499553213576]$GPGSA,A,3,22,01,14,03,11,32,17,31,23,,,,1.79,1.00,1.49*03

[1499553213576]$GPGSV,3,1,12,01,74,207,41,03,52,270,40,04,16,129,22,11,47,195,35*7E

[1499553213576]$GPGSV,3,2,12,12,05,016,,14,49,066,30,17,30,305,33,19,18,325,*77

[1499553213576]$GPGSV,3,3,12,22,80,263,38,23,15,215,34,31,29,108,35,32,31,055,26*7B

[1499553213576]$GPGLL,5356.76875,N,02741.33869,E,193333.00,A,A*68

[1499553214581]$GPRMC,193334.00,A,5356.76651,N,02741.33133,E,17.808,243.23,080717,,,A*5D

[1499553214581]$GPVTG,243.23,T,,M,17.808,N,32.981,K,A*3E

[1499553214581]$GPGGA,193334.00,5356.76651,N,02741.33133,E,1,09,1.00,212.8,M,24.8,M,,*5B

[1499553214581]$GPGSA,A,3,22,01,14,03,11,32,17,31,23,,,,1.79,1.00,1.49*03

[1499553214581]$GPGSV,3,1,12,01,74,207,41,03,52,270,40,04,16,129,31,11,47,195,35*7C

[1499553214581]$GPGSV,3,2,12,12,05,016,,14,49,066,30,17,30,305,32,19,18,325,*76

[1499553214581]$GPGSV,3,3,12,22,80,263,37,23,15,215,30,31,29,108,35,32,31,055,26*70

[1499553214581]$GPGLL,5356.76651,N,02741.33133,E,193334.00,A,A*61

[1499553215576]$GPRMC,193335.00,A,5356.76434,N,02741.32387,E,18.043,243.51,080717,,,A*5C

[1499553215576]$GPVTG,243.51,T,,M,18.043,N,33.415,K,A*32

[1499553215576]$GPGGA,193335.00,5356.76434,N,02741.32387,E,1,09,1.00,212.9,M,24.8,M,,*56

[1499553215576]$GPGSA,A,3,22,01,14,03,11,32,17,31,23,,,,1.79,1.00,1.49*03

[1499553215576]$GPGSV,3,1,12,01,74,207,41,03,52,270,40,04,16,129,24,11,47,195,35*78

[1499553215576]$GPGSV,3,2,12,12,05,016,,14,49,066,30,17,30,305,28,19,18,325,*7D

[1499553215576]$GPGSV,3,3,12,22,80,263,37,23,15,215,34,31,29,108,35,32,31,055,26*74

[1499553215576]$GPGLL,5356.76434,N,02741.32387,E,193335.00,A,A*6D

[1499553216576]$GPRMC,193336.00,A,5356.76212,N,02741.31661,E,17.439,242.97,080717,,,A*5E

[1499553216576]$GPVTG,242.97,T,,M,17.439,N,32.298,K,A*3D

[1499553216576]$GPGGA,193336.00,5356.76212,N,02741.31661,E,1,09,1.22,212.7,M,24.8,M,,*57

[1499553216576]$GPGSA,A,3,22,01,14,03,11,32,17,31,23,,,,2.48,1.22,2.16*0B

[1499553216576]$GPGSV,3,1,12,01,74,207,41,03,52,270,39,04,16,129,23,11,47,195,35*71

[1499553216576]$GPGSV,3,2,12,12,05,016,,14,49,066,34,17,30,305,32,19,18,325,*72

[1499553216576]$GPGSV,3,3,12,22,80,263,37,23,15,215,30,31,29,108,36,32,31,055,26*73

[1499553216576]$GPGLL,5356.76212,N,02741.31661,E,193336.00,A,A*62

[1499553217578]$GPRMC,193337.00,A,5356.76017,N,02741.31052,E,13.877,242.21,080717,,,A*51

[1499553217578]$GPVTG,242.21,T,,M,13.877,N,25.700,K,A*30

[1499553217578]$GPGGA,193337.00,5356.76017,N,02741.31052,E,1,09,1.00,212.7,M,24.8,M,,*57

[1499553217578]$GPGSA,A,3,22,01,14,03,11,32,17,31,23,,,,1.79,1.00,1.49*03

[1499553217578]$GPGSV,3,1,12,01,74,207,40,03,52,270,39,04,16,129,23,11,47,195,35*70

[1499553217578]$GPGSV,3,2,12,12,05,016,,14,49,066,34,17,30,305,36,19,18,325,*76

[1499553217578]$GPGSV,3,3,12,22,80,263,37,23,15,215,29,31,29,108,34,32,31,055,25*7A

[1499553217578]$GPGLL,5356.76017,N,02741.31052,E,193337.00,A,A*62

[1499553218567]$GPRMC,193338.00,A,5356.75845,N,02741.30575,E,10.917,241.43,080717,,,A*50

[1499553218567]$GPVTG,241.43,T,,M,10.917,N,20.218,K,A*3A

[1499553218567]$GPGGA,193338.00,5356.75845,N,02741.30575,E,1,09,1.00,213.2,M,24.8,M,,*51

[1499553218567]$GPGSA,A,3,22,01,14,03,11,32,17,31,23,,,,1.79,1.00,1.49*03

[1499553218567]$GPGSV,3,1,12,01,74,207,40,03,52,270,38,04,16,129,24,11,47,195,35*76

[1499553218567]$GPGSV,3,2,12,12,05,016,,14,49,066,33,17,30,305,36,19,18,325,*71

[1499553218567]$GPGSV,3,3,12,22,80,263,37,23,15,215,29,31,29,108,34,32,31,055,26*79

[1499553218567]$GPGLL,5356.75845,N,02741.30575,E,193338.00,A,A*60

[1499553219577]$GPRMC,193339.00,A,5356.75722,N,02741.30218,E,7.988,242.07,080717,,,A*60

[1499553219577]$GPVTG,242.07,T,,M,7.988,N,14.793,K,A*08

[1499553219577]$GPGGA,193339.00,5356.75722,N,02741.30218,E,1,09,1.00,213.5,M,24.8,M,,*55

[1499553219577]$GPGSA,A,3,22,01,14,03,11,32,17,31,23,,,,1.80,1.00,1.49*05

[1499553219577]$GPGSV,3,1,12,01,74,207,41,03,52,270,38,04,16,129,25,11,47,195,36*75

[1499553219577]$GPGSV,3,2,12,12,05,016,,14,49,066,34,17,30,305,37,19,18,325,*77

[1499553219577]$GPGSV,3,3,12,22,80,263,37,23,15,215,29,31,29,108,29,32,30,055,25*77

[1499553219577]$GPGLL,5356.75722,N,02741.30218,E,193339.00,A,A*63

[1499553220576]$GPRMC,193340.00,A,5356.75643,N,02741.29967,E,5.325,242.24,080717,,,A*6D

[1499553220576]$GPVTG,242.24,T,,M,5.325,N,9.861,K,A*38

[1499553220576]$GPGGA,193340.00,5356.75643,N,02741.29967,E,1,09,1.00,213.5,M,24.8,M,,*56

[1499553220576]$GPGSA,A,3,22,01,14,03,11,32,17,31,23,,,,1.80,1.00,1.49*05

[1499553220576]$GPGSV,3,1,12,01,74,207,41,03,52,270,40,04,16,129,23,11,47,195,34*7E

[1499553220576]$GPGSV,3,2,12,12,05,016,,14,49,066,33,17,30,305,37,19,18,325,*70

[1499553220576]$GPGSV,3,3,12,22,80,263,37,23,15,215,29,31,29,108,34,32,30,055,25*7B

[1499553220576]$GPGLL,5356.75643,N,02741.29967,E,193340.00,A,A*60

[1499553221576]$GPRMC,193341.00,A,5356.75580,N,02741.29767,E,4.667,242.84,080717,,,A*66

[1499553221576]$GPVTG,242.84,T,,M,4.667,N,8.642,K,A*3E

[1499553221576]$GPGGA,193341.00,5356.75580,N,02741.29767,E,1,09,1.00,213.3,M,24.8,M,,*53

[1499553221576]$GPGSA,A,3,22,01,14,03,11,32,17,31,23,,,,1.80,1.00,1.49*05

[1499553221576]$GPGSV,3,1,12,01,74,207,41,03,52,270,38,04,16,129,22,11,47,195,36*72

[1499553221576]$GPGSV,3,2,12,12,05,016,,14,49,066,32,17,30,305,30,19,18,325,*76

[1499553221576]$GPGSV,3,3,12,22,80,263,37,23,15,215,29,31,29,108,29,32,30,055,27*75

[1499553221576]$GPGLL,5356.75580,N,02741.29767,E,193341.00,A,A*63

[1499553222566]$GPRMC,193342.00,A,5356.75520,N,02741.29562,E,5.507,246.48,080717,,,A*68

[1499553222566]$GPVTG,246.48,T,,M,5.507,N,10.198,K,A*07

[1499553222566]$GPGGA,193342.00,5356.75520,N,02741.29562,E,1,09,1.00,212.9,M,24.8,M,,*56

[1499553222566]$GPGSA,A,3,22,01,14,03,11,32,17,31,23,,,,1.80,1.00,1.49*05

[1499553222566]$GPGSV,3,1,12,01,74,207,40,03,52,270,39,04,16,129,22,11,47,195,33*77

[1499553222566]$GPGSV,3,2,12,12,05,016,,14,49,066,25,17,30,305,36,19,18,325,*76

[1499553222566]$GPGSV,3,3,12,22,80,263,37,23,15,215,30,31,29,108,39,32,30,055,29*72

[1499553222566]$GPGLL,5356.75520,N,02741.29562,E,193342.00,A,A*6D

[1499553223577]$GPRMC,193343.00,A,5356.75444,N,02741.29220,E,8.743,255.10,080717,,,A*6B

[1499553223577]$GPVTG,255.10,T,,M,8.743,N,16.192,K,A*0B

[1499553223577]$GPGGA,193343.00,5356.75444,N,02741.29220,E,1,09,1.00,213.3,M,24.8,M,,*5E

[1499553223577]$GPGSA,A,3,22,01,14,03,11,32,17,31,23,,,,1.80,1.00,1.49*05

[1499553223577]$GPGSV,3,1,12,01,74,207,39,03,52,270,37,04,16,129,23,11,47,195,36*73

[1499553223577]$GPGSV,3,2,12,12,05,016,,14,49,066,25,17,30,305,38,19,18,325,*78

[1499553223577]$GPGSV,3,3,12,22,80,263,36,23,15,215,24,31,29,108,36,32,30,055,33*72

[1499553223577]$GPGLL,5356.75444,N,02741.29220,E,193343.00,A,A*6E

[1499553224581]$GPRMC,193344.00,A,5356.75434,N,02741.28801,E,9.199,266.66,080717,,,A*62

[1499553224581]$GPVTG,266.66,T,,M,9.199,N,17.037,K,A*05

[1499553224581]$GPGGA,193344.00,5356.75434,N,02741.28801,E,1,09,1.00,213.4,M,24.8,M,,*51

[1499553224581]$GPGSA,A,3,22,01,14,03,11,32,17,31,23,,,,1.80,1.00,1.49*05

[1499553224581]$GPGSV,3,1,12,01,74,207,37,03,52,270,30,04,16,129,24,11,47,195,27*7D

[1499553224581]$GPGSV,3,2,12,12,05,016,,14,49,066,26,17,30,305,34,19,18,325,27*72

[1499553224581]$GPGSV,3,3,12,22,80,263,27,23,15,215,30,31,29,108,28,32,30,055,28*72

[1499553224581]$GPGLL,5356.75434,N,02741.28801,E,193344.00,A,A*66

[1499553225576]$GPRMC,193345.00,A,5356.75514,N,02741.28310,E,11.470,288.96,080717,,,A*5F

[1499553225576]$GPVTG,288.96,T,,M,11.470,N,21.243,K,A*35

[1499553225576]$GPGGA,193345.00,5356.75514,N,02741.28310,E,1,10,0.88,213.4,M,24.8,M,,*51

[1499553225576]$GPGSA,A,3,22,01,14,03,11,32,17,31,19,23,,,1.60,0.88,1.34*08

[1499553225576]$GPGSV,3,1,12,01,74,207,31,03,52,270,34,04,16,129,24,11,47,195,33*7A

[1499553225576]$GPGSV,3,2,12,12,05,016,,14,49,066,30,17,30,305,34,19,18,325,28*7A

[1499553225576]$GPGSV,3,3,12,22,80,263,32,23,15,215,26,31,29,108,21,32,30,055,36*77

[1499553225576]$GPGLL,5356.75514,N,02741.28310,E,193345.00,A,A*6F

[1499553226581]$GPRMC,193346.00,A,5356.75668,N,02741.27767,E,13.322,297.80,080717,,,A*54

[1499553226581]$GPVTG,297.80,T,,M,13.322,N,24.673,K,A*3C

[1499553226581]$GPGGA,193346.00,5356.75668,N,02741.27767,E,1,10,0.88,213.7,M,24.8,M,,*52

[1499553226581]$GPGSA,A,3,22,01,14,03,11,32,17,31,19,23,,,1.60,0.88,1.34*08

[1499553226581]$GPGSV,3,1,12,01,74,207,31,03,52,270,41,04,16,129,26,11,47,195,32*7B

[1499553226581]$GPGSV,3,2,12,12,05,016,,14,49,066,28,17,30,305,41,19,18,325,28*71

[1499553226581]$GPGSV,3,3,12,22,80,263,33,23,15,215,35,31,29,108,22,32,30,055,34*75

[1499553226581]$GPGLL,5356.75668,N,02741.27767,E,193346.00,A,A*6F

[1499553227596]$GPRMC,193347.00,A,5356.75846,N,02741.27164,E,15.043,299.88,080717,,,A*56

[1499553227596]$GPVTG,299.88,T,,M,15.043,N,27.860,K,A*37

[1499553227596]$GPGGA,193347.00,5356.75846,N,02741.27164,E,1,10,0.88,214.2,M,24.8,M,,*56

[1499553227596]$GPGSA,A,3,22,01,14,03,11,32,17,31,19,23,,,1.60,0.88,1.34*08

[1499553227596]$GPGSV,3,1,12,01,74,207,27,03,52,270,40,04,16,129,31,11,47,195,30*79

[1499553227596]$GPGSV,3,2,12,12,05,016,,14,49,066,26,17,30,305,41,19,18,325,36*70

[1499553227596]$GPGSV,3,3,12,22,80,263,32,23,15,215,36,31,29,108,30,32,30,055,32*72

[1499553227596]$GPGLL,5356.75846,N,02741.27164,E,193347.00,A,A*69

[1499553228580]$GPRMC,193348.00,A,5356.76052,N,02741.26474,E,17.213,299.45,080717,,,A*56

[1499553228580]$GPVTG,299.45,T,,M,17.213,N,31.879,K,A*3C

[1499553228580]$GPGGA,193348.00,5356.76052,N,02741.26474,E,1,10,0.88,214.8,M,24.8,M,,*58

[1499553228580]$GPGSA,A,3,22,01,14,03,11,32,17,31,19,23,,,1.60,0.88,1.34*08

[1499553228580]$GPGSV,3,1,12,01,74,207,28,03,52,270,40,04,16,129,30,11,47,195,30*77

[1499553228580]$GPGSV,3,2,12,12,05,016,,14,49,066,24,17,30,305,40,19,18,325,37*72

[1499553228580]$GPGSV,3,3,12,22,80,263,32,23,15,215,34,31,29,108,29,32,30,055,33*79

[1499553228580]$GPGLL,5356.76052,N,02741.26474,E,193348.00,A,A*6D

[1499553229576]$GPRMC,193349.00,A,5356.76298,N,02741.25699,E,18.970,297.95,080717,,,A*53

[1499553229576]$GPVTG,297.95,T,,M,18.970,N,35.133,K,A*3D

[1499553229576]$GPGGA,193349.00,5356.76298,N,02741.25699,E,1,10,0.88,214.8,M,24.8,M,,*5F

[1499553229576]$GPGSA,A,3,22,01,14,03,11,32,17,31,19,23,,,1.60,0.88,1.34*08

[1499553229576]$GPGSV,3,1,12,01,74,207,29,03,52,270,40,04,16,129,30,11,47,195,32*74

[1499553229576]$GPGSV,3,2,12,12,05,016,,14,49,066,24,17,30,305,36,19,18,325,30*74

[1499553229576]$GPGSV,3,3,12,22,80,263,31,23,15,215,35,31,29,108,30,32,30,055,29*78

[1499553229576]$GPGLL,5356.76298,N,02741.25699,E,193349.00,A,A*6A

