[1499590238688]$GPRMC,055038.00,A,5355.75701,N,02729.31396,E,0.033,,090717,,,A*71

[1499590238688]$GPVTG,,T,,M,0.033,N,0.061,K,A*24

[1499590238688]$GPGGA,055038.00,5355.75701,N,02729.31396,E,1,10,0.93,212.9,M,25.0,M,,*51

[1499590238688]$GPGSA,A,3,17,24,19,15,13,28,12,01,10,18,,,1.93,0.93,1.69*03

[1499590238688]$GPGSV,3,1,11,01,14,036,28,10,13,315,17,11,05,025,,12,25,244,27*73

[1499590238688]$GPGSV,3,2,11,13,31,181,26,15,45,227,42,17,54,092,32,18,10,289,22*76

[1499590238688]$GPGSV,3,3,11,19,50,135,28,24,53,289,33,28,26,065,26*43

[1499590238688]$GPGLL,5355.75701,N,02729.31396,E,055038.00,A,A*60

[1499590239698]$GPRMC,055039.00,A,5355.75705,N,02729.31398,E,0.040,,090717,,,A*7E

[1499590239698]$GPVTG,,T,,M,0.040,N,0.075,K,A*25

[1499590239698]$GPGGA,055039.00,5355.75705,N,02729.31398,E,1,10,0.93,212.8,M,25.0,M,,*5B

[1499590239698]$GPGSA,A,3,17,24,19,15,13,28,12,01,10,18,,,1.93,0.93,1.69*03

[1499590239698]$GPGSV,3,1,11,01,14,036,28,10,13,315,14,11,05,025,,12,25,244,27*70

[1499590239698]$GPGSV,3,2,11,13,31,181,25,15,45,227,42,17,54,092,32,18,10,289,22*75

[1499590239698]$GPGSV,3,3,11,19,50,135,28,24,53,289,33,28,26,065,26*43

[1499590239698]$GPGLL,5355.75705,N,02729.31398,E,055039.00,A,A*6B

[1499590240688]$GPRMC,055040.00,A,5355.75707,N,02729.31401,E,0.031,,090717,,,A*73

[1499590240688]$GPVTG,,T,,M,0.031,N,0.057,K,A*23

[1499590240688]$GPGGA,055040.00,5355.75707,N,02729.31401,E,1,10,0.93,212.9,M,25.0,M,,*51

[1499590240688]$GPGSA,A,3,17,24,19,15,13,28,12,01,10,18,,,1.93,0.93,1.69*03

[1499590240688]$GPGSV,3,1,11,01,14,036,28,10,13,315,13,11,05,025,,12,25,244,27*77

[1499590240688]$GPGSV,3,2,11,13,31,181,25,15,45,227,42,17,54,092,32,18,10,289,22*75

[1499590240688]$GPGSV,3,3,11,19,50,135,27,24,53,289,33,28,26,065,27*4D

[1499590240688]$GPGLL,5355.75707,N,02729.31401,E,055040.00,A,A*60

[1499590241688]$GPRMC,055041.00,A,5355.75709,N,02729.31404,E,0.015,,090717,,,A*7F

[1499590241688]$GPVTG,,T,,M,0.015,N,0.027,K,A*22

[1499590241688]$GPGGA,055041.00,5355.75709,N,02729.31404,E,1,10,0.93,212.8,M,25.0,M,,*5A

[1499590241688]$GPGSA,A,3,17,24,19,15,13,28,12,01,10,18,,,1.93,0.93,1.69*03

[1499590241688]$GPGSV,3,1,11,01,14,036,28,10,13,314,13,11,05,025,,12,25,244,27*76

[1499590241688]$GPGSV,3,2,11,13,31,181,25,15,45,227,42,17,54,092,32,18,10,289,22*75

[1499590241688]$GPGSV,3,3,11,19,50,135,27,24,53,289,33,28,26,065,27*4D

[1499590241688]$GPGLL,5355.75709,N,02729.31404,E,055041.00,A,A*6A

[1499590242687]$GPRMC,055042.00,A,5355.75709,N,02729.31405,E,0.007,,090717,,,A*7E

[1499590242687]$GPVTG,,T,,M,0.007,N,0.013,K,A*26

[1499590242687]$GPGGA,055042.00,5355.75709,N,02729.31405,E,1,10,0.93,212.8,M,25.0,M,,*58

[1499590242687]$GPGSA,A,3,17,24,19,15,13,28,12,01,10,18,,,1.93,0.93,1.69*03

[1499590242687]$GPGSV,3,1,11,01,14,036,28,10,13,314,13,11,05,025,,12,25,244,27*76

[1499590242687]$GPGSV,3,2,11,13,31,181,25,15,45,227,42,17,54,092,32,18,10,289,22*75

[1499590242687]$GPGSV,3,3,11,19,50,135,28,24,53,289,32,28,26,065,27*43

[1499590242687]$GPGLL,5355.75709,N,02729.31405,E,055042.00,A,A*68

[1499590243687]$GPRMC,055043.00,A,5355.75708,N,02729.31410,E,0.087,,090717,,,A*72

[1499590243687]$GPVTG,,T,,M,0.087,N,0.162,K,A*29

[1499590243687]$GPGGA,055043.00,5355.75708,N,02729.31410,E,1,10,0.93,212.8,M,25.0,M,,*5C

[1499590243687]$GPGSA,A,3,17,24,19,15,13,28,12,01,10,18,,,1.93,0.93,1.69*03

[1499590243687]$GPGSV,3,1,11,01,14,036,28,10,13,314,14,11,05,025,,12,25,244,27*71

[1499590243687]$GPGSV,3,2,11,13,31,181,24,15,45,227,42,17,54,092,32,18,10,289,22*74

[1499590243687]$GPGSV,3,3,11,19,50,135,27,24,53,289,32,28,26,065,27*4C

[1499590243687]$GPGLL,5355.75708,N,02729.31410,E,055043.00,A,A*6C

[1499590244688]$GPRMC,055044.00,A,5355.75708,N,02729.31411,E,0.023,,090717,,,A*7A

[1499590244688]$GPVTG,,T,,M,0.023,N,0.043,K,A*25

[1499590244688]$GPGGA,055044.00,5355.75708,N,02729.31411,E,1,10,0.93,212.8,M,25.0,M,,*5A

[1499590244688]$GPGSA,A,3,17,24,19,15,13,28,12,01,10,18,,,1.93,0.93,1.69*03

[1499590244688]$GPGSV,3,1,11,01,14,036,28,10,13,314,15,11,05,025,,12,25,244,27*70

[1499590244688]$GPGSV,3,2,11,13,30,181,25,15,45,227,42,17,54,092,32,18,10,289,22*74

[1499590244688]$GPGSV,3,3,11,19,50,135,27,24,53,289,33,28,26,065,27*4D

[1499590244688]$GPGLL,5355.75708,N,02729.31411,E,055044.00,A,A*6A

[1499590245699]$GPRMC,055045.00,A,5355.75710,N,02729.31415,E,0.050,,090717,,,A*72

[1499590245699]$GPVTG,,T,,M,0.050,N,0.092,K,A*2D

[1499590245699]$GPGGA,055045.00,5355.75710,N,02729.31415,E,1,10,0.93,212.8,M,25.0,M,,*56

[1499590245699]$GPGSA,A,3,17,24,19,15,13,28,12,01,10,18,,,1.93,0.93,1.69*03

[1499590245699]$GPGSV,3,1,11,01,14,036,27,10,13,314,14,11,05,025,,12,25,244,27*7E

[1499590245699]$GPGSV,3,2,11,13,30,181,25,15,45,227,42,17,54,092,32,18,10,289,22*74

[1499590245699]$GPGSV,3,3,11,19,50,135,27,24,53,289,33,28,26,065,27*4D

[1499590245699]$GPGLL,5355.75710,N,02729.31415,E,055045.00,A,A*66

[1499590246689]$GPRMC,055046.00,A,5355.75713,N,02729.31418,E,0.067,,090717,,,A*7B

[1499590246689]$GPVTG,,T,,M,0.067,N,0.124,K,A*25

[1499590246689]$GPGGA,055046.00,5355.75713,N,02729.31418,E,1,10,0.93,212.9,M,25.0,M,,*5A

[1499590246689]$GPGSA,A,3,17,24,19,15,13,28,12,01,10,18,,,1.93,0.93,1.69*03

[1499590246689]$GPGSV,3,1,11,01,14,036,28,10,13,314,19,11,05,025,,12,25,244,28*73

[1499590246689]$GPGSV,3,2,11,13,30,181,25,15,45,227,42,17,54,092,32,18,10,289,23*75

[1499590246689]$GPGSV,3,3,11,19,50,135,27,24,53,289,33,28,26,065,26*4C

[1499590246689]$GPGLL,5355.75713,N,02729.31418,E,055046.00,A,A*6B

[1499590247699]$GPRMC,055047.00,A,5355.75715,N,02729.31422,E,0.040,,090717,,,A*70

[1499590247699]$GPVTG,,T,,M,0.040,N,0.073,K,A*23

[1499590247699]$GPGGA,055047.00,5355.75715,N,02729.31422,E,1,10,0.93,213.0,M,25.0,M,,*5C

[1499590247699]$GPGSA,A,3,17,24,19,15,13,28,12,01,10,18,,,1.93,0.93,1.69*03

[1499590247699]$GPGSV,3,1,11,01,14,036,28,10,13,314,21,11,05,025,,12,25,244,28*78

[1499590247699]$GPGSV,3,2,11,13,30,181,25,15,45,227,42,17,54,092,32,18,10,289,22*74

[1499590247699]$GPGSV,3,3,11,19,50,135,27,24,53,289,32,28,26,065,26*4D

[1499590247699]$GPGLL,5355.75715,N,02729.31422,E,055047.00,A,A*65

[1499590248688]$GPRMC,055048.00,A,5355.75717,N,02729.31427,E,0.067,,090717,,,A*7D

[1499590248688]$GPVTG,,T,,M,0.067,N,0.124,K,A*25

[1499590248688]$GPGGA,055048.00,5355.75717,N,02729.31427,E,1,10,0.93,213.2,M,25.0,M,,*56

[1499590248688]$GPGSA,A,3,17,24,19,15,13,28,12,01,10,18,,,1.93,0.93,1.69*03

[1499590248688]$GPGSV,3,1,11,01,14,036,28,10,13,314,22,11,05,025,,12,25,244,27*74

[1499590248688]$GPGSV,3,2,11,13,30,181,25,15,45,227,42,17,54,091,32,18,10,289,21*74

[1499590248688]$GPGSV,3,3,11,19,50,135,27,24,53,289,32,28,26,065,26*4D

[1499590248688]$GPGLL,5355.75717,N,02729.31427,E,055048.00,A,A*6D

[1499590249688]$GPRMC,055049.00,A,5355.75718,N,02729.31432,E,0.064,,090717,,,A*74

[1499590249688]$GPVTG,,T,,M,0.064,N,0.119,K,A*28

[1499590249688]$GPGGA,055049.00,5355.75718,N,02729.31432,E,1,10,0.93,213.1,M,25.0,M,,*5F

[1499590249688]$GPGSA,A,3,17,24,19,15,13,28,12,01,10,18,,,1.93,0.93,1.69*03

[1499590249688]$GPGSV,3,1,11,01,14,036,28,10,13,314,23,11,05,025,,12,25,244,27*75

[1499590249688]$GPGSV,3,2,11,13,30,181,26,15,45,227,42,17,54,091,32,18,09,289,21*7F

[1499590249688]$GPGSV,3,3,11,19,50,135,27,24,53,289,32,28,26,065,26*4D

[1499590249688]$GPGLL,5355.75718,N,02729.31432,E,055049.00,A,A*67

[1499590250688]$GPRMC,055050.00,A,5355.75721,N,02729.31436,E,0.008,,090717,,,A*78

[1499590250688]$GPVTG,,T,,M,0.008,N,0.014,K,A*2E

[1499590250688]$GPGGA,055050.00,5355.75721,N,02729.31436,E,1,10,0.93,213.1,M,25.0,M,,*59

[1499590250688]$GPGSA,A,3,17,24,19,15,13,28,12,01,10,18,,,1.93,0.93,1.69*03

[1499590250688]$GPGSV,3,1,11,01,14,036,28,10,13,314,23,11,05,025,,12,25,244,27*75

[1499590250688]$GPGSV,3,2,11,13,30,181,26,15,45,227,42,17,54,091,32,18,09,289,20*7E

[1499590250688]$GPGSV,3,3,11,19,51,135,27,24,53,289,32,28,26,065,26*4C

[1499590250688]$GPGLL,5355.75721,N,02729.31436,E,055050.00,A,A*61

[1499590251698]$GPRMC,055051.00,A,5355.75724,N,02729.31439,E,0.014,,090717,,,A*7E

[1499590251698]$GPVTG,,T,,M,0.014,N,0.025,K,A*21

[1499590251698]$GPGGA,055051.00,5355.75724,N,02729.31439,E,1,10,0.93,213.2,M,25.0,M,,*51

[1499590251698]$GPGSA,A,3,17,24,19,15,13,28,12,01,10,18,,,1.93,0.93,1.69*03

[1499590251698]$GPGSV,3,1,11,01,14,036,28,10,13,314,23,11,05,025,08,12,25,244,27*7D

[1499590251698]$GPGSV,3,2,11,13,30,181,26,15,45,227,42,17,54,091,31,18,09,289,21*7C

[1499590251698]$GPGSV,3,3,11,19,51,135,27,24,53,289,32,28,26,065,26*4C

[1499590251698]$GPGLL,5355.75724,N,02729.31439,E,055051.00,A,A*6A

[1499590252698]$GPRMC,055052.00,A,5355.75726,N,02729.31443,E,0.088,,090717,,,A*77

[1499590252698]$GPVTG,,T,,M,0.088,N,0.162,K,A*26

[1499590252698]$GPGGA,055052.00,5355.75726,N,02729.31443,E,1,10,0.93,213.2,M,25.0,M,,*5D

[1499590252698]$GPGSA,A,3,17,24,19,15,13,28,12,01,10,18,,,1.92,0.93,1.69*02

[1499590252698]$GPGSV,3,1,11,01,14,036,28,10,13,314,23,11,05,025,12,12,25,244,27*76

[1499590252698]$GPGSV,3,2,11,13,30,181,25,15,45,227,42,17,54,091,31,18,09,289,21*7F

[1499590252698]$GPGSV,3,3,11,19,51,135,27,24,53,289,32,28,26,065,26*4C

[1499590252698]$GPGLL,5355.75726,N,02729.31443,E,055052.00,A,A*66

[1499590253698]$GPRMC,055053.00,A,5355.75731,N,02729.31443,E,0.097,,090717,,,A*7E

[1499590253698]$GPVTG,,T,,M,0.097,N,0.180,K,A*24

[1499590253698]$GPGGA,055053.00,5355.75731,N,02729.31443,E,1,10,0.92,213.2,M,25.0,M,,*5B

[1499590253698]$GPGSA,A,3,17,24,19,15,13,28,12,01,10,18,,,1.92,0.92,1.69*03

[1499590253698]$GPGSV,3,1,11,01,14,036,28,10,13,314,22,11,05,025,15,12,25,244,27*70

[1499590253698]$GPGSV,3,2,11,13,30,181,26,15,45,227,42,17,54,091,31,18,09,289,21*7C

[1499590253698]$GPGSV,3,3,11,19,51,135,27,24,53,289,32,28,26,065,26*4C

[1499590253698]$GPGLL,5355.75731,N,02729.31443,E,055053.00,A,A*61

[1499590254688]$GPRMC,055054.00,A,5355.75735,N,02729.31447,E,0.029,,090717,,,A*7C

[1499590254688]$GPVTG,,T,,M,0.029,N,0.053,K,A*2E

[1499590254688]$GPGGA,055054.00,5355.75735,N,02729.31447,E,1,11,0.91,213.3,M,25.0,M,,*5F

[1499590254688]$GPGSA,A,3,17,24,19,15,13,28,12,01,10,18,11,,1.83,0.91,1.59*03

[1499590254688]$GPGSV,3,1,11,01,14,036,28,10,13,314,23,11,05,025,16,12,25,244,27*72

[1499590254688]$GPGSV,3,2,11,13,30,181,26,15,45,227,42,17,54,091,31,18,09,289,22*7F

[1499590254688]$GPGSV,3,3,11,19,51,135,27,24,53,289,32,28,26,065,26*4C

[1499590254688]$GPGLL,5355.75735,N,02729.31447,E,055054.00,A,A*66

[1499590255698]$GPRMC,055055.00,A,5355.75739,N,02729.31448,E,0.079,,090717,,,A*7B

[1499590255698]$GPVTG,,T,,M,0.079,N,0.145,K,A*2D

[1499590255698]$GPGGA,055055.00,5355.75739,N,02729.31448,E,1,11,0.91,213.3,M,25.0,M,,*5D

[1499590255698]$GPGSA,A,3,17,24,19,15,13,28,12,01,10,18,11,,1.83,0.91,1.59*03

[1499590255698]$GPGSV,3,1,11,01,14,036,29,10,13,314,23,11,05,025,15,12,25,244,27*70

[1499590255698]$GPGSV,3,2,11,13,30,181,26,15,45,227,42,17,54,091,31,18,09,289,22*7F

[1499590255698]$GPGSV,3,3,11,19,51,135,27,24,53,289,32,28,26,065,26*4C

[1499590255698]$GPGLL,5355.75739,N,02729.31448,E,055055.00,A,A*64

[1499590256697]$GPRMC,055056.00,A,5355.75742,N,02729.31451,E,0.019,,090717,,,A*7A

[1499590256697]$GPVTG,,T,,M,0.019,N,0.036,K,A*2E

[1499590256697]$GPGGA,055056.00,5355.75742,N,02729.31451,E,1,11,0.91,213.4,M,25.0,M,,*5D

[1499590256697]$GPGSA,A,3,17,24,19,15,13,28,12,01,10,18,11,,1.83,0.91,1.59*03

[1499590256697]$GPGSV,3,1,11,01,14,036,29,10,13,314,23,11,05,025,15,12,25,244,28*7F

[1499590256697]$GPGSV,3,2,11,13,30,181,26,15,45,227,42,17,54,091,31,18,09,289,23*7E

[1499590256697]$GPGSV,3,3,11,19,51,135,27,24,53,289,32,28,26,065,26*4C

[1499590256697]$GPGLL,5355.75742,N,02729.31451,E,055056.00,A,A*63

[1499590257698]$GPRMC,055057.00,A,5355.75746,N,02729.31455,E,0.039,,090717,,,A*79

[1499590257698]$GPVTG,,T,,M,0.039,N,0.073,K,A*2D

[1499590257698]$GPGGA,055057.00,5355.75746,N,02729.31455,E,1,11,0.91,213.5,M,25.0,M,,*5D

[1499590257698]$GPGSA,A,3,17,24,19,15,13,28,12,01,10,18,11,,1.83,0.91,1.59*03

[1499590257698]$GPGSV,3,1,11,01,14,036,29,10,13,314,23,11,05,025,10,12,25,244,28*7A

[1499590257698]$GPGSV,3,2,11,13,30,181,26,15,45,227,42,17,54,091,31,18,09,289,22*7F

[1499590257698]$GPGSV,3,3,11,19,51,135,27,24,53,289,32,28,26,065,26*4C

[1499590257698]$GPGLL,5355.75746,N,02729.31455,E,055057.00,A,A*62

[1499590258688]$GPRMC,055058.00,A,5355.75748,N,02729.31459,E,0.015,,090717,,,A*7A

[1499590258688]$GPVTG,,T,,M,0.015,N,0.028,K,A*2D

[1499590258688]$GPGGA,055058.00,5355.75748,N,02729.31459,E,1,10,0.92,213.5,M,25.0,M,,*52

[1499590258688]$GPGSA,A,3,17,24,19,15,13,28,12,01,10,18,,,1.92,0.92,1.69*03

[1499590258688]$GPGSV,3,1,11,01,14,036,29,10,13,314,23,11,05,025,08,12,25,244,28*73

[1499590258688]$GPGSV,3,2,11,13,30,181,26,15,45,227,42,17,54,091,31,18,09,289,22*7F

[1499590258688]$GPGSV,3,3,11,19,51,135,27,24,53,289,31,28,26,065,26*4F

[1499590258688]$GPGLL,5355.75748,N,02729.31459,E,055058.00,A,A*6F

[1499590259687]$GPRMC,055059.00,A,5355.75751,N,02729.31459,E,0.074,,090717,,,A*74

[1499590259687]$GPVTG,,T,,M,0.074,N,0.137,K,A*25

[1499590259687]$GPGGA,055059.00,5355.75751,N,02729.31459,E,1,10,0.92,213.6,M,25.0,M,,*58

[1499590259687]$GPGSA,A,3,17,24,19,15,13,28,12,01,10,18,,,1.92,0.92,1.69*03

[1499590259687]$GPGSV,3,1,11,01,14,036,29,10,13,314,24,11,05,025,08,12,25,244,28*74

[1499590259687]$GPGSV,3,2,11,13,30,181,26,15,45,227,42,17,54,091,31,18,09,289,22*7F

[1499590259687]$GPGSV,3,3,11,19,51,135,28,24,53,289,31,28,25,065,26*43

[1499590259687]$GPGLL,5355.75751,N,02729.31459,E,055059.00,A,A*66

[1499590260689]$GPRMC,055100.00,A,5355.75755,N,02729.31457,E,0.142,,090717,,,A*77

[1499590260689]$GPVTG,,T,,M,0.142,N,0.263,K,A*23

[1499590260689]$GPGGA,055100.00,5355.75755,N,02729.31457,E,1,10,0.92,213.6,M,25.0,M,,*5F

[1499590260689]$GPGSA,A,3,17,24,19,15,13,28,12,01,10,18,,,1.92,0.92,1.69*03

[1499590260689]$GPGSV,3,1,11,01,14,036,29,10,13,314,23,11,05,025,08,12,25,244,28*73

[1499590260689]$GPGSV,3,2,11,13,30,181,26,15,45,227,42,17,54,091,31,18,09,289,22*7F

[1499590260689]$GPGSV,3,3,11,19,51,135,28,24,53,289,31,28,25,065,25*40

[1499590260689]$GPGLL,5355.75755,N,02729.31457,E,055100.00,A,A*61

[1499590261698]$GPRMC,055101.00,A,5355.75761,N,02729.31456,E,0.025,,090717,,,A*70

[1499590261698]$GPVTG,,T,,M,0.025,N,0.046,K,A*26

[1499590261698]$GPGGA,055101.00,5355.75761,N,02729.31456,E,1,10,0.92,213.7,M,25.0,M,,*59

[1499590261698]$GPGSA,A,3,17,24,19,15,13,28,12,01,10,18,,,1.92,0.92,1.69*03

[1499590261698]$GPGSV,3,1,11,01,14,036,29,10,13,314,23,11,05,025,08,12,25,244,28*73

[1499590261698]$GPGSV,3,2,11,13,30,181,26,15,45,227,42,17,54,091,31,18,09,289,22*7F

[1499590261698]$GPGSV,3,3,11,19,51,135,28,24,53,289,32,28,25,065,26*40

[1499590261698]$GPGLL,5355.75761,N,02729.31456,E,055101.00,A,A*66

[1499590262687]$GPRMC,055102.00,A,5355.75764,N,02729.31457,E,0.059,,090717,,,A*7C

[1499590262687]$GPVTG,,T,,M,0.059,N,0.109,K,A*27

[1499590262687]$GPGGA,055102.00,5355.75764,N,02729.31457,E,1,10,0.92,213.9,M,25.0,M,,*50

[1499590262687]$GPGSA,A,3,17,24,19,15,13,28,12,01,10,18,,,1.92,0.92,1.68*02

[1499590262687]$GPGSV,3,1,11,01,14,036,29,10,13,314,24,11,05,025,15,12,25,244,28*78

[1499590262687]$GPGSV,3,2,11,13,30,181,26,15,45,227,41,17,54,091,31,18,09,289,22*7C

[1499590262687]$GPGSV,3,3,11,19,51,135,28,24,53,289,32,28,25,065,26*40

[1499590262687]$GPGLL,5355.75764,N,02729.31457,E,055102.00,A,A*61

[1499590263698]$GPRMC,055103.00,A,5355.75766,N,02729.31460,E,0.100,,090717,,,A*76

[1499590263698]$GPVTG,,T,,M,0.100,N,0.184,K,A*2F

[1499590263698]$GPGGA,055103.00,5355.75766,N,02729.31460,E,1,10,0.92,214.1,M,25.0,M,,*58

[1499590263698]$GPGSA,A,3,17,24,19,15,13,28,12,01,10,18,,,1.92,0.92,1.68*02

[1499590263698]$GPGSV,3,1,11,01,14,036,29,10,13,314,23,11,05,025,15,12,25,244,28*7F

[1499590263698]$GPGSV,3,2,11,13,30,181,26,15,45,227,41,17,54,091,32,18,09,289,22*7F

[1499590263698]$GPGSV,3,3,11,19,51,135,28,24,53,289,33,28,25,065,25*42

[1499590263698]$GPGLL,5355.75766,N,02729.31460,E,055103.00,A,A*66

[1499590264687]$GPRMC,055104.00,A,5355.75766,N,02729.31461,E,0.063,,090717,,,A*74

[1499590264687]$GPVTG,,T,,M,0.063,N,0.116,K,A*20

[1499590264687]$GPGGA,055104.00,5355.75766,N,02729.31461,E,1,10,0.92,214.3,M,25.0,M,,*5C

[1499590264687]$GPGSA,A,3,17,24,19,15,13,28,12,01,10,18,,,1.92,0.92,1.68*02

[1499590264687]$GPGSV,3,1,11,01,14,036,29,10,13,314,22,11,05,025,15,12,25,244,28*7E

[1499590264687]$GPGSV,3,2,11,13,30,181,25,15,45,227,41,17,54,091,32,18,09,289,22*7C

[1499590264687]$GPGSV,3,3,11,19,51,135,28,24,53,289,32,28,25,065,25*43

[1499590264687]$GPGLL,5355.75766,N,02729.31461,E,055104.00,A,A*60

[1499590265697]$GPRMC,055105.00,A,5355.75767,N,02729.31460,E,0.070,,090717,,,A*77

[1499590265697]$GPVTG,,T,,M,0.070,N,0.129,K,A*2E

[1499590265697]$GPGGA,055105.00,5355.75767,N,02729.31460,E,1,10,0.92,214.3,M,25.0,M,,*5D

[1499590265697]$GPGSA,A,3,17,24,19,15,13,28,12,01,10,18,,,1.92,0.92,1.68*02

[1499590265697]$GPGSV,3,1,11,01,14,036,29,10,13,314,20,11,05,025,15,12,25,244,28*7C

[1499590265697]$GPGSV,3,2,11,13,30,181,24,15,45,227,41,17,54,091,31,18,09,289,22*7E

[1499590265697]$GPGSV,3,3,11,19,51,135,28,24,53,289,32,28,25,065,25*43

[1499590265697]$GPGLL,5355.75767,N,02729.31460,E,055105.00,A,A*61

[1499590266688]$GPRMC,055106.00,A,5355.75768,N,02729.31459,E,0.029,,090717,,,A*7D

[1499590266688]$GPVTG,,T,,M,0.029,N,0.053,K,A*2E

[1499590266688]$GPGGA,055106.00,5355.75768,N,02729.31459,E,1,10,0.92,214.7,M,25.0,M,,*5F

[1499590266688]$GPGSA,A,3,17,24,19,15,13,28,12,01,10,18,,,1.92,0.92,1.68*02

[1499590266688]$GPGSV,3,1,11,01,14,036,30,10,13,314,21,11,05,025,15,12,25,244,28*75

[1499590266688]$GPGSV,3,2,11,13,30,181,24,15,45,227,42,17,54,091,31,18,09,289,22*7D

[1499590266688]$GPGSV,3,3,11,19,51,135,28,24,53,289,34,28,25,065,25*45

[1499590266688]$GPGLL,5355.75768,N,02729.31459,E,055106.00,A,A*67

[1499590267688]$GPRMC,055107.00,A,5355.75771,N,02729.31463,E,0.032,,090717,,,A*77

[1499590267688]$GPVTG,,T,,M,0.032,N,0.060,K,A*24

[1499590267688]$GPGGA,055107.00,5355.75771,N,02729.31463,E,1,10,0.92,215.1,M,25.0,M,,*58

[1499590267688]$GPGSA,A,3,17,24,19,15,13,28,12,01,10,18,,,1.92,0.92,1.68*02

[1499590267688]$GPGSV,3,1,11,01,14,036,30,10,13,314,23,11,05,025,15,12,25,244,29*76

[1499590267688]$GPGSV,3,2,11,13,30,181,24,15,45,227,42,17,54,091,32,18,09,289,22*7E

[1499590267688]$GPGSV,3,3,11,19,51,135,28,24,53,289,34,28,25,065,24*44

[1499590267688]$GPGLL,5355.75771,N,02729.31463,E,055107.00,A,A*67

[1499590268688]$GPRMC,055108.00,A,5355.75772,N,02729.31464,E,0.040,,090717,,,A*79

[1499590268688]$GPVTG,,T,,M,0.040,N,0.075,K,A*25

[1499590268688]$GPGGA,055108.00,5355.75772,N,02729.31464,E,1,10,0.92,215.2,M,25.0,M,,*50

[1499590268688]$GPGSA,A,3,17,24,19,15,13,28,12,01,10,18,,,1.92,0.92,1.68*02

[1499590268688]$GPGSV,3,1,11,01,14,036,30,10,13,314,23,11,05,025,10,12,25,244,29*73

[1499590268688]$GPGSV,3,2,11,13,30,181,25,15,45,227,41,17,54,091,32,18,09,289,22*7C

[1499590268688]$GPGSV,3,3,11,19,51,135,29,24,53,289,35,28,25,065,24*44

[1499590268688]$GPGLL,5355.75772,N,02729.31464,E,055108.00,A,A*6C

[1499590269697]$GPRMC,055109.00,A,5355.75772,N,02729.31469,E,0.074,,090717,,,A*72

[1499590269697]$GPVTG,,T,,M,0.074,N,0.138,K,A*2A

[1499590269697]$GPGGA,055109.00,5355.75772,N,02729.31469,E,1,10,0.92,215.2,M,25.0,M,,*5C

[1499590269697]$GPGSA,A,3,17,24,19,15,13,28,12,01,10,18,,,1.92,0.92,1.68*02

[1499590269697]$GPGSV,3,1,11,01,14,036,29,10,13,314,22,11,05,025,10,12,25,244,29*7A

[1499590269697]$GPGSV,3,2,11,13,30,181,24,15,45,227,41,17,54,091,31,18,09,289,22*7E

[1499590269697]$GPGSV,3,3,11,19,51,135,29,24,53,289,34,28,25,065,23*42

[1499590269697]$GPGLL,5355.75772,N,02729.31469,E,055109.00,A,A*60

[1499590270687]$GPRMC,055110.00,A,5355.75773,N,02729.31467,E,0.097,,090717,,,A*78

[1499590270687]$GPVTG,,T,,M,0.097,N,0.179,K,A*22

[1499590270687]$GPGGA,055110.00,5355.75773,N,02729.31467,E,1,10,0.92,215.4,M,25.0,M,,*5D

[1499590270687]$GPGSA,A,3,17,24,19,15,13,28,12,01,10,18,,,1.92,0.92,1.68*02

[1499590270687]$GPGSV,3,1,11,01,14,036,27,10,13,314,22,11,05,025,10,12,25,244,28*75

[1499590270687]$GPGSV,3,2,11,13,30,181,25,15,45,227,41,17,54,091,31,18,09,289,22*7F

[1499590270687]$GPGSV,3,3,11,19,51,135,28,24,53,289,34,28,25,065,24*44

[1499590270687]$GPGLL,5355.75773,N,02729.31467,E,055110.00,A,A*67

[1499590271698]$GPRMC,055111.00,A,5355.75770,N,02729.31469,E,0.039,,090717,,,A*70

[1499590271698]$GPVTG,,T,,M,0.039,N,0.072,K,A*2C

[1499590271698]$GPGGA,055111.00,5355.75770,N,02729.31469,E,1,10,0.92,215.7,M,25.0,M,,*52

[1499590271698]$GPGSA,A,3,17,24,19,15,13,28,12,01,10,18,,,1.92,0.92,1.68*02

[1499590271698]$GPGSV,3,1,11,01,14,036,28,10,13,314,22,11,05,025,10,12,25,244,30*73

[1499590271698]$GPGSV,3,2,11,13,30,181,25,15,45,227,41,17,54,091,31,18,09,289,22*7F

[1499590271698]$GPGSV,3,3,11,19,51,135,29,24,53,289,34,28,25,065,25*44

[1499590271698]$GPGLL,5355.75770,N,02729.31469,E,055111.00,A,A*6B

[1499590272698]$GPRMC,055112.00,A,5355.75765,N,02729.31472,E,0.065,,090717,,,A*74

[1499590272698]$GPVTG,,T,,M,0.065,N,0.121,K,A*22

[1499590272698]$GPGGA,055112.00,5355.75765,N,02729.31472,E,1,10,0.92,215.9,M,25.0,M,,*51

[1499590272698]$GPGSA,A,3,17,24,19,15,13,28,12,01,10,18,,,1.92,0.92,1.68*02

[1499590272698]$GPGSV,3,1,11,01,14,036,28,10,13,314,22,11,05,025,10,12,25,244,30*73

[1499590272698]$GPGSV,3,2,11,13,30,181,25,15,45,227,41,17,54,091,31,18,09,289,22*7F

[1499590272698]$GPGSV,3,3,11,19,51,135,29,24,53,289,34,28,25,065,24*45

[1499590272698]$GPGLL,5355.75765,N,02729.31472,E,055112.00,A,A*66

[1499590273697]$GPRMC,055113.00,A,5355.75762,N,02729.31476,E,0.069,,090717,,,A*7A

[1499590273697]$GPVTG,,T,,M,0.069,N,0.128,K,A*27

[1499590273697]$GPGGA,055113.00,5355.75762,N,02729.31476,E,1,10,0.92,216.4,M,25.0,M,,*5D

[1499590273697]$GPGSA,A,3,17,24,19,15,13,28,12,01,10,18,,,1.92,0.92,1.68*02

[1499590273697]$GPGSV,3,1,11,01,14,036,28,10,13,314,22,11,05,025,09,12,25,244,30*7B

[1499590273697]$GPGSV,3,2,11,13,30,181,26,15,45,227,41,17,54,091,33,18,09,289,22*7E

[1499590273697]$GPGSV,3,3,11,19,51,135,28,24,53,289,37,28,25,065,24*47

[1499590273697]$GPGLL,5355.75762,N,02729.31476,E,055113.00,A,A*64

[1499590274693]$GPRMC,055114.00,A,5355.75758,N,02729.31479,E,0.036,,090717,,,A*71

[1499590274693]$GPVTG,,T,,M,0.036,N,0.067,K,A*27

[1499590274693]$GPGGA,055114.00,5355.75758,N,02729.31479,E,1,10,0.92,216.8,M,25.0,M,,*50

[1499590274693]$GPGSA,A,3,17,24,19,15,13,28,12,01,10,18,,,1.92,0.92,1.68*02

[1499590274693]$GPGSV,3,1,11,01,14,036,27,10,13,314,21,11,05,025,11,12,25,244,31*7F

[1499590274693]$GPGSV,3,2,11,13,30,181,27,15,45,227,42,17,54,091,32,18,09,289,21*7E

[1499590274693]$GPGSV,3,3,11,19,51,135,28,24,53,289,36,28,25,065,25*47

[1499590274693]$GPGLL,5355.75758,N,02729.31479,E,055114.00,A,A*65

[1499590275698]$GPRMC,055115.00,A,5355.75754,N,02729.31486,E,0.066,,090717,,,A*79

[1499590275698]$GPVTG,,T,,M,0.066,N,0.123,K,A*23

[1499590275698]$GPGGA,055115.00,5355.75754,N,02729.31486,E,1,10,0.92,217.2,M,25.0,M,,*56

[1499590275698]$GPGSA,A,3,17,24,19,15,13,28,12,01,10,18,,,1.92,0.92,1.68*02

[1499590275698]$GPGSV,3,1,11,01,14,036,27,10,13,314,21,11,05,025,11,12,25,244,31*7F

[1499590275698]$GPGSV,3,2,11,13,30,181,25,15,45,227,41,17,54,091,32,18,09,289,20*7E

[1499590275698]$GPGSV,3,3,11,19,51,135,29,24,53,289,36,28,25,065,25*46

[1499590275698]$GPGLL,5355.75754,N,02729.31486,E,055115.00,A,A*68

[1499590276698]$GPRMC,055116.00,A,5355.75746,N,02729.31493,E,0.040,,090717,,,A*79

[1499590276698]$GPVTG,,T,,M,0.040,N,0.074,K,A*24

[1499590276698]$GPGGA,055116.00,5355.75746,N,02729.31493,E,1,10,0.92,217.3,M,25.0,M,,*53

[1499590276698]$GPGSA,A,3,17,24,19,15,13,28,12,01,10,18,,,1.92,0.92,1.68*02

[1499590276698]$GPGSV,3,1,11,01,14,036,26,10,13,314,21,11,05,025,11,12,25,244,32*7D

[1499590276698]$GPGSV,3,2,11,13,30,181,25,15,45,227,41,17,54,091,32,18,09,289,19*74

[1499590276698]$GPGSV,3,3,11,19,51,135,29,24,53,289,36,28,25,065,25*46

[1499590276698]$GPGLL,5355.75746,N,02729.31493,E,055116.00,A,A*6C

[1499590277687]$GPRMC,055117.00,A,5355.75741,N,02729.31502,E,0.047,,090717,,,A*71

[1499590277687]$GPVTG,,T,,M,0.047,N,0.087,K,A*2F

[1499590277687]$GPGGA,055117.00,5355.75741,N,02729.31502,E,1,10,0.92,217.6,M,25.0,M,,*59

[1499590277687]$GPGSA,A,3,17,24,19,15,13,28,12,01,10,18,,,1.92,0.92,1.68*02

[1499590277687]$GPGSV,3,1,11,01,14,036,26,10,13,314,21,11,05,025,11,12,25,244,32*7D

[1499590277687]$GPGSV,3,2,11,13,30,181,24,15,45,227,42,17,54,091,32,18,09,289,19*76

[1499590277687]$GPGSV,3,3,11,19,51,135,28,24,53,289,36,28,25,065,25*47

[1499590277687]$GPGLL,5355.75741,N,02729.31502,E,055117.00,A,A*63

[1499590278688]$GPRMC,055118.00,A,5355.75740,N,02729.31509,E,0.075,,090717,,,A*75

[1499590278688]$GPVTG,,T,,M,0.075,N,0.139,K,A*2A

[1499590278688]$GPGGA,055118.00,5355.75740,N,02729.31509,E,1,10,0.92,217.8,M,25.0,M,,*52

[1499590278688]$GPGSA,A,3,17,24,19,15,13,28,12,01,10,18,,,1.92,0.92,1.68*02

[1499590278688]$GPGSV,3,1,11,01,14,036,26,10,13,314,21,11,05,025,11,12,25,244,32*7D

[1499590278688]$GPGSV,3,2,11,13,30,181,21,15,45,227,42,17,54,091,31,18,09,289,19*70

[1499590278688]$GPGSV,3,3,11,19,51,135,28,24,53,289,31,28,25,065,25*40

[1499590278688]$GPGLL,5355.75740,N,02729.31509,E,055118.00,A,A*66

[1499590279698]$GPRMC,055119.00,A,5355.75738,N,02729.31515,E,0.046,,090717,,,A*76

[1499590279698]$GPVTG,,T,,M,0.046,N,0.085,K,A*2C

[1499590279698]$GPGGA,055119.00,5355.75738,N,02729.31515,E,1,10,0.92,218.1,M,25.0,M,,*57

[1499590279698]$GPGSA,A,3,17,24,19,15,13,28,12,01,10,18,,,1.92,0.92,1.68*02

[1499590279698]$GPGSV,3,1,11,01,14,036,26,10,13,314,22,11,05,025,11,12,25,244,32*7E

[1499590279698]$GPGSV,3,2,11,13,30,181,21,15,45,227,41,17,54,091,31,18,09,289,19*73

[1499590279698]$GPGSV,3,3,11,19,51,135,28,24,53,289,35,28,25,065,25*44

[1499590279698]$GPGLL,5355.75738,N,02729.31515,E,055119.00,A,A*65

[1499590280697]$GPRMC,055120.00,A,5355.75735,N,02729.31518,E,0.076,,090717,,,A*7F

[1499590280697]$GPVTG,,T,,M,0.076,N,0.142,K,A*25

[1499590280697]$GPGGA,055120.00,5355.75735,N,02729.31518,E,1,10,0.92,218.3,M,25.0,M,,*5F

[1499590280697]$GPGSA,A,3,17,24,19,15,13,28,12,01,10,18,,,1.92,0.92,1.68*02

[1499590280697]$GPGSV,3,1,11,01,14,036,26,10,13,314,21,11,05,025,09,12,25,244,30*76

[1499590280697]$GPGSV,3,2,11,13,30,181,20,15,45,227,42,17,54,091,31,18,09,289,19*71

[1499590280697]$GPGSV,3,3,11,19,51,135,28,24,53,289,34,28,25,065,25*45

[1499590280697]$GPGLL,5355.75735,N,02729.31518,E,055120.00,A,A*6F

[1499590281697]$GPRMC,055121.00,A,5355.75735,N,02729.31519,E,0.114,,090717,,,A*7A

[1499590281697]$GPVTG,,T,,M,0.114,N,0.211,K,A*25

[1499590281697]$GPGGA,055121.00,5355.75735,N,02729.31519,E,1,10,0.92,218.3,M,25.0,M,,*5F

[1499590281697]$GPGSA,A,3,17,24,19,15,13,28,12,01,10,18,,,1.92,0.92,1.68*02

[1499590281697]$GPGSV,3,1,11,01,14,036,26,10,13,314,21,11,05,025,09,12,25,244,31*77

[1499590281697]$GPGSV,3,2,11,13,30,181,21,15,45,227,38,17,54,091,33,18,09,289,20*75

[1499590281697]$GPGSV,3,3,11,19,51,135,28,24,53,289,35,28,25,065,25*44

[1499590281697]$GPGLL,5355.75735,N,02729.31519,E,055121.00,A,A*6F

[1499590282702]$GPRMC,055122.00,A,5355.75734,N,02729.31522,E,0.042,,090717,,,A*72

[1499590282702]$GPVTG,,T,,M,0.042,N,0.078,K,A*2A

[1499590282702]$GPGGA,055122.00,5355.75734,N,02729.31522,E,1,10,0.92,218.7,M,25.0,M,,*51

[1499590282702]$GPGSA,A,3,17,24,19,15,13,28,12,01,10,18,,,1.92,0.92,1.68*02

[1499590282702]$GPGSV,3,1,11,01,14,036,26,10,13,314,20,11,05,025,09,12,25,244,32*75

[1499590282702]$GPGSV,3,2,11,13,30,181,21,15,45,227,39,17,54,091,32,18,09,289,21*74

[1499590282702]$GPGSV,3,3,11,19,51,135,28,24,53,289,32,28,25,065,25*43

[1499590282702]$GPGLL,5355.75734,N,02729.31522,E,055122.00,A,A*65

[1499590283698]$GPRMC,055123.00,A,5355.75733,N,02729.31523,E,0.030,,090717,,,A*70

[1499590283698]$GPVTG,,T,,M,0.030,N,0.056,K,A*23

[1499590283698]$GPGGA,055123.00,5355.75733,N,02729.31523,E,1,10,0.92,219.0,M,25.0,M,,*50

[1499590283698]$GPGSA,A,3,17,24,19,15,13,28,12,01,10,18,,,1.92,0.92,1.68*02

[1499590283698]$GPGSV,3,1,11,01,14,036,26,10,13,314,21,11,05,025,09,12,25,244,31*77

[1499590283698]$GPGSV,3,2,11,13,30,181,22,15,45,227,39,17,54,091,31,18,09,289,21*74

[1499590283698]$GPGSV,3,3,11,19,51,135,29,24,53,289,35,28,25,065,25*45

[1499590283698]$GPGLL,5355.75733,N,02729.31523,E,055123.00,A,A*62

[1499590284688]$GPRMC,055124.00,A,5355.75727,N,02729.31522,E,0.132,,090717,,,A*70

[1499590284688]$GPVTG,,T,,M,0.132,N,0.245,K,A*20

[1499590284688]$GPGGA,055124.00,5355.75727,N,02729.31522,E,1,10,0.92,219.1,M,25.0,M,,*52

[1499590284688]$GPGSA,A,3,17,24,19,15,13,28,12,01,10,18,,,1.92,0.92,1.68*02

[1499590284688]$GPGSV,3,1,11,01,14,036,26,10,13,314,20,11,05,025,09,12,25,244,26*70

[1499590284688]$GPGSV,3,2,11,13,30,181,21,15,45,227,40,17,54,091,32,18,09,289,21*7A

[1499590284688]$GPGSV,3,3,11,19,51,135,29,24,53,289,35,28,25,065,25*45

[1499590284688]$GPGLL,5355.75727,N,02729.31522,E,055124.00,A,A*61

[1499590285698]$GPRMC,055125.00,A,5355.75722,N,02729.31523,E,0.062,,090717,,,A*71

[1499590285698]$GPVTG,,T,,M,0.062,N,0.115,K,A*22

[1499590285698]$GPGGA,055125.00,5355.75722,N,02729.31523,E,1,10,0.92,219.3,M,25.0,M,,*55

[1499590285698]$GPGSA,A,3,17,24,19,15,13,28,12,01,10,18,,,1.91,0.92,1.68*01

[1499590285698]$GPGSV,3,1,11,01,14,036,26,10,13,314,19,11,05,025,09,12,25,244,27*7B

[1499590285698]$GPGSV,3,2,11,13,30,181,21,15,45,227,41,17,54,091,33,18,09,289,22*79

[1499590285698]$GPGSV,3,3,11,19,51,135,28,24,53,289,36,28,25,065,26*44

[1499590285698]$GPGLL,5355.75722,N,02729.31523,E,055125.00,A,A*64

[1499590286697]$GPRMC,055126.00,A,5355.75715,N,02729.31526,E,0.087,,090717,,,A*78

[1499590286697]$GPVTG,,T,,M,0.087,N,0.160,K,A*2B

[1499590286697]$GPGGA,055126.00,5355.75715,N,02729.31526,E,1,10,0.92,219.3,M,25.0,M,,*57

[1499590286697]$GPGSA,A,3,17,24,19,15,13,28,12,01,10,18,,,1.91,0.92,1.68*01

[1499590286697]$GPGSV,3,1,11,01,14,036,26,10,13,314,18,11,05,025,09,12,26,244,28*76

[1499590286697]$GPGSV,3,2,11,13,30,181,21,15,45,227,39,17,54,091,33,18,09,289,22*76

[1499590286697]$GPGSV,3,3,11,19,51,135,27,24,53,289,36,28,25,065,25*48

[1499590286697]$GPGLL,5355.75715,N,02729.31526,E,055126.00,A,A*66

[1499590287708]$GPRMC,055127.00,A,5355.75705,N,02729.31524,E,0.163,,090717,,,A*71

[1499590287708]$GPVTG,,T,,M,0.163,N,0.302,K,A*26

[1499590287708]$GPGGA,055127.00,5355.75705,N,02729.31524,E,1,10,0.92,219.3,M,25.0,M,,*55

[1499590287708]$GPGSA,A,3,17,24,19,15,13,28,12,01,10,18,,,1.91,0.92,1.68*01

[1499590287708]$GPGSV,3,1,11,01,14,036,26,10,13,314,20,11,05,025,09,12,26,244,28*7D

[1499590287708]$GPGSV,3,2,11,13,30,181,21,15,45,227,41,17,54,091,34,18,09,289,22*7E

[1499590287708]$GPGSV,3,3,11,19,51,135,30,24,53,289,35,28,25,065,25*4D

[1499590287708]$GPGLL,5355.75705,N,02729.31524,E,055127.00,A,A*64

[1499590288688]$GPRMC,055128.00,A,5355.75700,N,02729.31520,E,0.087,,090717,,,A*74

[1499590288688]$GPVTG,,T,,M,0.087,N,0.161,K,A*2A

[1499590288688]$GPGGA,055128.00,5355.75700,N,02729.31520,E,1,10,0.92,219.5,M,25.0,M,,*5D

[1499590288688]$GPGSA,A,3,17,24,19,15,13,28,12,01,10,18,,,1.91,0.92,1.68*01

[1499590288688]$GPGSV,3,1,11,01,14,036,26,10,13,314,22,11,05,025,09,12,26,244,32*74

[1499590288688]$GPGSV,3,2,11,13,30,181,21,15,45,227,40,17,54,091,33,18,09,289,22*78

[1499590288688]$GPGSV,3,3,11,19,51,135,30,24,53,289,34,28,25,065,26*4F

[1499590288688]$GPGLL,5355.75700,N,02729.31520,E,055128.00,A,A*6A

[1499590289698]$GPRMC,055129.00,A,5355.75695,N,02729.31519,E,0.109,,090717,,,A*75

[1499590289698]$GPVTG,,T,,M,0.109,N,0.202,K,A*2B

[1499590289698]$GPGGA,055129.00,5355.75695,N,02729.31519,E,1,10,0.92,219.9,M,25.0,M,,*57

[1499590289698]$GPGSA,A,3,17,24,19,15,13,28,12,01,10,18,,,1.91,0.92,1.68*01

[1499590289698]$GPGSV,3,1,11,01,14,036,27,10,13,314,23,11,05,025,09,12,26,244,28*7F

[1499590289698]$GPGSV,3,2,11,13,30,181,22,15,45,226,41,17,54,091,33,18,09,289,22*7B

[1499590289698]$GPGSV,3,3,11,19,51,135,30,24,53,289,33,28,25,065,25*4B

[1499590289698]$GPGLL,5355.75695,N,02729.31519,E,055129.00,A,A*6C

[1499590290687]$GPRMC,055130.00,A,5355.75696,N,02729.31514,E,0.104,,090717,,,A*7E

[1499590290687]$GPVTG,,T,,M,0.104,N,0.193,K,A*2D

[1499590290687]$GPGGA,055130.00,5355.75696,N,02729.31514,E,1,10,0.92,220.1,M,25.0,M,,*53

[1499590290687]$GPGSA,A,3,17,24,19,15,13,28,12,01,10,18,,,1.91,0.92,1.68*01

[1499590290687]$GPGSV,3,1,11,01,14,036,26,10,13,314,23,11,05,025,09,12,26,244,29*7F

[1499590290687]$GPGSV,3,2,11,13,30,181,25,15,45,226,41,17,54,091,33,18,09,289,22*7C

[1499590290687]$GPGSV,3,3,11,19,51,135,29,24,53,289,32,28,25,065,25*42

[1499590290687]$GPGLL,5355.75696,N,02729.31514,E,055130.00,A,A*6A

[1499590291699]$GPRMC,055131.00,A,5355.75697,N,02729.31507,E,0.017,,090717,,,A*7F

[1499590291699]$GPVTG,,T,,M,0.017,N,0.031,K,A*27

[1499590291699]$GPGGA,055131.00,5355.75697,N,02729.31507,E,1,10,0.92,220.4,M,25.0,M,,*54

[1499590291699]$GPGSA,A,3,17,24,19,15,13,28,12,01,10,18,,,1.91,0.92,1.68*01

[1499590291699]$GPGSV,3,1,11,01,14,036,26,10,13,314,23,11,05,025,09,12,26,244,29*7F

[1499590291699]$GPGSV,3,2,11,13,30,181,25,15,45,226,41,17,54,091,33,18,09,289,22*7C

[1499590291699]$GPGSV,3,3,11,19,51,135,29,24,53,289,34,28,25,065,25*44

[1499590291699]$GPGLL,5355.75697,N,02729.31507,E,055131.00,A,A*68

[1499590292698]$GPRMC,055132.00,A,5355.75698,N,02729.31502,E,0.043,,090717,,,A*77

[1499590292698]$GPVTG,,T,,M,0.043,N,0.079,K,A*2A

[1499590292698]$GPGGA,055132.00,5355.75698,N,02729.31502,E,1,10,0.92,220.8,M,25.0,M,,*51

[1499590292698]$GPGSA,A,3,17,24,19,15,13,28,12,01,10,18,,,1.91,0.92,1.68*01

[1499590292698]$GPGSV,3,1,11,01,14,036,26,10,13,314,23,11,05,025,13,12,26,244,33*7F

[1499590292698]$GPGSV,3,2,11,13,30,181,24,15,45,226,42,17,54,091,32,18,09,288,22*7E

[1499590292698]$GPGSV,3,3,11,19,51,135,29,24,53,289,33,28,25,065,25*43

[1499590292698]$GPGLL,5355.75698,N,02729.31502,E,055132.00,A,A*61

[1499590293699]$GPRMC,055133.00,A,5355.75697,N,02729.31501,E,0.108,,090717,,,A*74

[1499590293699]$GPVTG,,T,,M,0.108,N,0.200,K,A*28

[1499590293699]$GPGGA,055133.00,5355.75697,N,02729.31501,E,1,10,0.92,221.3,M,25.0,M,,*56

[1499590293699]$GPGSA,A,3,17,24,19,15,13,28,12,01,10,18,,,1.91,0.92,1.67*0E

[1499590293699]$GPGSV,3,1,11,01,14,036,26,10,13,314,23,11,05,025,12,12,26,244,33*7E

[1499590293699]$GPGSV,3,2,11,13,30,181,25,15,45,226,41,17,54,091,33,18,09,288,22*7D

[1499590293699]$GPGSV,3,3,11,19,51,134,29,24,53,289,34,28,25,065,25*45

[1499590293699]$GPGLL,5355.75697,N,02729.31501,E,055133.00,A,A*6C

[1499590294698]$GPRMC,055134.00,A,5355.75696,N,02729.31497,E,0.063,,090717,,,A*70

[1499590294698]$GPVTG,,T,,M,0.063,N,0.117,K,A*21

[1499590294698]$GPGGA,055134.00,5355.75696,N,02729.31497,E,1,10,0.92,221.8,M,25.0,M,,*55

[1499590294698]$GPGSA,A,3,17,24,19,15,13,28,12,01,10,18,,,1.91,0.92,1.67*0E

[1499590294698]$GPGSV,3,1,11,01,14,036,26,10,13,314,23,11,05,025,12,12,26,244,33*7E

[1499590294698]$GPGSV,3,2,11,13,30,181,25,15,45,226,41,17,54,091,33,18,09,288,22*7D

[1499590294698]$GPGSV,3,3,11,19,51,134,29,24,53,289,34,28,25,065,25*45

[1499590294698]$GPGLL,5355.75696,N,02729.31497,E,055134.00,A,A*64

[1499590295701]$GPRMC,055135.00,A,5355.75696,N,02729.31494,E,0.038,,090717,,,A*7C

[1499590295701]$GPVTG,,T,,M,0.038,N,0.071,K,A*2E

[1499590295701]$GPGGA,055135.00,5355.75696,N,02729.31494,E,1,10,0.92,222.3,M,25.0,M,,*5F

[1499590295701]$GPGSA,A,3,17,24,19,15,13,28,12,01,10,18,,,1.91,0.92,1.67*0E

[1499590295701]$GPGSV,3,1,11,01,14,036,25,10,13,314,24,11,05,025,12,12,26,244,33*7A

[1499590295701]$GPGSV,3,2,11,13,30,181,24,15,45,226,41,17,54,091,32,18,09,288,22*7D

[1499590295701]$GPGSV,3,3,11,19,51,134,29,24,53,289,33,28,25,065,25*42

[1499590295701]$GPGLL,5355.75696,N,02729.31494,E,055135.00,A,A*66

[1499590296698]$GPRMC,055136.00,A,5355.75693,N,02729.31491,E,0.082,,090717,,,A*7E

[1499590296698]$GPVTG,,T,,M,0.082,N,0.151,K,A*2C

[1499590296698]$GPGGA,055136.00,5355.75693,N,02729.31491,E,1,10,0.92,222.6,M,25.0,M,,*59

[1499590296698]$GPGSA,A,3,17,24,19,15,13,28,12,01,10,18,,,1.91,0.92,1.67*0E

[1499590296698]$GPGSV,3,1,11,01,14,036,25,10,13,314,24,11,05,025,12,12,26,244,33*7A

[1499590296698]$GPGSV,3,2,11,13,30,181,24,15,45,226,41,17,54,091,32,18,09,288,22*7D

[1499590296698]$GPGSV,3,3,11,19,51,134,29,24,53,289,33,28,25,065,25*42

[1499590296698]$GPGLL,5355.75693,N,02729.31491,E,055136.00,A,A*65

[1499590297699]$GPRMC,055137.00,A,5355.75692,N,02729.31486,E,0.078,,090717,,,A*7D

[1499590297699]$GPVTG,,T,,M,0.078,N,0.145,K,A*2C

[1499590297699]$GPGGA,055137.00,5355.75692,N,02729.31486,E,1,10,0.92,223.0,M,25.0,M,,*58

[1499590297699]$GPGSA,A,3,17,24,19,15,13,28,12,01,10,18,,,1.91,0.92,1.67*0E

[1499590297699]$GPGSV,3,1,11,01,14,036,25,10,13,314,24,11,05,025,12,12,26,244,33*7A

[1499590297699]$GPGSV,3,2,11,13,30,181,24,15,45,226,41,17,54,091,32,18,09,288,23*7C

[1499590297699]$GPGSV,3,3,11,19,51,134,29,24,53,289,33,28,25,065,25*42

[1499590297699]$GPGLL,5355.75692,N,02729.31486,E,055137.00,A,A*63

[1499590298697]$GPRMC,055138.00,A,5355.75690,N,02729.31481,E,0.063,,090717,,,A*7D

[1499590298697]$GPVTG,,T,,M,0.063,N,0.117,K,A*21

[1499590298697]$GPGGA,055138.00,5355.75690,N,02729.31481,E,1,10,0.92,223.7,M,25.0,M,,*55

[1499590298697]$GPGSA,A,3,17,24,19,15,13,28,12,01,10,18,,,1.91,0.92,1.67*0E

[1499590298697]$GPGSV,3,1,11,01,14,036,24,10,13,314,24,11,05,025,14,12,26,244,34*7A

[1499590298697]$GPGSV,3,2,11,13,30,181,24,15,45,226,41,17,54,091,32,18,09,288,23*7C

[1499590298697]$GPGSV,3,3,11,19,51,134,29,24,54,289,33,28,25,065,25*45

[1499590298697]$GPGLL,5355.75690,N,02729.31481,E,055138.00,A,A*69

[1499590299693]$GPRMC,055139.00,A,5355.75687,N,02729.31481,E,0.022,,090717,,,A*7F

[1499590299693]$GPVTG,,T,,M,0.022,N,0.042,K,A*25

[1499590299693]$GPGGA,055139.00,5355.75687,N,02729.31481,E,1,10,0.92,224.3,M,25.0,M,,*51

[1499590299693]$GPGSA,A,3,17,24,19,15,13,28,12,01,10,18,,,1.91,0.92,1.67*0E

[1499590299693]$GPGSV,3,1,11,01,14,036,24,10,13,314,25,11,05,025,14,12,26,244,34*7B

[1499590299693]$GPGSV,3,2,11,13,30,181,23,15,45,226,41,17,54,091,32,18,09,288,23*7B

[1499590299693]$GPGSV,3,3,11,19,51,134,29,24,54,289,34,28,25,065,25*42

[1499590299693]$GPGLL,5355.75687,N,02729.31481,E,055139.00,A,A*6E

[1499590300698]$GPRMC,055140.00,A,5355.75683,N,02729.31482,E,0.077,,090717,,,A*76

[1499590300698]$GPVTG,,T,,M,0.077,N,0.142,K,A*24

[1499590300698]$GPGGA,055140.00,5355.75683,N,02729.31482,E,1,10,0.92,224.8,M,25.0,M,,*53

[1499590300698]$GPGSA,A,3,17,24,19,15,13,28,12,01,10,18,,,1.91,0.92,1.67*0E

[1499590300698]$GPGSV,3,1,11,01,14,036,24,10,13,314,24,11,05,025,14,12,26,244,34*7A

[1499590300698]$GPGSV,3,2,11,13,30,181,23,15,45,226,41,17,54,091,32,18,09,288,23*7B

[1499590300698]$GPGSV,3,3,11,19,51,134,29,24,54,289,33,28,25,065,25*45

[1499590300698]$GPGLL,5355.75683,N,02729.31482,E,055140.00,A,A*67

[1499590301697]$GPRMC,055141.00,A,5355.75685,N,02729.31483,E,0.068,,090717,,,A*7E

[1499590301697]$GPVTG,,T,,M,0.068,N,0.127,K,A*29

[1499590301697]$GPGGA,055141.00,5355.75685,N,02729.31483,E,1,10,0.92,225.2,M,25.0,M,,*5E

[1499590301697]$GPGSA,A,3,17,24,19,15,13,28,12,01,10,18,,,1.91,0.92,1.67*0E

[1499590301697]$GPGSV,3,1,11,01,14,036,24,10,13,314,24,11,05,025,14,12,26,244,34*7A

[1499590301697]$GPGSV,3,2,11,13,30,181,23,15,45,226,41,17,54,091,32,18,09,288,23*7B

[1499590301697]$GPGSV,3,3,11,19,51,134,29,24,54,289,33,28,25,065,25*45

[1499590301697]$GPGLL,5355.75685,N,02729.31483,E,055141.00,A,A*61

[1499590302687]$GPRMC,055142.00,A,5355.75687,N,02729.31482,E,0.077,,090717,,,A*70

[1499590302687]$GPVTG,,T,,M,0.077,N,0.142,K,A*24

[1499590302687]$GPGGA,055142.00,5355.75687,N,02729.31482,E,1,10,0.92,225.6,M,25.0,M,,*5A

[1499590302687]$GPGSA,A,3,17,24,19,15,13,28,12,01,10,18,,,1.91,0.92,1.67*0E

[1499590302687]$GPGSV,3,1,11,01,14,036,24,10,13,314,23,11,05,025,14,12,26,244,34*7D

[1499590302687]$GPGSV,3,2,11,13,30,181,23,15,45,226,40,17,54,091,32,18,09,288,23*7A

[1499590302687]$GPGSV,3,3,11,19,51,134,28,24,54,289,33,28,25,065,24*45

[1499590302687]$GPGLL,5355.75687,N,02729.31482,E,055142.00,A,A*61

[1499590303699]$GPRMC,055143.00,A,5355.75690,N,02729.31480,E,0.043,,090717,,,A*72

[1499590303699]$GPVTG,,T,,M,0.043,N,0.080,K,A*2C

[1499590303699]$GPGGA,055143.00,5355.75690,N,02729.31480,E,1,10,0.92,226.0,M,25.0,M,,*5A

[1499590303699]$GPGSA,A,3,17,24,19,15,13,28,12,01,10,18,,,1.91,0.92,1.67*0E

[1499590303699]$GPGSV,3,1,11,01,14,036,23,10,13,314,23,11,05,025,14,12,26,244,34*7A

[1499590303699]$GPGSV,3,2,11,13,30,181,23,15,45,226,41,17,54,091,33,18,09,288,23*7A

[1499590303699]$GPGSV,3,3,11,19,51,134,29,24,54,289,33,28,25,065,25*45

[1499590303699]$GPGLL,5355.75690,N,02729.31480,E,055143.00,A,A*64

[1499590304697]$GPRMC,055144.00,A,5355.75691,N,02729.31478,E,0.024,,090717,,,A*72

[1499590304697]$GPVTG,,T,,M,0.024,N,0.044,K,A*25

[1499590304697]$GPGGA,055144.00,5355.75691,N,02729.31478,E,1,10,0.92,226.5,M,25.0,M,,*5E

[1499590304697]$GPGSA,A,3,17,24,19,15,13,28,12,01,10,18,,,1.91,0.92,1.67*0E

[1499590304697]$GPGSV,3,1,11,01,14,036,23,10,13,314,23,11,05,025,11,12,26,244,34*7F

[1499590304697]$GPGSV,3,2,11,13,30,181,23,15,45,226,41,17,54,091,33,18,09,288,24*7D

[1499590304697]$GPGSV,3,3,11,19,51,134,28,24,54,289,33,28,25,065,25*44

[1499590304697]$GPGLL,5355.75691,N,02729.31478,E,055144.00,A,A*65

[1499590305698]$GPRMC,055145.00,A,5355.75687,N,02729.31476,E,0.136,,090717,,,A*78

[1499590305698]$GPVTG,,T,,M,0.136,N,0.252,K,A*22

[1499590305698]$GPGGA,055145.00,5355.75687,N,02729.31476,E,1,10,0.92,227.1,M,25.0,M,,*53

[1499590305698]$GPGSA,A,3,17,24,19,15,13,28,12,01,10,18,,,1.91,0.92,1.67*0E

[1499590305698]$GPGSV,3,1,11,01,14,036,23,10,13,314,24,11,05,025,11,12,26,244,34*78

[1499590305698]$GPGSV,3,2,11,13,30,181,23,15,45,226,41,17,54,091,33,18,09,288,24*7D

[1499590305698]$GPGSV,3,3,11,19,51,134,29,24,54,289,33,28,25,065,24*44

[1499590305698]$GPGLL,5355.75687,N,02729.31476,E,055145.00,A,A*6D

[1499590306688]$GPRMC,055146.00,A,5355.75684,N,02729.31477,E,0.040,,090717,,,A*79

[1499590306688]$GPVTG,,T,,M,0.040,N,0.074,K,A*24

[1499590306688]$GPGGA,055146.00,5355.75684,N,02729.31477,E,1,10,0.92,227.5,M,25.0,M,,*56

[1499590306688]$GPGSA,A,3,17,24,19,15,13,28,12,01,10,18,,,1.91,0.92,1.67*0E

[1499590306688]$GPGSV,3,1,11,01,14,036,22,10,13,314,25,11,05,025,11,12,26,244,34*78

[1499590306688]$GPGSV,3,2,11,13,30,181,23,15,45,226,40,17,54,091,33,18,09,288,24*7C

[1499590306688]$GPGSV,3,3,11,19,51,134,28,24,54,289,33,28,25,065,24*45

[1499590306688]$GPGLL,5355.75684,N,02729.31477,E,055146.00,A,A*6C

[1499590307699]$GPRMC,055147.00,A,5355.75683,N,02729.31473,E,0.174,,090717,,,A*7D

[1499590307699]$GPVTG,,T,,M,0.174,N,0.323,K,A*23

[1499590307699]$GPGGA,055147.00,5355.75683,N,02729.31473,E,1,10,0.92,227.9,M,25.0,M,,*58

[1499590307699]$GPGSA,A,3,17,24,19,15,13,28,12,01,10,18,,,1.91,0.92,1.67*0E

[1499590307699]$GPGSV,3,1,11,01,14,036,22,10,13,314,24,11,05,025,11,12,26,244,34*79

[1499590307699]$GPGSV,3,2,11,13,30,181,23,15,45,226,40,17,54,091,33,18,09,288,23*7B

[1499590307699]$GPGSV,3,3,11,19,51,134,28,24,54,289,33,28,25,065,24*45

[1499590307699]$GPGLL,5355.75683,N,02729.31473,E,055147.00,A,A*6E

[1499590308698]$GPRMC,055148.00,A,5355.75677,N,02729.31467,E,0.044,,090717,,,A*7E

[1499590308698]$GPVTG,,T,,M,0.044,N,0.081,K,A*2A

[1499590308698]$GPGGA,055148.00,5355.75677,N,02729.31467,E,1,10,0.92,228.5,M,25.0,M,,*5A

[1499590308698]$GPGSA,A,3,17,24,19,15,13,28,12,01,10,18,,,1.91,0.92,1.67*0E

[1499590308698]$GPGSV,3,1,11,01,14,036,22,10,13,314,23,11,05,025,11,12,26,244,34*7E

[1499590308698]$GPGSV,3,2,11,13,30,181,22,15,45,226,40,17,54,091,33,18,09,288,23*7A

[1499590308698]$GPGSV,3,3,11,19,51,134,28,24,54,289,33,28,25,065,24*45

[1499590308698]$GPGLL,5355.75677,N,02729.31467,E,055148.00,A,A*6F

[1499590309705]$GPRMC,055149.00,A,5355.75670,N,02729.31462,E,0.020,,090717,,,A*7F

[1499590309705]$GPVTG,,T,,M,0.020,N,0.037,K,A*25

[1499590309705]$GPGGA,055149.00,5355.75670,N,02729.31462,E,1,10,0.92,229.0,M,25.0,M,,*5D

[1499590309705]$GPGSA,A,3,17,24,19,15,13,28,12,01,10,18,,,1.91,0.92,1.67*0E

[1499590309705]$GPGSV,3,1,11,01,14,036,22,10,13,314,22,11,05,025,11,12,26,244,34*7F

[1499590309705]$GPGSV,3,2,11,13,30,181,23,15,45,226,40,17,54,091,33,18,09,288,23*7B

[1499590309705]$GPGSV,3,3,11,19,51,134,28,24,54,289,33,28,25,065,24*45

[1499590309705]$GPGLL,5355.75670,N,02729.31462,E,055149.00,A,A*6C

[1499590310688]$GPRMC,055150.00,A,5355.75663,N,02729.31459,E,0.074,,090717,,,A*7C

[1499590310688]$GPVTG,,T,,M,0.074,N,0.137,K,A*25

[1499590310688]$GPGGA,055150.00,5355.75663,N,02729.31459,E,1,10,0.92,229.3,M,25.0,M,,*5C

[1499590310688]$GPGSA,A,3,17,24,19,15,13,28,12,01,10,18,,,1.91,0.92,1.67*0E

[1499590310688]$GPGSV,3,1,11,01,14,036,22,10,13,314,21,11,05,025,17,12,26,244,34*7A

[1499590310688]$GPGSV,3,2,11,13,30,181,22,15,45,226,40,17,54,091,33,18,09,288,23*7A

[1499590310688]$GPGSV,3,3,11,19,51,134,28,24,54,289,33,28,25,065,25*44

[1499590310688]$GPGLL,5355.75663,N,02729.31459,E,055150.00,A,A*6E

[1499590311699]$GPRMC,055151.00,A,5355.75655,N,02729.31454,E,0.111,,090717,,,A*77

[1499590311699]$GPVTG,,T,,M,0.111,N,0.206,K,A*26

[1499590311699]$GPGGA,055151.00,5355.75655,N,02729.31454,E,1,10,0.92,230.0,M,25.0,M,,*5E

[1499590311699]$GPGSA,A,3,17,24,19,15,13,28,12,01,10,18,,,1.91,0.92,1.67*0E

[1499590311699]$GPGSV,3,1,11,01,14,036,22,10,13,314,20,11,05,025,10,12,26,244,35*7D

[1499590311699]$GPGSV,3,2,11,13,30,181,23,15,45,226,40,17,54,091,33,18,09,288,23*7B

[1499590311699]$GPGSV,3,3,11,19,51,134,28,24,54,289,33,28,25,065,25*44

[1499590311699]$GPGLL,5355.75655,N,02729.31454,E,055151.00,A,A*67

[1499590312698]$GPRMC,055152.00,A,5355.75651,N,02729.31446,E,0.119,,090717,,,A*7B

[1499590312698]$GPVTG,,T,,M,0.119,N,0.220,K,A*2A

[1499590312698]$GPGGA,055152.00,5355.75651,N,02729.31446,E,1,10,0.92,230.4,M,25.0,M,,*5E

[1499590312698]$GPGSA,A,3,17,24,19,15,13,28,12,01,10,18,,,1.91,0.92,1.67*0E

[1499590312698]$GPGSV,3,1,11,01,14,036,22,10,13,314,20,11,05,025,14,12,26,244,34*78

[1499590312698]$GPGSV,3,2,11,13,30,181,22,15,45,226,40,17,54,091,33,18,09,288,23*7A

[1499590312698]$GPGSV,3,3,11,19,51,134,28,24,54,289,33,28,25,065,25*44

[1499590312698]$GPGLL,5355.75651,N,02729.31446,E,055152.00,A,A*63

[1499590313698]$GPRMC,055153.00,A,5355.75648,N,02729.31439,E,0.066,,090717,,,A*73

[1499590313698]$GPVTG,,T,,M,0.066,N,0.121,K,A*21

[1499590313698]$GPGGA,055153.00,5355.75648,N,02729.31439,E,1,10,0.92,230.8,M,25.0,M,,*53

[1499590313698]$GPGSA,A,3,17,24,19,15,13,28,12,01,10,18,,,1.91,0.92,1.67*0E

[1499590313698]$GPGSV,3,1,11,01,14,036,22,10,13,314,21,11,05,025,17,12,26,244,34*7A

[1499590313698]$GPGSV,3,2,11,13,30,181,22,15,45,226,40,17,54,091,32,18,09,288,23*7B

[1499590313698]$GPGSV,3,3,11,19,51,134,28,24,54,289,34,28,25,065,24*42

[1499590313698]$GPGLL,5355.75648,N,02729.31439,E,055153.00,A,A*62

[1499590314697]$GPRMC,055154.00,A,5355.75641,N,02729.31435,E,0.112,,090717,,,A*73

[1499590314697]$GPVTG,,T,,M,0.112,N,0.207,K,A*24

[1499590314697]$GPGGA,055154.00,5355.75641,N,02729.31435,E,1,10,0.92,231.2,M,25.0,M,,*5A

[1499590314697]$GPGSA,A,3,17,24,19,15,13,28,12,01,10,18,,,1.91,0.92,1.67*0E

[1499590314697]$GPGSV,3,1,11,01,14,036,22,10,13,314,21,11,05,025,18,12,26,244,34*75

[1499590314697]$GPGSV,3,2,11,13,30,181,21,15,45,226,40,17,54,091,32,18,09,288,23*78

[1499590314697]$GPGSV,3,3,11,19,51,134,28,24,54,289,34,28,25,065,24*42

[1499590314697]$GPGLL,5355.75641,N,02729.31435,E,055154.00,A,A*60

[1499590315697]$GPRMC,055155.00,A,5355.75639,N,02729.31435,E,0.117,,090717,,,A*78

[1499590315697]$GPVTG,,T,,M,0.117,N,0.218,K,A*2F

[1499590315697]$GPGGA,055155.00,5355.75639,N,02729.31435,E,1,10,0.92,231.5,M,25.0,M,,*53

[1499590315697]$GPGSA,A,3,17,24,19,15,13,28,12,01,10,18,,,1.91,0.92,1.67*0E

[1499590315697]$GPGSV,3,1,11,01,14,036,22,10,13,314,21,11,05,025,18,12,26,244,35*74

[1499590315697]$GPGSV,3,2,11,13,30,181,21,15,45,226,40,17,54,091,33,18,09,288,23*79

[1499590315697]$GPGSV,3,3,11,19,51,134,28,24,54,289,34,28,25,065,24*42

[1499590315697]$GPGLL,5355.75639,N,02729.31435,E,055155.00,A,A*6E

[1499590316697]$GPRMC,055156.00,A,5355.75635,N,02729.31429,E,0.095,,090717,,,A*71

[1499590316697]$GPVTG,,T,,M,0.095,N,0.176,K,A*2F

[1499590316697]$GPGGA,055156.00,5355.75635,N,02729.31429,E,1,10,0.92,232.1,M,25.0,M,,*56

[1499590316697]$GPGSA,A,3,17,24,19,15,13,28,12,01,10,18,,,1.90,0.92,1.67*0F

[1499590316697]$GPGSV,3,1,11,01,14,036,21,10,13,314,21,11,05,025,18,12,26,244,35*77

[1499590316697]$GPGSV,3,2,11,13,30,181,21,15,45,226,40,17,54,091,32,18,09,288,23*78

[1499590316697]$GPGSV,3,3,11,19,51,134,28,24,54,289,34,28,25,065,24*42

[1499590316697]$GPGLL,5355.75635,N,02729.31429,E,055156.00,A,A*6C

[1499590317688]$GPRMC,055157.00,A,5355.75629,N,02729.31427,E,0.036,,090717,,,A*7A

[1499590317688]$GPVTG,,T,,M,0.036,N,0.067,K,A*27

[1499590317688]$GPGGA,055157.00,5355.75629,N,02729.31427,E,1,10,0.92,232.5,M,25.0,M,,*50

[1499590317688]$GPGSA,A,3,17,24,19,15,13,28,12,01,10,18,,,1.90,0.92,1.67*0F

[1499590317688]$GPGSV,3,1,11,01,14,036,21,10,13,314,20,11,05,025,18,12,26,244,35*76

[1499590317688]$GPGSV,3,2,11,13,30,181,20,15,45,226,40,17,54,091,32,18,09,288,24*7E

[1499590317688]$GPGSV,3,3,11,19,51,134,28,24,54,289,34,28,25,065,24*42

[1499590317688]$GPGLL,5355.75629,N,02729.31427,E,055157.00,A,A*6E

[1499590318688]$GPRMC,055158.00,A,5355.75622,N,02729.31418,E,0.165,,090717,,,A*75

[1499590318688]$GPVTG,,T,,M,0.165,N,0.305,K,A*27

[1499590318688]$GPGGA,055158.00,5355.75622,N,02729.31418,E,1,10,0.92,233.1,M,25.0,M,,*5D

[1499590318688]$GPGSA,A,3,17,24,19,15,13,28,12,01,10,18,,,1.90,0.92,1.67*0F

[1499590318688]$GPGSV,3,1,11,01,14,036,21,10,13,314,18,11,05,025,18,12,26,244,35*7D

[1499590318688]$GPGSV,3,2,11,13,30,181,20,15,45,226,40,17,54,091,32,18,09,288,24*7E

[1499590318688]$GPGSV,3,3,11,19,51,134,28,24,54,289,33,28,25,065,23*42

[1499590318688]$GPGLL,5355.75622,N,02729.31418,E,055158.00,A,A*66

[1499590319698]$GPRMC,055159.00,A,5355.75623,N,02729.31417,E,0.054,,090717,,,A*79

[1499590319698]$GPVTG,,T,,M,0.054,N,0.101,K,A*22

[1499590319698]$GPGGA,055159.00,5355.75623,N,02729.31417,E,1,10,0.92,233.2,M,25.0,M,,*51

[1499590319698]$GPGSA,A,3,17,24,19,15,13,28,12,01,10,18,,,1.90,0.92,1.67*0F

[1499590319698]$GPGSV,3,1,11,01,14,036,20,10,13,314,17,11,05,025,17,12,26,244,35*7C

[1499590319698]$GPGSV,3,2,11,13,30,181,20,15,45,226,40,17,54,091,32,18,09,288,23*79

[1499590319698]$GPGSV,3,3,11,19,51,134,28,24,54,289,33,28,25,065,24*45

[1499590319698]$GPGLL,5355.75623,N,02729.31417,E,055159.00,A,A*69

[1499590320699]$GPRMC,055200.00,A,5355.75625,N,02729.31417,E,0.026,,090717,,,A*75

[1499590320699]$GPVTG,,T,,M,0.026,N,0.048,K,A*2B

[1499590320699]$GPGGA,055200.00,5355.75625,N,02729.31417,E,1,10,0.92,233.5,M,25.0,M,,*5F

[1499590320699]$GPGSA,A,3,17,24,19,15,13,28,12,01,10,18,,,1.90,0.92,1.67*0F

[1499590320699]$GPGSV,3,1,11,01,14,036,20,10,13,314,16,11,05,025,17,12,26,244,35*7D

[1499590320699]$GPGSV,3,2,11,13,30,181,20,15,45,226,40,17,54,091,32,18,09,288,23*79

[1499590320699]$GPGSV,3,3,11,19,51,134,28,24,54,289,33,28,25,065,24*45

[1499590320699]$GPGLL,5355.75625,N,02729.31417,E,055200.00,A,A*60

[1499590321697]$GPRMC,055201.00,A,5355.75615,N,02729.31405,E,0.263,,090717,,,A*77

[1499590321697]$GPVTG,,T,,M,0.263,N,0.487,K,A*2F

[1499590321697]$GPGGA,055201.00,5355.75615,N,02729.31405,E,1,10,0.92,234.2,M,25.0,M,,*5E

[1499590321697]$GPGSA,A,3,17,24,19,15,13,28,12,01,10,18,,,1.90,0.92,1.67*0F

[1499590321697]$GPGSV,3,1,11,01,14,036,20,10,13,314,17,11,05,025,18,12,26,244,35*73

[1499590321697]$GPGSV,3,2,11,13,30,181,19,15,45,226,40,17,54,091,32,18,09,288,23*73

[1499590321697]$GPGSV,3,3,11,19,51,134,28,24,54,289,33,28,25,065,24*45

[1499590321697]$GPGLL,5355.75615,N,02729.31405,E,055201.00,A,A*61

[1499590322701]$GPRMC,055202.00,A,5355.75605,N,02729.31401,E,0.197,,090717,,,A*79

[1499590322701]$GPVTG,,T,,M,0.197,N,0.366,K,A*2F

[1499590322701]$GPGGA,055202.00,5355.75605,N,02729.31401,E,1,10,0.92,234.7,M,25.0,M,,*5D

[1499590322701]$GPGSA,A,3,17,24,19,15,13,28,12,01,10,18,,,1.90,0.92,1.67*0F

[1499590322701]$GPGSV,3,1,11,01,14,036,20,10,13,314,18,11,05,025,18,12,26,244,35*7C

[1499590322701]$GPGSV,3,2,11,13,30,181,19,15,45,226,40,17,54,091,32,18,09,288,23*73

[1499590322701]$GPGSV,3,3,11,19,51,134,28,24,54,289,33,28,25,065,23*42

[1499590322701]$GPGLL,5355.75605,N,02729.31401,E,055202.00,A,A*67

[1499590323698]$GPRMC,055203.00,A,5355.75600,N,02729.31392,E,0.118,,090717,,,A*77

[1499590323698]$GPVTG,,T,,M,0.118,N,0.218,K,A*20

[1499590323698]$GPGGA,055203.00,5355.75600,N,02729.31392,E,1,10,0.92,235.1,M,25.0,M,,*53

[1499590323698]$GPGSA,A,3,17,24,19,15,13,28,12,01,10,18,,,1.90,0.92,1.66*0E

[1499590323698]$GPGSV,3,1,11,01,14,036,20,10,13,314,19,11,05,025,18,12,26,244,35*7D

[1499590323698]$GPGSV,3,2,11,13,30,181,19,15,45,226,41,17,54,091,33,18,09,288,24*74

[1499590323698]$GPGSV,3,3,11,19,51,134,29,24,54,289,34,28,25,065,23*44

[1499590323698]$GPGLL,5355.75600,N,02729.31392,E,055203.00,A,A*6E

[1499590324691]$GPRMC,055204.00,A,5355.75597,N,02729.31386,E,0.148,,090717,,,A*7D

[1499590324691]$GPVTG,,T,,M,0.148,N,0.273,K,A*28

[1499590324691]$GPGGA,055204.00,5355.75597,N,02729.31386,E,1,10,0.92,235.6,M,25.0,M,,*5B

[1499590324691]$GPGSA,A,3,17,24,19,15,13,28,12,01,10,18,,,1.90,0.92,1.66*0E

[1499590324691]$GPGSV,3,1,11,01,14,036,19,10,13,314,19,11,05,025,19,12,26,244,35*76

[1499590324691]$GPGSV,3,2,11,13,30,181,18,15,45,226,40,17,54,091,32,18,09,288,23*72

[1499590324691]$GPGSV,3,3,11,19,51,134,29,24,54,289,33,28,25,065,23*43

[1499590324691]$GPGLL,5355.75597,N,02729.31386,E,055204.00,A,A*61

[1499590325698]$GPRMC,055205.00,A,5355.75593,N,02729.31383,E,0.106,,090717,,,A*77

[1499590325698]$GPVTG,,T,,M,0.106,N,0.196,K,A*2A

[1499590325698]$GPGGA,055205.00,5355.75593,N,02729.31383,E,1,10,0.92,235.9,M,25.0,M,,*54

[1499590325698]$GPGSA,A,3,17,24,19,15,13,28,12,01,10,18,,,1.90,0.92,1.66*0E

[1499590325698]$GPGSV,3,1,11,01,14,036,18,10,13,314,18,11,05,025,19,12,26,244,35*76

[1499590325698]$GPGSV,3,2,11,13,30,181,17,15,45,226,40,17,54,091,32,18,09,288,23*7D

[1499590325698]$GPGSV,3,3,11,19,51,134,28,24,54,289,33,28,25,065,23*42

[1499590325698]$GPGLL,5355.75593,N,02729.31383,E,055205.00,A,A*61

[1499590326697]$GPRMC,055206.00,A,5355.75596,N,02729.31383,E,0.078,,090717,,,A*79

[1499590326697]$GPVTG,,T,,M,0.078,N,0.145,K,A*2C

[1499590326697]$GPGGA,055206.00,5355.75596,N,02729.31383,E,1,10,0.92,236.0,M,25.0,M,,*58

[1499590326697]$GPGSA,A,3,17,24,19,15,13,28,12,01,10,18,,,1.90,0.92,1.66*0E

[1499590326697]$GPGSV,3,1,11,01,14,036,19,10,13,314,16,11,05,025,18,12,26,244,35*78

[1499590326697]$GPGSV,3,2,11,13,30,181,16,15,45,226,40,17,54,091,32,18,09,288,23*7C

[1499590326697]$GPGSV,3,3,11,19,51,134,28,24,54,289,33,28,25,065,23*42

[1499590326697]$GPGLL,5355.75596,N,02729.31383,E,055206.00,A,A*67

[1499590327698]$GPRMC,055207.00,A,5355.75590,N,02729.31375,E,0.127,,090717,,,A*7C

[1499590327698]$GPVTG,,T,,M,0.127,N,0.236,K,A*20

[1499590327698]$GPGGA,055207.00,5355.75590,N,02729.31375,E,1,10,0.92,236.6,M,25.0,M,,*50

[1499590327698]$GPGSA,A,3,17,24,19,15,13,28,12,01,10,18,,,1.90,0.92,1.66*0E

[1499590327698]$GPGSV,3,1,11,01,14,036,19,10,13,314,15,11,05,025,18,12,26,244,35*7B

[1499590327698]$GPGSV,3,2,11,13,30,181,16,15,45,226,40,17,54,091,32,18,09,288,24*7B

[1499590327698]$GPGSV,3,3,11,19,51,134,28,24,54,289,33,28,25,065,23*42

[1499590327698]$GPGLL,5355.75590,N,02729.31375,E,055207.00,A,A*69

[1499590328688]$GPRMC,055208.00,A,5355.75589,N,02729.31373,E,0.018,,090717,,,A*70

[1499590328688]$GPVTG,,T,,M,0.018,N,0.033,K,A*2A

[1499590328688]$GPGGA,055208.00,5355.75589,N,02729.31373,E,1,10,0.92,236.8,M,25.0,M,,*5F

[1499590328688]$GPGSA,A,3,17,24,19,15,13,28,12,01,10,18,,,1.90,0.92,1.66*0E

[1499590328688]$GPGSV,3,1,11,01,14,036,19,10,13,314,13,11,05,024,19,12,26,244,35*7D

[1499590328688]$GPGSV,3,2,11,13,30,181,17,15,45,226,40,17,54,091,32,18,09,288,24*7A

[1499590328688]$GPGSV,3,3,11,19,51,134,28,24,54,289,33,28,25,065,23*42

[1499590328688]$GPGLL,5355.75589,N,02729.31373,E,055208.00,A,A*68

[1499590329698]$GPRMC,055209.00,A,5355.75586,N,02729.31373,E,0.135,,090717,,,A*70

[1499590329698]$GPVTG,,T,,M,0.135,N,0.250,K,A*23

[1499590329698]$GPGGA,055209.00,5355.75586,N,02729.31373,E,1,10,0.92,237.3,M,25.0,M,,*5B

[1499590329698]$GPGSA,A,3,17,24,19,15,13,28,12,01,10,18,,,1.90,0.92,1.66*0E

[1499590329698]$GPGSV,3,1,11,01,14,036,18,10,13,314,13,11,05,024,20,12,26,244,36*75

[1499590329698]$GPGSV,3,2,11,13,30,181,17,15,45,226,40,17,54,091,32,18,09,288,25*7B

[1499590329698]$GPGSV,3,3,11,19,51,134,28,24,54,289,33,28,25,065,23*42

[1499590329698]$GPGLL,5355.75586,N,02729.31373,E,055209.00,A,A*66

[1499590330701]$GPRMC,055210.00,A,5355.75586,N,02729.31373,E,0.046,,090717,,,A*7D

[1499590330701]$GPVTG,,T,,M,0.046,N,0.086,K,A*2F

[1499590330701]$GPGGA,055210.00,5355.75586,N,02729.31373,E,1,10,0.92,237.7,M,25.0,M,,*57

[1499590330701]$GPGSA,A,3,17,24,19,15,13,28,12,01,10,18,,,1.90,0.92,1.66*0E

[1499590330701]$GPGSV,3,1,11,01,14,036,17,10,13,314,14,11,05,024,20,12,26,244,36*7D

[1499590330701]$GPGSV,3,2,11,13,30,181,16,15,45,226,40,17,54,091,32,18,09,288,25*7A

[1499590330701]$GPGSV,3,3,11,19,51,134,28,24,54,289,33,28,25,065,24*45

[1499590330701]$GPGLL,5355.75586,N,02729.31373,E,055210.00,A,A*6E

[1499590331698]$GPRMC,055211.00,A,5355.75588,N,02729.31370,E,0.046,,090717,,,A*71

[1499590331698]$GPVTG,,T,,M,0.046,N,0.085,K,A*2C

[1499590331698]$GPGGA,055211.00,5355.75588,N,02729.31370,E,1,10,0.92,238.1,M,25.0,M,,*52

[1499590331698]$GPGSA,A,3,17,24,19,15,13,28,12,01,10,18,,,1.90,0.92,1.66*0E

[1499590331698]$GPGSV,3,1,11,01,14,036,17,10,13,314,14,11,05,024,20,12,26,244,36*7D

[1499590331698]$GPGSV,3,2,11,13,30,181,16,15,45,226,40,17,54,091,33,18,09,288,25*7B

[1499590331698]$GPGSV,3,3,11,19,51,134,28,24,54,289,33,28,25,065,23*42

[1499590331698]$GPGLL,5355.75588,N,02729.31370,E,055211.00,A,A*62

[1499590332698]$GPRMC,055212.00,A,5355.75597,N,02729.31372,E,0.122,,090717,,,A*7D

[1499590332698]$GPVTG,,T,,M,0.122,N,0.226,K,A*24

[1499590332698]$GPGGA,055212.00,5355.75597,N,02729.31372,E,1,10,0.92,238.3,M,25.0,M,,*5F

[1499590332698]$GPGSA,A,3,17,24,19,15,13,28,12,01,10,18,,,1.90,0.92,1.66*0E

[1499590332698]$GPGSV,3,1,11,01,14,036,18,10,13,314,12,11,05,024,21,12,26,244,36*75

[1499590332698]$GPGSV,3,2,11,13,30,181,17,15,44,226,40,17,54,091,32,18,09,288,25*7A

[1499590332698]$GPGSV,3,3,11,19,51,134,28,24,54,289,33,28,25,065,23*42

[1499590332698]$GPGLL,5355.75597,N,02729.31372,E,055212.00,A,A*6D

[1499590333698]$GPRMC,055213.00,A,5355.75596,N,02729.31365,E,0.110,,090717,,,A*7A

[1499590333698]$GPVTG,,T,,M,0.110,N,0.204,K,A*25

[1499590333698]$GPGGA,055213.00,5355.75596,N,02729.31365,E,1,10,0.92,238.8,M,25.0,M,,*52

[1499590333698]$GPGSA,A,3,17,24,19,15,13,28,12,01,10,18,,,1.90,0.92,1.66*0E

[1499590333698]$GPGSV,3,1,11,01,14,036,18,10,13,314,11,11,05,024,20,12,26,244,36*77

[1499590333698]$GPGSV,3,2,11,13,30,181,18,15,44,226,40,17,54,091,32,18,09,288,24*74

[1499590333698]$GPGSV,3,3,11,19,51,134,28,24,54,289,32,28,25,065,23*43

[1499590333698]$GPGLL,5355.75596,N,02729.31365,E,055213.00,A,A*6B

[1499590334688]$GPRMC,055214.00,A,5355.75593,N,02729.31357,E,0.133,,090717,,,A*78

[1499590334688]$GPVTG,,T,,M,0.133,N,0.246,K,A*22

[1499590334688]$GPGGA,055214.00,5355.75593,N,02729.31357,E,1,10,0.92,239.2,M,25.0,M,,*5A

[1499590334688]$GPGSA,A,3,17,24,19,15,13,28,12,01,10,18,,,1.90,0.92,1.66*0E

[1499590334688]$GPGSV,3,1,11,01,14,036,18,10,13,314,10,11,05,024,21,12,26,244,36*77

[1499590334688]$GPGSV,3,2,11,13,30,181,17,15,44,226,40,17,54,090,32,18,09,288,24*7A

[1499590334688]$GPGSV,3,3,11,19,51,134,28,24,54,289,32,28,25,065,23*43

[1499590334688]$GPGLL,5355.75593,N,02729.31357,E,055214.00,A,A*68

[1499590335687]$GPRMC,055215.00,A,5355.75595,N,02729.31354,E,0.070,,090717,,,A*7A

[1499590335687]$GPVTG,,T,,M,0.070,N,0.130,K,A*26

[1499590335687]$GPGGA,055215.00,5355.75595,N,02729.31354,E,1,09,0.98,239.3,M,25.0,M,,*5D

[1499590335687]$GPGSA,A,3,17,24,19,15,13,28,12,01,18,,,,1.94,0.98,1.67*00

[1499590335687]$GPGSV,3,1,11,01,14,036,17,10,13,314,08,11,05,024,21,12,26,244,36*71

[1499590335687]$GPGSV,3,2,11,13,30,181,16,15,44,226,40,17,54,090,32,18,09,288,24*7B

[1499590335687]$GPGSV,3,3,11,19,51,134,27,24,54,289,32,28,25,065,24*4B

[1499590335687]$GPGLL,5355.75595,N,02729.31354,E,055215.00,A,A*6C

[1499590336688]$GPRMC,055216.00,A,5355.75596,N,02729.31352,E,0.171,,090717,,,A*7C

[1499590336688]$GPVTG,,T,,M,0.171,N,0.317,K,A*21

[1499590336688]$GPGGA,055216.00,5355.75596,N,02729.31352,E,1,09,0.98,239.5,M,25.0,M,,*5D

[1499590336688]$GPGSA,A,3,17,24,19,15,13,28,12,01,18,,,,1.94,0.98,1.67*00

