[1499588837678]$GPRMC,052717.00,A,5358.26305,N,02734.42827,E,54.072,266.23,090717,,,A*57

[1499588837678]$GPVTG,266.23,T,,M,54.072,N,100.141,K,A*0F

[1499588837678]$GPGGA,052717.00,5358.26305,N,02734.42827,E,1,11,0.79,213.7,M,24.8,M,,*5D

[1499588837678]$GPGSA,A,3,10,24,01,30,17,13,19,18,28,15,12,,1.59,0.79,1.38*06

[1499588837678]$GPGSV,3,1,12,01,13,046,32,10,13,324,27,11,,,35,12,15,239,29*49

[1499588837678]$GPGSV,3,2,12,13,42,183,28,15,52,240,41,17,52,109,39,18,13,298,34*73

[1499588837678]$GPGSV,3,3,12,19,41,145,37,24,43,289,37,28,35,063,16,30,08,110,15*74

[1499588837678]$GPGLL,5358.26305,N,02734.42827,E,052717.00,A,A*6F

[1499588838686]$GPRMC,052718.00,A,5358.26205,N,02734.40290,E,54.057,266.02,090717,,,A*59

[1499588838686]$GPVTG,266.02,T,,M,54.057,N,100.113,K,A*0C

[1499588838686]$GPGGA,052718.00,5358.26205,N,02734.40290,E,1,11,0.79,213.4,M,24.8,M,,*54

[1499588838686]$GPGSA,A,3,10,24,01,30,17,13,19,18,28,15,12,,1.59,0.79,1.37*09

[1499588838686]$GPGSV,3,1,12,01,13,046,32,10,13,324,27,11,,,33,12,15,239,29*4F

[1499588838686]$GPGSV,3,2,12,13,42,183,28,15,52,240,41,17,52,109,38,18,13,298,37*71

[1499588838686]$GPGSV,3,3,12,19,41,145,37,24,43,289,37,28,35,063,15,30,08,110,13*71

[1499588838686]$GPGLL,5358.26205,N,02734.40290,E,052718.00,A,A*65

[1499588839676]$GPRMC,052719.00,A,5358.26099,N,02734.37753,E,54.095,265.86,090717,,,A*54

[1499588839676]$GPVTG,265.86,T,,M,54.095,N,100.183,K,A*04

[1499588839676]$GPGGA,052719.00,5358.26099,N,02734.37753,E,1,11,0.79,213.3,M,24.8,M,,*5F

[1499588839676]$GPGSA,A,3,10,24,01,30,17,13,19,18,28,15,12,,1.59,0.79,1.37*09

[1499588839676]$GPGSV,3,1,12,01,13,046,33,10,13,324,27,11,,,33,12,15,239,30*46

[1499588839676]$GPGSV,3,2,12,13,42,183,28,15,52,240,41,17,52,109,38,18,13,298,35*73

[1499588839676]$GPGSV,3,3,12,19,41,145,37,24,43,289,37,28,35,063,19,30,08,110,12*7C

[1499588839676]$GPGLL,5358.26099,N,02734.37753,E,052719.00,A,A*69

[1499588840677]$GPRMC,052720.00,A,5358.25992,N,02734.35219,E,54.039,265.79,090717,,,A*50

[1499588840677]$GPVTG,265.79,T,,M,54.039,N,100.080,K,A*00

[1499588840677]$GPGGA,052720.00,5358.25992,N,02734.35219,E,1,11,0.79,213.1,M,24.8,M,,*5F

[1499588840677]$GPGSA,A,3,10,24,01,30,17,13,19,18,28,15,12,,1.59,0.79,1.37*09

[1499588840677]$GPGSV,3,1,12,01,13,046,34,10,13,324,27,11,,,34,12,15,239,29*4E

[1499588840677]$GPGSV,3,2,12,13,42,183,27,15,52,240,41,17,52,109,38,18,13,298,34*7D

[1499588840677]$GPGSV,3,3,12,19,41,145,37,24,43,289,37,28,35,063,22,30,08,110,16*70

[1499588840677]$GPGLL,5358.25992,N,02734.35219,E,052720.00,A,A*6B

[1499588841680]$GPRMC,052721.00,A,5358.25881,N,02734.32686,E,54.047,265.62,090717,,,A*54

[1499588841680]$GPVTG,265.62,T,,M,54.047,N,100.095,K,A*07

[1499588841680]$GPGGA,052721.00,5358.25881,N,02734.32686,E,1,11,0.79,212.9,M,24.8,M,,*51

[1499588841680]$GPGSA,A,3,10,24,01,30,17,13,19,18,28,15,12,,1.59,0.79,1.37*09

[1499588841680]$GPGSV,3,1,12,01,13,046,26,10,13,324,27,11,,,34,12,15,239,29*4D

[1499588841680]$GPGSV,3,2,12,13,42,183,27,15,52,240,41,17,52,109,38,18,13,298,34*7D

[1499588841680]$GPGSV,3,3,12,19,41,145,37,24,43,289,37,28,35,063,24,30,08,110,16*76

[1499588841680]$GPGLL,5358.25881,N,02734.32686,E,052721.00,A,A*6C

[1499588842676]$GPRMC,052722.00,A,5358.25771,N,02734.30155,E,54.025,265.64,090717,,,A*5E

[1499588842676]$GPVTG,265.64,T,,M,54.025,N,100.055,K,A*09

[1499588842676]$GPGGA,052722.00,5358.25771,N,02734.30155,E,1,11,0.79,212.7,M,24.8,M,,*57

[1499588842676]$GPGSA,A,3,10,24,01,30,17,13,19,18,28,15,12,,1.59,0.79,1.37*09

[1499588842676]$GPGSV,3,1,12,01,13,046,33,10,13,324,27,11,,,34,12,15,239,29*49

[1499588842676]$GPGSV,3,2,12,13,42,183,27,15,52,240,41,17,52,109,38,18,13,298,36*7F

[1499588842676]$GPGSV,3,3,12,19,41,145,37,24,43,289,37,28,35,063,21,30,08,110,16*73

[1499588842676]$GPGLL,5358.25771,N,02734.30155,E,052722.00,A,A*64

[1499588843677]$GPRMC,052723.00,A,5358.25664,N,02734.27618,E,54.103,266.00,090717,,,A*56

[1499588843677]$GPVTG,266.00,T,,M,54.103,N,100.200,K,A*0F

[1499588843677]$GPGGA,052723.00,5358.25664,N,02734.27618,E,1,11,0.79,212.5,M,24.8,M,,*59

[1499588843677]$GPGSA,A,3,10,24,01,30,17,13,19,18,28,15,12,,1.59,0.79,1.37*09

[1499588843677]$GPGSV,3,1,12,01,13,046,32,10,13,324,27,11,,,34,12,15,239,30*40

[1499588843677]$GPGSV,3,2,12,13,42,183,28,15,52,240,41,17,52,109,38,18,13,298,36*70

[1499588843677]$GPGSV,3,3,12,19,41,145,37,24,43,289,37,28,35,063,22,30,08,110,15*73

[1499588843677]$GPGLL,5358.25664,N,02734.27618,E,052723.00,A,A*68

[1499588844676]$GPRMC,052724.00,A,5358.25560,N,02734.25082,E,54.056,265.98,090717,,,A*52

[1499588844676]$GPVTG,265.98,T,,M,54.056,N,100.112,K,A*0C

[1499588844676]$GPGGA,052724.00,5358.25560,N,02734.25082,E,1,11,0.79,212.3,M,24.8,M,,*58

[1499588844676]$GPGSA,A,3,10,24,01,30,17,13,19,18,28,15,12,,1.59,0.79,1.37*09

[1499588844676]$GPGSV,3,1,12,01,13,046,33,10,13,324,27,11,,,34,12,15,239,29*49

[1499588844676]$GPGSV,3,2,12,13,42,183,27,15,52,240,41,17,52,109,38,18,13,298,34*7D

[1499588844676]$GPGSV,3,3,12,19,41,145,37,24,43,289,37,28,35,063,23,30,08,110,16*71

[1499588844676]$GPGLL,5358.25560,N,02734.25082,E,052724.00,A,A*6F

[1499588845676]$GPRMC,052725.00,A,5358.25454,N,02734.22543,E,54.016,265.91,090717,,,A*57

[1499588845676]$GPVTG,265.91,T,,M,54.016,N,100.037,K,A*07

[1499588845676]$GPGGA,052725.00,5358.25454,N,02734.22543,E,1,11,0.79,212.4,M,24.8,M,,*57

[1499588845676]$GPGSA,A,3,10,24,01,30,17,13,19,18,28,15,12,,1.59,0.79,1.37*09

[1499588845676]$GPGSV,3,1,12,01,13,046,34,10,13,324,27,11,,,34,12,15,239,29*4E

[1499588845676]$GPGSV,3,2,12,13,42,183,26,15,52,240,41,17,52,109,38,18,13,298,35*7D

[1499588845676]$GPGSV,3,3,12,19,41,145,37,24,43,289,37,28,35,063,22,30,08,110,16*70

[1499588845676]$GPGLL,5358.25454,N,02734.22543,E,052725.00,A,A*67

[1499588846677]$GPRMC,052726.00,A,5358.25347,N,02734.20005,E,54.036,265.86,090717,,,A*50

[1499588846677]$GPVTG,265.86,T,,M,54.036,N,100.074,K,A*04

[1499588846677]$GPGGA,052726.00,5358.25347,N,02734.20005,E,1,11,0.79,212.3,M,24.8,M,,*53

[1499588846677]$GPGSA,A,3,10,24,01,30,17,13,19,18,28,15,12,,1.59,0.79,1.37*09

[1499588846677]$GPGSV,3,1,12,01,13,046,34,10,13,324,27,11,,,35,12,16,239,29*4C

[1499588846677]$GPGSV,3,2,12,13,42,183,26,15,52,240,41,17,52,109,38,18,13,298,35*7D

[1499588846677]$GPGSV,3,3,12,19,41,145,37,24,43,289,37,28,35,063,20,30,08,110,14*70

[1499588846677]$GPGLL,5358.25347,N,02734.20005,E,052726.00,A,A*64

[1499588847676]$GPRMC,052727.00,A,5358.25243,N,02734.17472,E,53.983,265.91,090717,,,A*52

[1499588847676]$GPVTG,265.91,T,,M,53.983,N,99.976,K,A*38

[1499588847676]$GPGGA,052727.00,5358.25243,N,02734.17472,E,1,11,0.79,212.3,M,24.8,M,,*57

[1499588847676]$GPGSA,A,3,10,24,01,30,17,13,19,18,28,15,12,,1.59,0.79,1.37*09

[1499588847676]$GPGSV,3,1,12,01,13,046,31,10,13,324,27,11,,,35,12,16,239,29*49

[1499588847676]$GPGSV,3,2,12,13,41,183,25,15,52,240,41,17,52,109,38,18,13,298,34*7C

[1499588847676]$GPGSV,3,3,12,19,41,145,37,24,43,289,37,28,35,063,18,30,08,110,15*7A

[1499588847676]$GPGLL,5358.25243,N,02734.17472,E,052727.00,A,A*60

[1499588848677]$GPRMC,052728.00,A,5358.25133,N,02734.14941,E,53.932,265.56,090717,,,A*56

[1499588848677]$GPVTG,265.56,T,,M,53.932,N,99.883,K,A*32

[1499588848677]$GPGGA,052728.00,5358.25133,N,02734.14941,E,1,11,0.79,212.3,M,24.8,M,,*52

[1499588848677]$GPGSA,A,3,10,24,01,30,17,13,19,18,28,15,12,,1.59,0.79,1.37*09

[1499588848677]$GPGSV,3,1,12,01,13,046,31,10,13,324,27,11,,,25,12,16,239,29*48

[1499588848677]$GPGSV,3,2,12,13,41,183,25,15,52,240,41,17,52,109,38,18,13,298,35*7D

[1499588848677]$GPGSV,3,3,12,19,41,145,37,24,43,289,37,28,35,063,18,30,08,110,17*78

[1499588848677]$GPGLL,5358.25133,N,02734.14941,E,052728.00,A,A*65

[1499588849686]$GPRMC,052729.00,A,5358.25017,N,02734.12413,E,53.932,265.43,090717,,,A*58

[1499588849686]$GPVTG,265.43,T,,M,53.932,N,99.882,K,A*37

[1499588849686]$GPGGA,052729.00,5358.25017,N,02734.12413,E,1,11,0.79,212.4,M,24.8,M,,*5F

[1499588849686]$GPGSA,A,3,10,24,01,30,17,13,19,18,28,15,12,,1.59,0.79,1.37*09

[1499588849686]$GPGSV,3,1,12,01,13,046,32,10,13,324,27,11,,,34,12,16,239,29*4B

[1499588849686]$GPGSV,3,2,12,13,41,183,25,15,52,240,41,17,52,109,38,18,13,298,35*7D

[1499588849686]$GPGSV,3,3,12,19,41,145,37,24,43,289,37,28,35,063,16,30,08,110,19*78

[1499588849686]$GPGLL,5358.25017,N,02734.12413,E,052729.00,A,A*6F

[1499588850677]$GPRMC,052730.00,A,5358.24905,N,02734.09882,E,53.995,265.61,090717,,,A*58

[1499588850677]$GPVTG,265.61,T,,M,53.995,N,100.000,K,A*09

[1499588850677]$GPGGA,052730.00,5358.24905,N,02734.09882,E,1,11,0.79,212.5,M,24.8,M,,*53

[1499588850677]$GPGSA,A,3,10,24,01,30,17,13,19,18,28,15,12,,1.59,0.79,1.37*09

[1499588850677]$GPGSV,3,1,12,01,13,046,33,10,13,324,27,11,,,34,12,16,239,29*4A

[1499588850677]$GPGSV,3,2,12,13,41,183,26,15,52,240,41,17,52,109,38,18,13,298,35*7E

[1499588850677]$GPGSV,3,3,12,19,41,145,37,24,43,289,37,28,35,063,15,30,08,110,19*7B

[1499588850677]$GPGLL,5358.24905,N,02734.09882,E,052730.00,A,A*62

[1499588851681]$GPRMC,052731.00,A,5358.24792,N,02734.07351,E,53.985,265.50,090717,,,A*51

[1499588851681]$GPVTG,265.50,T,,M,53.985,N,99.981,K,A*3B

[1499588851681]$GPGGA,052731.00,5358.24792,N,02734.07351,E,1,11,0.79,212.6,M,24.8,M,,*5A

[1499588851681]$GPGSA,A,3,10,24,01,30,17,13,19,18,28,15,12,,1.59,0.79,1.37*09

[1499588851681]$GPGSV,3,1,12,01,13,046,33,10,13,324,27,11,,,33,12,16,239,28*4C

[1499588851681]$GPGSV,3,2,12,13,41,183,27,15,52,240,41,17,52,109,38,18,13,298,35*7F

[1499588851681]$GPGSV,3,3,12,19,41,145,37,24,43,289,37,28,35,063,13,30,08,110,19*7D

[1499588851681]$GPGLL,5358.24792,N,02734.07351,E,052731.00,A,A*68

[1499588852676]$GPRMC,052732.00,A,5358.24685,N,02734.04817,E,53.984,265.56,090717,,,A*58

[1499588852676]$GPVTG,265.56,T,,M,53.984,N,99.979,K,A*3B

[1499588852676]$GPGGA,052732.00,5358.24685,N,02734.04817,E,1,11,0.79,212.9,M,24.8,M,,*5B

[1499588852676]$GPGSA,A,3,10,24,01,30,17,13,19,18,28,15,12,,1.59,0.79,1.37*09

[1499588852676]$GPGSV,3,1,12,01,13,046,33,10,13,324,27,11,,,33,12,16,239,28*4C

[1499588852676]$GPGSV,3,2,12,13,41,183,27,15,52,240,41,17,52,109,38,18,13,297,35*70

[1499588852676]$GPGSV,3,3,12,19,41,145,38,24,43,289,37,28,35,063,15,30,08,110,19*74

[1499588852676]$GPGLL,5358.24685,N,02734.04817,E,052732.00,A,A*66

[1499588853676]$GPRMC,052733.00,A,5358.24583,N,02734.02289,E,53.913,265.78,090717,,,A*55

[1499588853676]$GPVTG,265.78,T,,M,53.913,N,99.848,K,A*3A

[1499588853676]$GPGGA,052733.00,5358.24583,N,02734.02289,E,1,11,0.79,213.3,M,24.8,M,,*5F

[1499588853676]$GPGSA,A,3,10,24,01,30,17,13,19,18,28,15,12,,1.59,0.79,1.37*09

[1499588853676]$GPGSV,3,1,12,01,13,046,34,10,13,324,27,11,,,32,12,16,239,28*4A

[1499588853676]$GPGSV,3,2,12,13,41,183,27,15,52,240,41,17,52,109,39,18,13,297,35*71

[1499588853676]$GPGSV,3,3,12,19,41,145,38,24,43,289,37,28,35,063,17,30,08,110,20*7C

[1499588853676]$GPGLL,5358.24583,N,02734.02289,E,052733.00,A,A*69

[1499588854677]$GPRMC,052734.00,A,5358.24486,N,02733.99757,E,53.874,266.04,090717,,,A*5D

[1499588854677]$GPVTG,266.04,T,,M,53.874,N,99.774,K,A*32

[1499588854677]$GPGGA,052734.00,5358.24486,N,02733.99757,E,1,11,0.79,213.8,M,24.8,M,,*54

[1499588854677]$GPGSA,A,3,10,24,01,30,17,13,19,18,28,15,12,,1.59,0.79,1.37*09

[1499588854677]$GPGSV,3,1,12,01,13,046,34,10,13,324,26,11,,,33,12,16,239,29*4B

[1499588854677]$GPGSV,3,2,12,13,41,183,28,15,52,240,41,17,52,109,39,18,13,297,31*7A

[1499588854677]$GPGSV,3,3,12,19,41,145,38,24,43,289,37,28,35,063,17,30,08,110,20*7C

[1499588854677]$GPGLL,5358.24486,N,02733.99757,E,052734.00,A,A*69

[1499588855677]$GPRMC,052735.00,A,5358.24384,N,02733.97222,E,53.865,265.69,090717,,,A*58

[1499588855677]$GPVTG,265.69,T,,M,53.865,N,99.759,K,A*35

[1499588855677]$GPGGA,052735.00,5358.24384,N,02733.97222,E,1,11,0.79,214.1,M,24.8,M,,*57

[1499588855677]$GPGSA,A,3,10,24,01,30,17,13,19,18,28,15,12,,1.59,0.79,1.37*09

[1499588855677]$GPGSV,3,1,12,01,13,046,35,10,13,324,26,11,,,32,12,16,239,30*43

[1499588855677]$GPGSV,3,2,12,13,41,183,27,15,52,240,41,17,52,109,38,18,13,297,34*71

[1499588855677]$GPGSV,3,3,12,19,41,145,38,24,43,289,37,28,35,063,19,30,08,110,19*78

[1499588855677]$GPGLL,5358.24384,N,02733.97222,E,052735.00,A,A*64

[1499588856676]$GPRMC,052736.00,A,5358.24283,N,02733.94690,E,53.950,265.80,090717,,,A*53

[1499588856676]$GPVTG,265.80,T,,M,53.950,N,99.916,K,A*30

[1499588856676]$GPGGA,052736.00,5358.24283,N,02733.94690,E,1,11,0.79,214.5,M,24.8,M,,*58

[1499588856676]$GPGSA,A,3,10,24,01,30,17,13,19,18,28,15,12,,1.59,0.79,1.37*09

[1499588856676]$GPGSV,3,1,12,01,13,046,32,10,13,324,27,11,,,35,12,16,239,28*4B

[1499588856676]$GPGSV,3,2,12,13,41,183,27,15,52,240,40,17,52,109,39,18,13,297,35*70

[1499588856676]$GPGSV,3,3,12,19,41,145,38,24,43,289,37,28,35,063,18,30,08,110,17*77

[1499588856676]$GPGLL,5358.24283,N,02733.94690,E,052736.00,A,A*6F

[1499588857684]$GPRMC,052737.00,A,5358.24175,N,02733.92153,E,54.035,265.72,090717,,,A*56

[1499588857684]$GPVTG,265.72,T,,M,54.035,N,100.073,K,A*0B

[1499588857684]$GPGGA,052737.00,5358.24175,N,02733.92153,E,1,11,0.79,214.6,M,24.8,M,,*5E

[1499588857684]$GPGSA,A,3,10,24,01,30,17,13,19,18,28,15,12,,1.59,0.79,1.37*09

[1499588857684]$GPGSV,3,1,12,01,13,046,33,10,13,324,26,11,,,31,12,16,239,28*4F

[1499588857684]$GPGSV,3,2,12,13,41,183,27,15,52,240,41,17,52,109,39,18,13,297,36*72

[1499588857684]$GPGSV,3,3,12,19,41,145,38,24,43,289,38,28,35,063,18,30,08,110,17*78

[1499588857684]$GPGLL,5358.24175,N,02733.92153,E,052737.00,A,A*6A

[1499588858676]$GPRMC,052738.00,A,5358.24074,N,02733.89615,E,54.042,265.94,090717,,,A*5E

[1499588858676]$GPVTG,265.94,T,,M,54.042,N,100.085,K,A*0A

[1499588858676]$GPGGA,052738.00,5358.24074,N,02733.89615,E,1,11,0.79,214.8,M,24.8,M,,*50

[1499588858676]$GPGSA,A,3,10,24,01,30,17,13,19,18,28,15,12,,1.59,0.79,1.37*09

[1499588858676]$GPGSV,3,1,12,01,13,046,34,10,13,324,27,11,,,32,12,16,239,28*4A

[1499588858676]$GPGSV,3,2,12,13,41,183,27,15,52,240,41,17,52,109,38,18,13,297,36*73

[1499588858676]$GPGSV,3,3,12,19,41,145,38,24,43,289,37,28,35,063,18,30,08,110,18*78

[1499588858676]$GPGLL,5358.24074,N,02733.89615,E,052738.00,A,A*6A

[1499588859677]$GPRMC,052739.00,A,5358.23972,N,02733.87075,E,54.044,265.90,090717,,,A*5B

[1499588859677]$GPVTG,265.90,T,,M,54.044,N,100.089,K,A*04

[1499588859677]$GPGGA,052739.00,5358.23972,N,02733.87075,E,1,11,0.79,215.0,M,24.8,M,,*5E

[1499588859677]$GPGSA,A,3,10,24,01,30,17,13,19,18,28,15,12,,1.59,0.79,1.37*09

[1499588859677]$GPGSV,3,1,12,01,13,046,32,10,13,324,27,11,,,33,12,16,239,28*4D

[1499588859677]$GPGSV,3,2,12,13,41,183,27,15,52,240,41,17,52,109,38,18,13,297,36*73

[1499588859677]$GPGSV,3,3,12,19,41,145,38,24,43,289,37,28,35,063,18,30,08,110,19*79

[1499588859677]$GPGLL,5358.23972,N,02733.87075,E,052739.00,A,A*6D

[1499588860677]$GPRMC,052740.00,A,5358.23868,N,02733.84542,E,54.035,265.78,090717,,,A*5D

[1499588860677]$GPVTG,265.78,T,,M,54.035,N,100.072,K,A*00

[1499588860677]$GPGGA,052740.00,5358.23868,N,02733.84542,E,1,11,0.79,215.2,M,24.8,M,,*5A

[1499588860677]$GPGSA,A,3,10,24,01,30,17,13,19,18,28,15,12,,1.59,0.79,1.37*09

[1499588860677]$GPGSV,3,1,12,01,13,046,32,10,13,324,27,11,,,34,12,16,239,28*4A

[1499588860677]$GPGSV,3,2,12,13,41,183,26,15,52,240,41,17,52,109,38,18,13,297,35*71

[1499588860677]$GPGSV,3,3,12,19,41,145,38,24,43,289,38,28,35,063,19,30,08,110,19*77

[1499588860677]$GPGLL,5358.23868,N,02733.84542,E,052740.00,A,A*6B

[1499588861666]$GPRMC,052741.00,A,5358.23763,N,02733.82007,E,54.046,265.78,090717,,,A*5E

[1499588861666]$GPVTG,265.78,T,,M,54.046,N,100.093,K,A*0B

[1499588861666]$GPGGA,052741.00,5358.23763,N,02733.82007,E,1,11,0.79,215.5,M,24.8,M,,*5A

[1499588861666]$GPGSA,A,3,10,24,01,30,17,13,19,18,28,15,12,,1.59,0.79,1.37*09

[1499588861666]$GPGSV,3,1,12,01,13,046,31,10,13,324,26,11,,,34,12,16,239,28*48

[1499588861666]$GPGSV,3,2,12,13,41,183,26,15,52,240,41,17,52,109,38,18,13,297,35*71

[1499588861666]$GPGSV,3,3,12,19,41,145,38,24,43,289,37,28,35,063,20,30,08,110,18*73

[1499588861666]$GPGLL,5358.23763,N,02733.82007,E,052741.00,A,A*6C

[1499588862677]$GPRMC,052742.00,A,5358.23662,N,02733.79474,E,54.060,265.93,090717,,,A*58

[1499588862677]$GPVTG,265.93,T,,M,54.060,N,100.118,K,A*08

[1499588862677]$GPGGA,052742.00,5358.23662,N,02733.79474,E,1,11,0.79,215.8,M,24.8,M,,*50

[1499588862677]$GPGSA,A,3,10,24,01,30,17,13,19,18,28,15,12,,1.59,0.79,1.37*09

[1499588862677]$GPGSV,3,1,12,01,13,046,32,10,13,324,26,11,,,33,12,16,239,28*4C

[1499588862677]$GPGSV,3,2,12,13,41,183,26,15,52,240,41,17,52,109,38,18,13,297,35*71

[1499588862677]$GPGSV,3,3,12,19,41,145,38,24,43,289,37,28,35,063,19,30,08,110,19*78

[1499588862677]$GPGLL,5358.23662,N,02733.79474,E,052742.00,A,A*6B

[1499588863676]$GPRMC,052743.00,A,5358.23559,N,02733.76937,E,54.080,265.93,090717,,,A*59

[1499588863676]$GPVTG,265.93,T,,M,54.080,N,100.155,K,A*0F

[1499588863676]$GPGGA,052743.00,5358.23559,N,02733.76937,E,1,11,0.79,216.0,M,24.8,M,,*54

[1499588863676]$GPGSA,A,3,10,24,01,30,17,13,19,18,28,15,12,,1.59,0.79,1.37*09

[1499588863676]$GPGSV,3,1,12,01,13,046,36,10,13,324,24,11,,,32,12,16,239,28*4B

[1499588863676]$GPGSV,3,2,12,13,41,183,26,15,52,240,41,17,52,109,38,18,13,297,35*71

[1499588863676]$GPGSV,3,3,12,19,41,145,38,24,43,289,37,28,35,063,18,30,08,110,19*79

[1499588863676]$GPGLL,5358.23559,N,02733.76937,E,052743.00,A,A*64

[1499588864682]$GPRMC,052744.00,A,5358.23456,N,02733.74400,E,54.058,265.93,090717,,,A*5E

[1499588864682]$GPVTG,265.93,T,,M,54.058,N,100.116,K,A*0D

[1499588864682]$GPGGA,052744.00,5358.23456,N,02733.74400,E,1,11,0.79,216.3,M,24.8,M,,*55

[1499588864682]$GPGSA,A,3,10,24,01,30,17,13,19,18,28,15,12,,1.59,0.79,1.37*09

[1499588864682]$GPGSV,3,1,12,01,13,046,34,10,13,324,24,11,,,32,12,16,239,29*48

[1499588864682]$GPGSV,3,2,12,13,41,183,27,15,52,240,41,17,52,109,38,18,13,297,34*71

[1499588864682]$GPGSV,3,3,12,19,41,145,38,24,43,289,37,28,35,063,18,30,08,110,20*73

[1499588864682]$GPGLL,5358.23456,N,02733.74400,E,052744.00,A,A*66

[1499588865680]$GPRMC,052745.00,A,5358.23356,N,02733.71862,E,54.107,266.20,090717,,,A*55

[1499588865680]$GPVTG,266.20,T,,M,54.107,N,100.206,K,A*0F

[1499588865680]$GPGGA,052745.00,5358.23356,N,02733.71862,E,1,11,0.79,216.4,M,24.8,M,,*59

[1499588865680]$GPGSA,A,3,10,24,01,30,17,13,19,18,28,15,12,,1.58,0.79,1.37*08

[1499588865680]$GPGSV,3,1,12,01,13,046,35,10,13,324,21,11,,,27,12,16,239,29*48

[1499588865680]$GPGSV,3,2,12,13,41,183,27,15,52,240,41,17,52,109,38,18,13,297,34*71

[1499588865680]$GPGSV,3,3,12,19,41,145,38,24,43,289,37,28,35,063,18,30,08,110,20*73

[1499588865680]$GPGLL,5358.23356,N,02733.71862,E,052745.00,A,A*6D

[1499588866677]$GPRMC,052746.00,A,5358.23252,N,02733.69325,E,54.111,266.00,090717,,,A*57

[1499588866677]$GPVTG,266.00,T,,M,54.111,N,100.214,K,A*09

[1499588866677]$GPGGA,052746.00,5358.23252,N,02733.69325,E,1,11,0.79,216.4,M,24.8,M,,*5E

[1499588866677]$GPGSA,A,3,10,24,01,30,17,13,19,18,28,15,12,,1.58,0.79,1.37*08

[1499588866677]$GPGSV,3,1,12,01,13,046,25,10,13,324,20,11,,,28,12,16,239,29*47

[1499588866677]$GPGSV,3,2,12,13,41,183,27,15,52,240,41,17,52,109,38,18,13,297,33*76

[1499588866677]$GPGSV,3,3,12,19,41,145,37,24,43,289,37,28,35,063,17,30,08,110,19*79

[1499588866677]$GPGLL,5358.23252,N,02733.69325,E,052746.00,A,A*6A

[1499588867676]$GPRMC,052747.00,A,5358.23146,N,02733.66790,E,54.061,265.78,090717,,,A*5F

[1499588867676]$GPVTG,265.78,T,,M,54.061,N,100.120,K,A*07

[1499588867676]$GPGGA,052747.00,5358.23146,N,02733.66790,E,1,11,0.79,216.5,M,24.8,M,,*5D

[1499588867676]$GPGSA,A,3,10,24,01,30,17,13,19,18,28,15,12,,1.58,0.79,1.37*08

[1499588867676]$GPGSV,3,1,12,01,13,046,34,10,13,324,19,11,,,26,12,16,239,29*43

[1499588867676]$GPGSV,3,2,12,13,41,183,27,15,52,240,41,17,52,109,38,18,13,297,35*70

[1499588867676]$GPGSV,3,3,12,19,41,145,37,24,43,289,37,28,35,063,18,30,08,110,18*77

[1499588867676]$GPGLL,5358.23146,N,02733.66790,E,052747.00,A,A*68

[1499588868676]$GPRMC,052748.00,A,5358.23033,N,02733.64257,E,53.992,265.61,090717,,,A*55

[1499588868676]$GPVTG,265.61,T,,M,53.992,N,99.992,K,A*3D

[1499588868676]$GPGGA,052748.00,5358.23033,N,02733.64257,E,1,11,0.79,216.5,M,24.8,M,,*5D

[1499588868676]$GPGSA,A,3,10,24,01,30,17,13,19,18,28,15,12,,1.58,0.79,1.37*08

[1499588868676]$GPGSV,3,1,12,01,13,046,30,10,13,324,18,11,,,23,12,16,239,28*42

[1499588868676]$GPGSV,3,2,12,13,41,183,27,15,52,240,41,17,52,109,38,18,13,297,35*70

[1499588868676]$GPGSV,3,3,12,19,41,145,37,24,43,289,37,28,35,063,18,30,08,110,19*76

[1499588868676]$GPGLL,5358.23033,N,02733.64257,E,052748.00,A,A*68

[1499588869676]$GPRMC,052749.00,A,5358.22924,N,02733.61721,E,54.143,265.74,090717,,,A*5C

[1499588869676]$GPVTG,265.74,T,,M,54.143,N,100.273,K,A*0F

[1499588869676]$GPGGA,052749.00,5358.22924,N,02733.61721,E,1,11,0.79,216.7,M,24.8,M,,*51

[1499588869676]$GPGSA,A,3,10,24,01,30,17,13,19,18,28,15,12,,1.58,0.79,1.37*08

[1499588869676]$GPGSV,3,1,12,01,13,046,29,10,13,324,19,11,,,19,12,16,239,28*42

[1499588869676]$GPGSV,3,2,12,13,41,183,26,15,52,240,41,17,52,109,38,18,13,297,35*71

[1499588869676]$GPGSV,3,3,12,19,41,145,37,24,43,289,37,28,35,063,18,30,08,110,19*76

[1499588869676]$GPGLL,5358.22924,N,02733.61721,E,052749.00,A,A*66

[1499588870677]$GPRMC,052750.00,A,5358.22819,N,02733.59186,E,54.093,265.99,090717,,,A*54

[1499588870677]$GPVTG,265.99,T,,M,54.093,N,100.180,K,A*0F

[1499588870677]$GPGGA,052750.00,5358.22819,N,02733.59186,E,1,11,0.79,216.8,M,24.8,M,,*59

[1499588870677]$GPGSA,A,3,10,24,01,30,17,13,19,18,28,15,12,,1.58,0.79,1.37*08

[1499588870677]$GPGSV,3,1,12,01,13,046,29,10,13,324,21,11,,,17,12,16,239,29*46

[1499588870677]$GPGSV,3,2,12,13,41,183,27,15,52,240,41,17,52,109,38,18,13,297,35*70

[1499588870677]$GPGSV,3,3,12,19,41,145,37,24,43,289,37,28,35,063,17,30,08,110,19*79

[1499588870677]$GPGLL,5358.22819,N,02733.59186,E,052750.00,A,A*61

[1499588871677]$GPRMC,052751.00,A,5358.22716,N,02733.56654,E,53.999,265.95,090717,,,A*5A

[1499588871677]$GPVTG,265.95,T,,M,53.999,N,100.006,K,A*08

[1499588871677]$GPGGA,052751.00,5358.22716,N,02733.56654,E,1,11,0.79,217.0,M,24.8,M,,*56

[1499588871677]$GPGSA,A,3,10,24,01,30,17,13,19,18,28,15,12,,1.58,0.79,1.37*08

[1499588871677]$GPGSV,3,1,12,01,13,046,33,10,13,324,25,11,,,20,12,16,239,29*4D

[1499588871677]$GPGSV,3,2,12,13,41,183,27,15,52,240,41,17,52,109,39,18,13,297,30*74

[1499588871677]$GPGSV,3,3,12,19,41,145,37,24,43,289,37,28,35,063,16,30,08,110,19*78

[1499588871677]$GPGLL,5358.22716,N,02733.56654,E,052751.00,A,A*67

[1499588872677]$GPRMC,052752.00,A,5358.22609,N,02733.54118,E,54.053,265.88,090717,,,A*5F

[1499588872677]$GPVTG,265.88,T,,M,54.053,N,100.106,K,A*0D

[1499588872677]$GPGGA,052752.00,5358.22609,N,02733.54118,E,1,11,0.79,217.0,M,24.8,M,,*57

[1499588872677]$GPGSA,A,3,10,24,01,30,17,13,19,18,28,15,12,,1.58,0.79,1.37*08

[1499588872677]$GPGSV,3,1,12,01,13,046,30,10,13,324,25,11,,,19,12,16,239,30*4C

[1499588872677]$GPGSV,3,2,12,13,41,183,26,15,52,240,41,17,52,109,39,18,13,297,35*70

[1499588872677]$GPGSV,3,3,12,19,41,145,37,24,43,289,37,28,35,063,15,30,08,110,19*7B

[1499588872677]$GPGLL,5358.22609,N,02733.54118,E,052752.00,A,A*66

[1499588873680]$GPRMC,052753.00,A,5358.22495,N,02733.51583,E,54.100,265.69,090717,,,A*52

[1499588873680]$GPVTG,265.69,T,,M,54.100,N,100.192,K,A*08

[1499588873680]$GPGGA,052753.00,5358.22495,N,02733.51583,E,1,11,0.86,217.0,M,24.8,M,,*52

[1499588873680]$GPGSA,A,3,10,24,01,30,17,13,19,18,28,15,12,,1.67,0.86,1.43*07

[1499588873680]$GPGSV,3,1,12,01,13,046,31,10,13,324,25,11,,,30,12,16,239,30*46

[1499588873680]$GPGSV,3,2,12,13,41,183,27,15,52,240,41,17,52,109,38,18,13,297,30*75

[1499588873680]$GPGSV,3,3,12,19,41,145,36,24,43,289,37,28,35,063,15,30,08,110,20*70

[1499588873680]$GPGLL,5358.22495,N,02733.51583,E,052753.00,A,A*63

[1499588874676]$GPRMC,052754.00,A,5358.22390,N,02733.49051,E,54.038,266.00,090717,,,A*52

[1499588874676]$GPVTG,266.00,T,,M,54.038,N,100.078,K,A*0B

[1499588874676]$GPGGA,052754.00,5358.22390,N,02733.49051,E,1,11,0.79,217.1,M,24.8,M,,*55

[1499588874676]$GPGSA,A,3,10,24,01,30,17,13,19,18,28,15,12,,1.58,0.79,1.37*08

[1499588874676]$GPGSV,3,1,12,01,13,046,26,10,13,324,25,11,,,29,12,16,239,29*40

[1499588874676]$GPGSV,3,2,12,13,41,183,26,15,52,240,41,17,52,109,38,18,13,297,30*74

[1499588874676]$GPGSV,3,3,12,19,41,145,37,24,43,289,37,28,35,063,15,30,08,110,20*71

[1499588874676]$GPGLL,5358.22390,N,02733.49051,E,052754.00,A,A*65

[1499588875677]$GPRMC,052755.00,A,5358.22284,N,02733.46518,E,54.080,265.81,090717,,,A*59

[1499588875677]$GPVTG,265.81,T,,M,54.080,N,100.156,K,A*0F

[1499588875677]$GPGGA,052755.00,5358.22284,N,02733.46518,E,1,11,0.79,217.1,M,24.8,M,,*57

[1499588875677]$GPGSA,A,3,10,24,01,30,17,13,19,18,28,15,12,,1.58,0.79,1.37*08

[1499588875677]$GPGSV,3,1,12,01,13,046,31,10,13,324,22,11,,,33,12,16,239,28*4B

[1499588875677]$GPGSV,3,2,12,13,41,183,26,15,52,240,41,17,52,109,38,18,13,297,26*73

[1499588875677]$GPGSV,3,3,12,19,41,145,37,24,43,289,37,28,35,063,14,30,08,110,21*71

[1499588875677]$GPGLL,5358.22284,N,02733.46518,E,052755.00,A,A*67

[1499588876676]$GPRMC,052756.00,A,5358.22172,N,02733.43983,E,54.113,265.63,090717,,,A*5C

[1499588876676]$GPVTG,265.63,T,,M,54.113,N,100.217,K,A*0E

[1499588876676]$GPGGA,052756.00,5358.22172,N,02733.43983,E,1,11,0.79,217.3,M,24.8,M,,*57

[1499588876676]$GPGSA,A,3,10,24,01,30,17,13,19,18,28,15,12,,1.58,0.79,1.37*08

[1499588876676]$GPGSV,3,1,12,01,13,046,31,10,13,324,22,11,,,17,12,16,239,28*4D

[1499588876676]$GPGSV,3,2,12,13,41,183,26,15,52,240,41,17,52,109,38,18,13,297,31*75

[1499588876676]$GPGSV,3,3,12,19,41,145,37,24,43,289,37,28,35,063,14,30,08,110,20*70

[1499588876676]$GPGLL,5358.22172,N,02733.43983,E,052756.00,A,A*65

[1499588877677]$GPRMC,052757.00,A,5358.22062,N,02733.41452,E,54.037,265.69,090717,,,A*53

[1499588877677]$GPVTG,265.69,T,,M,54.037,N,100.077,K,A*07

[1499588877677]$GPGGA,052757.00,5358.22062,N,02733.41452,E,1,11,0.79,217.4,M,24.8,M,,*52

[1499588877677]$GPGSA,A,3,10,24,01,30,17,13,19,18,28,15,12,,1.58,0.79,1.37*08

[1499588877677]$GPGSV,3,1,12,01,13,046,25,10,13,324,21,11,,,28,12,16,239,28*47

[1499588877677]$GPGSV,3,2,12,13,41,183,26,15,52,240,41,17,52,109,38,18,13,297,25*70

[1499588877677]$GPGSV,3,3,12,19,41,145,37,24,43,289,37,28,35,063,16,30,08,110,20*72

[1499588877677]$GPGLL,5358.22062,N,02733.41452,E,052757.00,A,A*67

[1499588878677]$GPRMC,052758.00,A,5358.21957,N,02733.38918,E,54.119,265.87,090717,,,A*50

[1499588878677]$GPVTG,265.87,T,,M,54.119,N,100.229,K,A*03

[1499588878677]$GPGGA,052758.00,5358.21957,N,02733.38918,E,1,11,0.79,217.4,M,24.8,M,,*5C

[1499588878677]$GPGSA,A,3,10,24,01,30,17,13,19,18,28,15,12,,1.58,0.79,1.37*08

[1499588878677]$GPGSV,3,1,12,01,13,046,27,10,13,324,20,11,,,29,12,16,239,28*45

[1499588878677]$GPGSV,3,2,12,13,41,183,26,15,52,240,41,17,52,109,38,18,13,297,34*70

[1499588878677]$GPGSV,3,3,12,19,41,145,37,24,43,289,37,28,35,063,17,30,08,110,20*73

[1499588878677]$GPGLL,5358.21957,N,02733.38918,E,052758.00,A,A*69

[1499588879677]$GPRMC,052759.00,A,5358.21859,N,02733.36385,E,54.168,266.15,090717,,,A*50

[1499588879677]$GPVTG,266.15,T,,M,54.168,N,100.320,K,A*05

[1499588879677]$GPGGA,052759.00,5358.21859,N,02733.36385,E,1,11,0.86,217.6,M,24.8,M,,*50

[1499588879677]$GPGSA,A,3,10,24,01,30,17,13,19,18,28,15,12,,1.67,0.86,1.43*07

[1499588879677]$GPGSV,3,1,12,01,13,046,32,10,13,324,24,11,,,28,12,16,239,29*45

[1499588879677]$GPGSV,3,2,12,13,41,183,27,15,52,240,41,17,52,109,39,18,13,297,26*73

[1499588879677]$GPGSV,3,3,12,19,41,145,37,24,43,289,37,28,35,063,16,30,08,110,18*79

[1499588879677]$GPGLL,5358.21859,N,02733.36385,E,052759.00,A,A*67

[1499588880677]$GPRMC,052800.00,A,5358.21762,N,02733.33849,E,54.095,266.18,090717,,,A*54

[1499588880677]$GPVTG,266.18,T,,M,54.095,N,100.184,K,A*07

[1499588880677]$GPGGA,052800.00,5358.21762,N,02733.33849,E,1,11,0.86,217.7,M,24.8,M,,*5B

[1499588880677]$GPGSA,A,3,10,24,01,30,17,13,19,18,28,15,12,,1.67,0.86,1.43*07

[1499588880677]$GPGSV,3,1,12,01,13,046,33,10,13,324,25,11,,,28,12,16,239,29*45

[1499588880677]$GPGSV,3,2,12,13,41,183,27,15,52,240,41,17,52,109,38,18,13,297,31*74

[1499588880677]$GPGSV,3,3,12,19,41,145,37,24,43,289,37,28,35,063,16,30,08,110,18*79

[1499588880677]$GPGLL,5358.21762,N,02733.33849,E,052800.00,A,A*6D

[1499588881677]$GPRMC,052801.00,A,5358.21663,N,02733.31313,E,54.150,266.13,090717,,,A*50

[1499588881677]$GPVTG,266.13,T,,M,54.150,N,100.285,K,A*06

[1499588881677]$GPGGA,052801.00,5358.21663,N,02733.31313,E,1,11,0.79,217.8,M,24.8,M,,*53

[1499588881677]$GPGSA,A,3,10,24,01,30,17,13,19,18,28,15,12,,1.58,0.79,1.37*08

[1499588881677]$GPGSV,3,1,12,01,13,046,27,10,13,324,25,11,,,32,12,16,239,29*4B

[1499588881677]$GPGSV,3,2,12,13,41,183,26,15,52,240,41,17,52,109,39,18,13,297,25*71

[1499588881677]$GPGSV,3,3,12,19,41,145,37,24,43,289,37,28,35,063,15,30,08,110,19*7B

[1499588881677]$GPGLL,5358.21663,N,02733.31313,E,052801.00,A,A*6A

[1499588882677]$GPRMC,052802.00,A,5358.21558,N,02733.28775,E,54.118,265.82,090717,,,A*53

[1499588882677]$GPVTG,265.82,T,,M,54.118,N,100.227,K,A*09

[1499588882677]$GPGGA,052802.00,5358.21558,N,02733.28775,E,1,11,0.79,217.9,M,24.8,M,,*56

[1499588882677]$GPGSA,A,3,10,24,01,30,17,13,19,18,28,15,12,,1.58,0.79,1.37*08

[1499588882677]$GPGSV,3,1,12,01,13,046,28,10,13,324,25,11,,,28,12,16,239,29*4F

[1499588882677]$GPGSV,3,2,12,13,41,183,25,15,52,240,41,17,52,109,39,18,13,297,25*72

[1499588882677]$GPGSV,3,3,12,19,41,145,37,24,43,289,37,28,35,063,14,30,08,110,20*70

[1499588882677]$GPGLL,5358.21558,N,02733.28775,E,052802.00,A,A*6E

[1499588883677]$GPRMC,052803.00,A,5358.21461,N,02733.26250,E,53.824,266.30,090717,,,A*5E

[1499588883677]$GPVTG,266.30,T,,M,53.824,N,99.682,K,A*38

[1499588883677]$GPGGA,052803.00,5358.21461,N,02733.26250,E,1,11,0.79,217.4,M,24.8,M,,*5D

[1499588883677]$GPGSA,A,3,10,24,01,30,17,13,19,18,28,15,12,,1.58,0.79,1.37*08

[1499588883677]$GPGSV,3,1,12,01,13,046,27,10,13,324,24,11,,,28,12,16,239,29*41

[1499588883677]$GPGSV,3,2,12,13,41,183,24,15,52,240,41,17,52,109,39,18,13,297,23*75

[1499588883677]$GPGSV,3,3,12,19,41,145,37,24,43,289,37,28,35,063,13,30,08,110,21*76

[1499588883677]$GPGLL,5358.21461,N,02733.26250,E,052803.00,A,A*68

[1499588884679]$GPRMC,052804.00,A,5358.21354,N,02733.23714,E,54.054,265.84,090717,,,A*5C

[1499588884679]$GPVTG,265.84,T,,M,54.054,N,100.108,K,A*08

[1499588884679]$GPGGA,052804.00,5358.21354,N,02733.23714,E,1,11,0.79,217.6,M,24.8,M,,*59

[1499588884679]$GPGSA,A,3,10,24,01,30,17,13,19,18,28,15,12,,1.58,0.79,1.37*08

[1499588884679]$GPGSV,3,1,12,01,13,046,32,10,13,324,23,11,,,29,12,16,239,28*42

[1499588884679]$GPGSV,3,2,12,13,41,183,24,15,52,240,41,17,52,109,38,18,13,297,21*76

[1499588884679]$GPGSV,3,3,12,19,41,145,37,24,43,289,37,28,35,063,14,30,08,110,21*71

[1499588884679]$GPGLL,5358.21354,N,02733.23714,E,052804.00,A,A*6E

[1499588885677]$GPRMC,052805.00,A,5358.21240,N,02733.21178,E,54.041,265.67,090717,,,A*5E

[1499588885677]$GPVTG,265.67,T,,M,54.041,N,100.084,K,A*04

[1499588885677]$GPGGA,052805.00,5358.21240,N,02733.21178,E,1,11,0.79,217.5,M,24.8,M,,*51

[1499588885677]$GPGSA,A,3,10,24,01,30,17,13,19,18,28,15,12,,1.58,0.79,1.37*08

[1499588885677]$GPGSV,3,1,12,01,13,046,26,10,13,324,22,11,,,29,12,16,239,29*47

[1499588885677]$GPGSV,3,2,12,13,41,183,25,15,51,239,41,17,52,109,38,18,13,297,22*79

[1499588885677]$GPGSV,3,3,12,19,41,145,37,24,43,289,37,28,35,063,15,30,08,110,20*71

[1499588885677]$GPGLL,5358.21240,N,02733.21178,E,052805.00,A,A*65

[1499588886677]$GPRMC,052806.00,A,5358.21122,N,02733.18642,E,54.095,265.41,090717,,,A*53

[1499588886677]$GPVTG,265.41,T,,M,54.095,N,100.184,K,A*08

[1499588886677]$GPGGA,052806.00,5358.21122,N,02733.18642,E,1,11,0.79,217.6,M,24.8,M,,*52

[1499588886677]$GPGSA,A,3,10,24,01,30,17,13,19,18,28,15,12,,1.58,0.79,1.37*08

[1499588886677]$GPGSV,3,1,12,01,13,046,25,10,13,324,21,11,,,27,12,16,239,28*48

[1499588886677]$GPGSV,3,2,12,13,41,183,26,15,51,239,41,17,52,109,38,18,13,297,33*7A

[1499588886677]$GPGSV,3,3,12,19,41,145,37,24,43,289,37,28,35,063,15,30,08,110,21*70

[1499588886677]$GPGLL,5358.21122,N,02733.18642,E,052806.00,A,A*65

[1499588887677]$GPRMC,052807.00,A,5358.21011,N,02733.16109,E,54.036,265.83,090717,,,A*52

[1499588887677]$GPVTG,265.83,T,,M,54.036,N,100.074,K,A*01

[1499588887677]$GPGGA,052807.00,5358.21011,N,02733.16109,E,1,11,0.79,217.7,M,24.8,M,,*55

[1499588887677]$GPGSA,A,3,10,24,01,30,17,13,19,18,28,15,12,,1.58,0.79,1.37*08

[1499588887677]$GPGSV,3,1,12,01,13,046,23,10,13,324,25,11,,,27,12,16,239,28*4A

[1499588887677]$GPGSV,3,2,12,13,41,183,27,15,51,239,41,17,52,108,39,18,13,297,33*7B

[1499588887677]$GPGSV,3,3,12,19,41,145,37,24,43,289,37,28,35,063,15,30,08,110,20*71

[1499588887677]$GPGLL,5358.21011,N,02733.16109,E,052807.00,A,A*63

[1499588888676]$GPRMC,052808.00,A,5358.20906,N,02733.13576,E,54.019,265.92,090717,,,A*57

[1499588888676]$GPVTG,265.92,T,,M,54.019,N,100.043,K,A*08

[1499588888676]$GPGGA,052808.00,5358.20906,N,02733.13576,E,1,11,0.79,217.9,M,24.8,M,,*53

[1499588888676]$GPGSA,A,3,10,24,01,30,17,13,19,18,28,15,12,,1.58,0.79,1.37*08

[1499588888676]$GPGSV,3,1,12,01,13,046,23,10,13,324,25,11,,,32,12,16,239,28*4E

[1499588888676]$GPGSV,3,2,12,13,41,183,27,15,51,239,41,17,52,108,39,18,13,297,28*71

[1499588888676]$GPGSV,3,3,12,19,41,145,37,24,43,289,37,28,35,063,12,30,08,110,20*76

[1499588888676]$GPGLL,5358.20906,N,02733.13576,E,052808.00,A,A*6B

[1499588889676]$GPRMC,052809.00,A,5358.20797,N,02733.11044,E,54.007,265.82,090717,,,A*58

[1499588889676]$GPVTG,265.82,T,,M,54.007,N,100.021,K,A*02

[1499588889676]$GPGGA,052809.00,5358.20797,N,02733.11044,E,1,11,0.79,218.0,M,24.8,M,,*54

[1499588889676]$GPGSA,A,3,10,24,01,30,17,13,19,18,28,15,12,,1.58,0.79,1.37*08

[1499588889676]$GPGSV,3,1,12,01,13,046,30,10,13,324,25,11,,,32,12,16,239,28*4C

[1499588889676]$GPGSV,3,2,12,13,41,183,27,15,51,239,41,17,52,108,39,18,13,297,36*7E

[1499588889676]$GPGSV,3,3,12,19,41,145,37,24,43,289,37,28,35,063,11,30,08,110,18*7E

[1499588889676]$GPGLL,5358.20797,N,02733.11044,E,052809.00,A,A*6A

[1499588890678]$GPRMC,052810.00,A,5358.20686,N,02733.08510,E,54.074,265.76,090717,,,A*52

[1499588890678]$GPVTG,265.76,T,,M,54.074,N,100.144,K,A*0F

[1499588890678]$GPGGA,052810.00,5358.20686,N,02733.08510,E,1,11,0.79,218.1,M,24.8,M,,*50

[1499588890678]$GPGSA,A,3,10,24,01,30,17,13,19,18,28,15,12,,1.58,0.79,1.37*08

[1499588890678]$GPGSV,3,1,12,01,13,046,30,10,13,324,27,11,,,31,12,16,239,28*4D

[1499588890678]$GPGSV,3,2,12,13,41,183,27,15,51,239,41,17,52,108,38,18,13,297,32*7B

[1499588890678]$GPGSV,3,3,12,19,41,145,37,24,43,289,37,28,35,063,11,30,08,110,18*7E

[1499588890678]$GPGLL,5358.20686,N,02733.08510,E,052810.00,A,A*6F

[1499588891677]$GPRMC,052811.00,A,5358.20572,N,02733.05972,E,54.044,265.68,090717,,,A*52

[1499588891677]$GPVTG,265.68,T,,M,54.044,N,100.090,K,A*0B

[1499588891677]$GPGGA,052811.00,5358.20572,N,02733.05972,E,1,11,0.79,218.3,M,24.8,M,,*5E

[1499588891677]$GPGSA,A,3,10,24,01,30,17,13,19,18,28,15,12,,1.58,0.79,1.37*08

[1499588891677]$GPGSV,3,1,12,01,13,046,29,10,13,324,25,11,,,32,12,16,239,28*44

[1499588891677]$GPGSV,3,2,12,13,41,183,27,15,51,239,41,17,52,108,38,18,13,297,34*7D

[1499588891677]$GPGSV,3,3,12,19,41,145,37,24,43,289,37,28,35,063,11,30,08,110,18*7E

[1499588891677]$GPGLL,5358.20572,N,02733.05972,E,052811.00,A,A*63

[1499588892676]$GPRMC,052812.00,A,5358.20455,N,02733.03434,E,54.068,265.64,090717,,,A*5E

[1499588892676]$GPVTG,265.64,T,,M,54.068,N,100.135,K,A*07

[1499588892676]$GPGGA,052812.00,5358.20455,N,02733.03434,E,1,11,0.79,218.4,M,24.8,M,,*57

[1499588892676]$GPGSA,A,3,10,24,01,30,17,13,19,18,28,15,12,,1.58,0.79,1.37*08

[1499588892676]$GPGSV,3,1,12,01,13,046,34,10,13,324,26,11,,,32,12,16,239,28*4B

[1499588892676]$GPGSV,3,2,12,13,41,183,27,15,51,239,41,17,52,108,38,18,13,297,35*7C

[1499588892676]$GPGSV,3,3,12,19,41,145,37,24,43,289,37,28,35,063,11,30,08,110,18*7E

[1499588892676]$GPGLL,5358.20455,N,02733.03434,E,052812.00,A,A*6D

[1499588893677]$GPRMC,052813.00,A,5358.20342,N,02733.00896,E,54.059,265.69,090717,,,A*56

[1499588893677]$GPVTG,265.69,T,,M,54.059,N,100.117,K,A*08

[1499588893677]$GPGGA,052813.00,5358.20342,N,02733.00896,E,1,11,0.79,218.7,M,24.8,M,,*53

[1499588893677]$GPGSA,A,3,10,24,01,30,17,13,19,18,28,15,12,,1.58,0.79,1.37*08

[1499588893677]$GPGSV,3,1,12,01,13,046,30,10,13,324,26,11,,,33,12,16,239,28*4E

[1499588893677]$GPGSV,3,2,12,13,41,183,27,15,51,239,41,17,52,108,38,18,13,297,34*7D

[1499588893677]$GPGSV,3,3,12,19,41,145,37,24,43,289,37,28,35,063,11,30,08,110,19*7F

[1499588893677]$GPGLL,5358.20342,N,02733.00896,E,052813.00,A,A*6A

[1499588894677]$GPRMC,052814.00,A,5358.20224,N,02732.98355,E,54.057,265.75,090717,,,A*57

[1499588894677]$GPVTG,265.75,T,,M,54.057,N,100.114,K,A*08

[1499588894677]$GPGGA,052814.00,5358.20224,N,02732.98355,E,1,11,0.79,218.9,M,24.8,M,,*5F

[1499588894677]$GPGSA,A,3,10,24,01,30,17,13,19,18,28,15,12,,1.58,0.79,1.37*08

[1499588894677]$GPGSV,3,1,12,01,13,046,35,10,13,324,27,11,,,34,12,16,239,28*4D

[1499588894677]$GPGSV,3,2,12,13,41,183,26,15,51,239,41,17,52,108,38,18,13,297,34*7C

[1499588894677]$GPGSV,3,3,12,19,41,145,37,24,43,289,37,28,35,063,13,30,08,110,17*73

[1499588894677]$GPGLL,5358.20224,N,02732.98355,E,052814.00,A,A*68

[1499588895676]$GPRMC,052815.00,A,5358.20117,N,02732.95815,E,54.121,265.88,090717,,,A*55

[1499588895676]$GPVTG,265.88,T,,M,54.121,N,100.232,K,A*0D

[1499588895676]$GPGGA,052815.00,5358.20117,N,02732.95815,E,1,11,0.79,219.2,M,24.8,M,,*55

[1499588895676]$GPGSA,A,3,10,24,01,30,17,13,19,18,28,15,12,,1.58,0.79,1.37*08

[1499588895676]$GPGSV,3,1,12,01,13,046,34,10,13,324,27,11,,,35,12,16,239,28*4D

[1499588895676]$GPGSV,3,2,12,13,41,183,26,15,51,239,41,17,52,108,38,18,13,297,34*7C

[1499588895676]$GPGSV,3,3,12,19,41,145,38,24,43,289,37,28,35,063,13,30,08,110,17*7C

[1499588895676]$GPGLL,5358.20117,N,02732.95815,E,052815.00,A,A*68

[1499588896677]$GPRMC,052816.00,A,5358.20011,N,02732.93278,E,54.139,265.93,090717,,,A*55

[1499588896677]$GPVTG,265.93,T,,M,54.139,N,100.266,K,A*0F

[1499588896677]$GPGGA,052816.00,5358.20011,N,02732.93278,E,1,11,0.79,219.5,M,24.8,M,,*51

[1499588896677]$GPGSA,A,3,10,24,01,30,17,13,19,18,28,15,12,,1.58,0.79,1.37*08

[1499588896677]$GPGSV,3,1,12,01,13,046,33,10,13,324,26,11,,,34,12,16,239,29*4B

[1499588896677]$GPGSV,3,2,12,13,41,183,27,15,51,239,41,17,52,108,38,18,13,297,25*7D

[1499588896677]$GPGSV,3,3,12,19,41,145,37,24,43,289,37,28,35,063,13,30,08,110,17*73

[1499588896677]$GPGLL,5358.20011,N,02732.93278,E,052816.00,A,A*6B

[1499588897676]$GPRMC,052817.00,A,5358.19904,N,02732.90739,E,54.139,265.89,090717,,,A*5B

[1499588897676]$GPVTG,265.89,T,,M,54.139,N,100.266,K,A*04

[1499588897676]$GPGGA,052817.00,5358.19904,N,02732.90739,E,1,10,0.86,219.5,M,24.8,M,,*55

[1499588897676]$GPGSA,A,3,10,24,01,30,17,13,19,18,15,12,,,1.67,0.86,1.43*0D

[1499588897676]$GPGSV,3,1,12,01,13,046,33,10,13,324,26,11,,,34,12,16,239,29*4B

[1499588897676]$GPGSV,3,2,12,13,41,183,26,15,51,239,41,17,52,108,38,18,13,297,31*79

[1499588897676]$GPGSV,3,3,12,19,41,145,37,24,43,289,37,28,35,063,,30,08,110,17*71

[1499588897676]$GPGLL,5358.19904,N,02732.90739,E,052817.00,A,A*6E

[1499588898677]$GPRMC,052818.00,A,5358.19799,N,02732.88192,E,54.160,265.90,090717,,,A*54

[1499588898677]$GPVTG,265.90,T,,M,54.160,N,100.305,K,A*04

[1499588898677]$GPGGA,052818.00,5358.19799,N,02732.88192,E,1,10,0.86,219.8,M,24.8,M,,*53

[1499588898677]$GPGSA,A,3,10,24,01,30,17,13,19,18,15,12,,,1.67,0.86,1.43*0D

[1499588898677]$GPGSV,3,1,12,01,13,046,33,10,13,324,24,11,,,29,12,16,239,28*44

[1499588898677]$GPGSV,3,2,12,13,41,183,26,15,51,239,41,17,52,108,38,18,13,297,32*7A

[1499588898677]$GPGSV,3,3,12,19,41,145,38,24,43,289,37,28,34,063,,30,08,110,17*7F

[1499588898677]$GPGLL,5358.19799,N,02732.88192,E,052818.00,A,A*65

[1499588899677]$GPRMC,052819.00,A,5358.19686,N,02732.85647,E,54.259,265.88,090717,,,A*58

[1499588899677]$GPVTG,265.88,T,,M,54.259,N,100.487,K,A*09

[1499588899677]$GPGGA,052819.00,5358.19686,N,02732.85647,E,1,10,0.86,220.1,M,24.8,M,,*5C

[1499588899677]$GPGSA,A,3,10,24,01,30,17,13,19,18,15,12,,,1.67,0.86,1.43*0D

[1499588899677]$GPGSV,3,1,12,01,13,046,28,10,13,324,24,11,,,28,12,16,239,28*4F

[1499588899677]$GPGSV,3,2,12,13,41,183,26,15,51,239,41,17,52,108,38,18,13,297,35*7D

[1499588899677]$GPGSV,3,3,12,19,41,145,37,24,43,289,37,28,34,063,16,30,08,110,17*77

[1499588899677]$GPGLL,5358.19686,N,02732.85647,E,052819.00,A,A*69

[1499588900676]$GPRMC,052820.00,A,5358.19577,N,02732.83098,E,54.371,265.72,090717,,,A*53

[1499588900676]$GPVTG,265.72,T,,M,54.371,N,100.695,K,A*06

[1499588900676]$GPGGA,052820.00,5358.19577,N,02732.83098,E,1,10,0.86,220.1,M,24.8,M,,*59

[1499588900676]$GPGSA,A,3,10,24,01,30,17,13,19,18,15,12,,,1.67,0.86,1.43*0D

[1499588900676]$GPGSV,3,1,12,01,13,046,26,10,13,324,24,11,,,30,12,16,239,27*47

[1499588900676]$GPGSV,3,2,12,13,41,183,27,15,51,239,41,17,52,108,38,18,13,297,34*7D

[1499588900676]$GPGSV,3,3,12,19,41,145,38,24,43,289,37,28,34,063,16,30,08,110,18*77

[1499588900676]$GPGLL,5358.19577,N,02732.83098,E,052820.00,A,A*6C

[1499588901677]$GPRMC,052821.00,A,5358.19462,N,02732.80555,E,54.199,265.96,090717,,,A*5E

[1499588901677]$GPVTG,265.96,T,,M,54.199,N,100.376,K,A*00

[1499588901677]$GPGGA,052821.00,5358.19462,N,02732.80555,E,1,10,0.86,220.0,M,24.8,M,,*5B

[1499588901677]$GPGSA,A,3,10,24,01,30,17,13,19,18,15,12,,,1.67,0.86,1.43*0D

[1499588901677]$GPGSV,3,1,12,01,13,046,28,10,13,324,25,11,,,29,12,16,239,28*4F

[1499588901677]$GPGSV,3,2,12,13,41,183,27,15,51,239,41,17,52,108,38,18,13,297,30*79

[1499588901677]$GPGSV,3,3,12,19,41,145,37,24,43,289,38,28,34,063,18,30,08,110,18*79

[1499588901677]$GPGLL,5358.19462,N,02732.80555,E,052821.00,A,A*6F

[1499588902682]$GPRMC,052822.00,A,5358.19351,N,02732.78011,E,54.206,265.88,090717,,,A*52

[1499588902682]$GPVTG,265.88,T,,M,54.206,N,100.390,K,A*02

[1499588902682]$GPGGA,052822.00,5358.19351,N,02732.78011,E,1,11,0.79,219.9,M,24.8,M,,*5F

[1499588902682]$GPGSA,A,3,10,24,01,30,17,13,19,18,28,15,12,,1.58,0.79,1.37*08

[1499588902682]$GPGSV,3,1,12,01,13,046,32,10,13,324,24,11,,,34,12,16,239,28*49

[1499588902682]$GPGSV,3,2,12,13,41,183,28,15,51,239,41,17,52,108,38,18,13,297,34*72

[1499588902682]$GPGSV,3,3,12,19,41,145,37,24,43,289,37,28,34,063,19,30,08,110,18*77

[1499588902682]$GPGLL,5358.19351,N,02732.78011,E,052822.00,A,A*69

[1499588903677]$GPRMC,052823.00,A,5358.19240,N,02732.75472,E,54.256,265.85,090717,,,A*56

[1499588903677]$GPVTG,265.85,T,,M,54.256,N,100.481,K,A*0D

[1499588903677]$GPGGA,052823.00,5358.19240,N,02732.75472,E,1,11,0.79,219.9,M,24.8,M,,*53

[1499588903677]$GPGSA,A,3,10,24,01,30,17,13,19,18,28,15,12,,1.58,0.79,1.37*08

[1499588903677]$GPGSV,3,1,12,01,13,046,27,10,13,324,26,11,,,29,12,16,239,28*43

[1499588903677]$GPGSV,3,2,12,13,41,183,28,15,51,239,41,17,52,108,39,18,13,297,34*73

[1499588903677]$GPGSV,3,3,12,19,41,145,37,24,43,289,37,28,34,063,19,30,08,110,18*77

[1499588903677]$GPGLL,5358.19240,N,02732.75472,E,052823.00,A,A*65

[1499588904676]$GPRMC,052824.00,A,5358.19135,N,02732.72934,E,54.182,266.23,090717,,,A*5D

[1499588904676]$GPVTG,266.23,T,,M,54.182,N,100.345,K,A*07

[1499588904676]$GPGGA,052824.00,5358.19135,N,02732.72934,E,1,11,0.79,219.6,M,24.8,M,,*52

[1499588904676]$GPGSA,A,3,10,24,01,30,17,13,19,18,28,15,12,,1.58,0.79,1.37*08

[1499588904676]$GPGSV,3,1,12,01,13,046,28,10,13,324,25,11,,,29,12,16,239,29*4E

[1499588904676]$GPGSV,3,2,12,13,41,183,28,15,51,239,41,17,52,108,39,18,13,297,31*76

[1499588904676]$GPGSV,3,3,12,19,41,145,37,24,43,289,37,28,34,063,20,30,08,110,19*7C

[1499588904676]$GPGLL,5358.19135,N,02732.72934,E,052824.00,A,A*6B

[1499588905680]$GPRMC,052825.00,A,5358.19026,N,02732.70392,E,54.213,265.98,090717,,,A*53

[1499588905680]$GPVTG,265.98,T,,M,54.213,N,100.402,K,A*0B

[1499588905680]$GPGGA,052825.00,5358.19026,N,02732.70392,E,1,11,0.79,219.2,M,24.9,M,,*51

[1499588905680]$GPGSA,A,3,10,24,01,30,17,13,19,18,28,15,12,,1.58,0.79,1.37*08

[1499588905680]$GPGSV,3,1,12,01,13,046,28,10,13,324,25,11,,,29,12,16,239,31*47

[1499588905680]$GPGSV,3,2,12,13,41,183,28,15,51,239,41,17,52,108,39,18,13,297,30*77

[1499588905680]$GPGSV,3,3,12,19,41,145,37,24,43,289,37,28,34,063,21,30,08,110,19*7D

[1499588905680]$GPGLL,5358.19026,N,02732.70392,E,052825.00,A,A*6D

[1499588906677]$GPRMC,052826.00,A,5358.18910,N,02732.67844,E,54.260,265.84,090717,,,A*52

[1499588906677]$GPVTG,265.84,T,,M,54.260,N,100.490,K,A*09

[1499588906677]$GPGGA,052826.00,5358.18910,N,02732.67844,E,1,11,0.79,218.9,M,24.9,M,,*53

[1499588906677]$GPGSA,A,3,10,24,01,30,17,13,19,18,28,15,12,,1.58,0.79,1.37*08

[1499588906677]$GPGSV,3,1,12,01,13,046,33,10,13,324,24,11,,,34,12,16,239,30*41

[1499588906677]$GPGSV,3,2,12,13,41,183,28,15,51,239,41,17,52,108,39,18,13,297,31*76

[1499588906677]$GPGSV,3,3,12,19,41,145,37,24,43,289,37,28,34,063,21,30,08,110,20*77

[1499588906677]$GPGLL,5358.18910,N,02732.67844,E,052826.00,A,A*65

[1499588907677]$GPRMC,052827.00,A,5358.18792,N,02732.65300,E,54.189,265.60,090717,,,A*50

[1499588907677]$GPVTG,265.60,T,,M,54.189,N,100.358,K,A*04

[1499588907677]$GPGGA,052827.00,5358.18792,N,02732.65300,E,1,11,0.79,218.6,M,24.9,M,,*50

[1499588907677]$GPGSA,A,3,10,24,01,30,17,13,19,18,28,15,12,,1.58,0.79,1.37*08

[1499588907677]$GPGSV,3,1,12,01,13,046,32,10,13,324,23,11,,,30,12,16,239,30*43

[1499588907677]$GPGSV,3,2,12,13,41,183,27,15,51,239,41,17,52,108,39,18,13,297,30*78

[1499588907677]$GPGSV,3,3,12,19,41,145,37,24,43,289,37,28,34,063,21,30,08,110,19*7D

[1499588907677]$GPGLL,5358.18792,N,02732.65300,E,052827.00,A,A*69

[1499588908677]$GPRMC,052828.00,A,5358.18674,N,02732.62760,E,54.135,265.54,090717,,,A*53

[1499588908677]$GPVTG,265.54,T,,M,54.135,N,100.258,K,A*05

[1499588908677]$GPGGA,052828.00,5358.18674,N,02732.62760,E,1,11,0.79,218.4,M,24.9,M,,*51

[1499588908677]$GPGSA,A,3,10,24,01,30,17,13,19,18,28,15,12,,1.58,0.79,1.37*08

[1499588908677]$GPGSV,3,1,12,01,13,046,26,10,13,324,21,11,,,29,12,16,239,30*4C

[1499588908677]$GPGSV,3,2,12,13,41,183,27,15,51,239,41,17,52,108,39,18,13,297,33*7B

[1499588908677]$GPGSV,3,3,12,19,41,145,37,24,43,289,37,28,34,063,21,30,08,110,18*7C

[1499588908677]$GPGLL,5358.18674,N,02732.62760,E,052828.00,A,A*6A

[1499588909688]$GPRMC,052829.00,A,5358.18556,N,02732.60221,E,54.163,265.41,090717,,,A*54

[1499588909688]$GPVTG,265.41,T,,M,54.163,N,100.310,K,A*0F

[1499588909688]$GPGGA,052829.00,5358.18556,N,02732.60221,E,1,11,0.79,218.3,M,24.9,M,,*56

[1499588909688]$GPGSA,A,3,10,24,01,30,17,13,19,18,28,15,12,,1.58,0.79,1.37*08

[1499588909688]$GPGSV,3,1,12,01,13,046,27,10,13,324,22,11,,,30,12,16,239,29*4E

[1499588909688]$GPGSV,3,2,12,13,41,183,27,15,51,239,41,17,52,108,39,18,13,297,35*7D

[1499588909688]$GPGSV,3,3,12,19,41,145,37,24,43,289,37,28,34,063,20,30,08,110,16*73

[1499588909688]$GPGLL,5358.18556,N,02732.60221,E,052829.00,A,A*6A

[1499588910677]$GPRMC,052830.00,A,5358.18433,N,02732.57680,E,54.125,265.39,090717,,,A*58

[1499588910677]$GPVTG,265.39,T,,M,54.125,N,100.240,K,A*06

[1499588910677]$GPGGA,052830.00,5358.18433,N,02732.57680,E,1,11,0.79,218.5,M,24.9,M,,*51

[1499588910677]$GPGSA,A,3,10,24,01,30,17,13,19,18,28,15,12,,1.58,0.79,1.37*08

[1499588910677]$GPGSV,3,1,12,01,13,046,26,10,13,324,25,11,,,34,12,16,239,29*4C

[1499588910677]$GPGSV,3,2,12,13,41,183,27,15,51,239,41,17,52,108,38,18,13,297,35*7C

[1499588910677]$GPGSV,3,3,12,19,41,145,37,24,43,289,37,28,34,063,19,30,08,110,15*7A

[1499588910677]$GPGLL,5358.18433,N,02732.57680,E,052830.00,A,A*6B

[1499588911677]$GPRMC,052831.00,A,5358.18312,N,02732.55139,E,54.050,265.52,090717,,,A*54

[1499588911677]$GPVTG,265.52,T,,M,54.050,N,100.100,K,A*0F

[1499588911677]$GPGGA,052831.00,5358.18312,N,02732.55139,E,1,11,0.79,218.5,M,24.9,M,,*53

[1499588911677]$GPGSA,A,3,10,24,01,30,17,13,19,18,28,15,12,,1.58,0.79,1.37*08

[1499588911677]$GPGSV,3,1,12,01,13,046,32,10,13,324,26,11,,,33,12,16,239,28*4C

[1499588911677]$GPGSV,3,2,12,13,41,183,26,15,51,239,41,17,52,108,38,18,13,297,35*7D

[1499588911677]$GPGSV,3,3,12,19,41,145,37,24,43,289,37,28,34,063,16,30,08,110,15*75

[1499588911677]$GPGLL,5358.18312,N,02732.55139,E,052831.00,A,A*69

[1499588912677]$GPRMC,052832.00,A,5358.18195,N,02732.52601,E,53.988,265.72,090717,,,A*58

[1499588912677]$GPVTG,265.72,T,,M,53.988,N,99.985,K,A*32

[1499588912677]$GPGGA,052832.00,5358.18195,N,02732.52601,E,1,11,0.79,218.5,M,24.9,M,,*56

[1499588912677]$GPGSA,A,3,10,24,01,30,17,13,19,18,28,15,12,,1.58,0.79,1.37*08

[1499588912677]$GPGSV,3,1,12,01,13,046,32,10,13,324,27,11,,,33,12,16,239,27*42

[1499588912677]$GPGSV,3,2,12,13,41,183,25,15,51,239,41,17,52,108,38,18,13,297,35*7E

[1499588912677]$GPGSV,3,3,12,19,41,145,37,24,43,289,37,28,34,063,12,30,08,110,15*71

[1499588912677]$GPGLL,5358.18195,N,02732.52601,E,052832.00,A,A*6C

[1499588913676]$GPRMC,052833.00,A,5358.18084,N,02732.50069,E,53.977,265.92,090717,,,A*5C

[1499588913676]$GPVTG,265.92,T,,M,53.977,N,99.965,K,A*32

[1499588913676]$GPGGA,052833.00,5358.18084,N,02732.50069,E,1,10,0.86,218.6,M,24.9,M,,*5E

[1499588913676]$GPGSA,A,3,10,24,01,30,17,13,19,18,15,12,,,1.66,0.86,1.42*0D

[1499588913676]$GPGSV,3,1,12,01,13,046,32,10,13,324,28,11,,,33,12,16,239,28*42

[1499588913676]$GPGSV,3,2,12,13,41,183,25,15,51,239,41,17,52,108,39,18,13,297,35*7F

[1499588913676]$GPGSV,3,3,12,19,41,145,37,24,43,289,37,28,34,063,08,30,08,110,17*78

[1499588913676]$GPGLL,5358.18084,N,02732.50069,E,052833.00,A,A*66

[1499588914676]$GPRMC,052834.00,A,5358.17983,N,02732.47535,E,53.923,266.16,090717,,,A*5E

[1499588914676]$GPVTG,266.16,T,,M,53.923,N,99.865,K,A*3D

[1499588914676]$GPGGA,052834.00,5358.17983,N,02732.47535,E,1,10,0.86,218.9,M,24.9,M,,*5D

[1499588914676]$GPGSA,A,3,10,24,01,30,17,13,19,18,15,12,,,1.66,0.86,1.42*0D

[1499588914676]$GPGSV,3,1,12,01,13,046,32,10,13,324,29,11,,,34,12,16,239,29*45

[1499588914676]$GPGSV,3,2,12,13,41,183,25,15,51,239,41,17,52,108,38,18,13,297,35*7E

[1499588914676]$GPGSV,3,3,12,19,41,145,37,24,43,289,37,28,34,063,09,30,08,110,17*79

[1499588914676]$GPGLL,5358.17983,N,02732.47535,E,052834.00,A,A*6A

[1499588915677]$GPRMC,052835.00,A,5358.17883,N,02732.45004,E,53.883,266.17,090717,,,A*51

[1499588915677]$GPVTG,266.17,T,,M,53.883,N,99.790,K,A*32

[1499588915677]$GPGGA,052835.00,5358.17883,N,02732.45004,E,1,11,0.79,219.2,M,24.9,M,,*53

[1499588915677]$GPGSA,A,3,10,24,01,30,17,13,19,18,28,15,12,,1.58,0.79,1.37*08

[1499588915677]$GPGSV,3,1,12,01,13,046,32,10,13,324,29,11,,,34,12,16,239,29*45

[1499588915677]$GPGSV,3,2,12,13,41,183,26,15,51,239,41,17,52,108,39,18,13,297,34*7D

[1499588915677]$GPGSV,3,3,12,19,41,145,37,24,43,289,37,28,34,063,11,30,08,110,17*70

[1499588915677]$GPGLL,5358.17883,N,02732.45004,E,052835.00,A,A*6F

[1499588916689]$GPRMC,052836.00,A,5358.17780,N,02732.42475,E,53.927,265.87,090717,,,A*5E

[1499588916689]$GPVTG,265.87,T,,M,53.927,N,99.873,K,A*35

[1499588916689]$GPGGA,052836.00,5358.17780,N,02732.42475,E,1,11,0.79,219.3,M,24.9,M,,*58

[1499588916689]$GPGSA,A,3,10,24,01,30,17,13,19,18,28,15,12,,1.58,0.79,1.37*08

[1499588916689]$GPGSV,3,1,12,01,13,046,36,10,13,324,28,11,,,34,12,16,239,29*40

[1499588916689]$GPGSV,3,2,12,13,41,183,26,15,51,239,41,17,52,108,38,18,13,297,34*7C

[1499588916689]$GPGSV,3,3,12,19,41,145,37,24,43,289,37,28,34,063,12,30,08,110,17*73

[1499588916689]$GPGLL,5358.17780,N,02732.42475,E,052836.00,A,A*65

[1499588917677]$GPRMC,052837.00,A,5358.17673,N,02732.39944,E,53.879,265.78,090717,,,A*5B

[1499588917677]$GPVTG,265.78,T,,M,53.879,N,99.783,K,A*3F

[1499588917677]$GPGGA,052837.00,5358.17673,N,02732.39944,E,1,11,0.79,219.7,M,24.9,M,,*53

[1499588917677]$GPGSA,A,3,10,24,01,30,17,13,19,18,28,15,12,,1.58,0.79,1.37*08

[1499588917677]$GPGSV,3,1,12,01,13,046,34,10,13,324,28,11,,,33,12,16,239,30*4D

[1499588917677]$GPGSV,3,2,12,13,41,183,26,15,51,239,41,17,52,108,38,18,13,297,34*7C

[1499588917677]$GPGSV,3,3,12,19,41,145,37,24,43,289,36,28,34,063,13,30,08,110,18*7C

[1499588917677]$GPGLL,5358.17673,N,02732.39944,E,052837.00,A,A*6A

[1499588918677]$GPRMC,052838.00,A,5358.17559,N,02732.37417,E,53.824,265.55,090717,,,A*5D

[1499588918677]$GPVTG,265.55,T,,M,53.824,N,99.682,K,A*38

[1499588918677]$GPGGA,052838.00,5358.17559,N,02732.37417,E,1,11,0.79,220.0,M,24.9,M,,*5F

[1499588918677]$GPGSA,A,3,10,24,01,30,17,13,19,18,28,15,12,,1.58,0.79,1.37*08

[1499588918677]$GPGSV,3,1,12,01,13,046,34,10,13,324,27,11,,,33,12,16,239,29*4A

[1499588918677]$GPGSV,3,2,12,13,41,183,26,15,51,239,41,17,52,108,38,18,13,297,34*7C

[1499588918677]$GPGSV,3,3,12,19,41,145,37,24,43,289,37,28,34,063,13,30,08,110,20*76

[1499588918677]$GPGLL,5358.17559,N,02732.37417,E,052838.00,A,A*6B

[1499588919677]$GPRMC,052839.00,A,5358.17448,N,02732.34891,E,53.848,265.62,090717,,,A*52

[1499588919677]$GPVTG,265.62,T,,M,53.848,N,99.727,K,A*38

[1499588919677]$GPGGA,052839.00,5358.17448,N,02732.34891,E,1,11,0.79,220.3,M,24.9,M,,*5D

[1499588919677]$GPGSA,A,3,10,24,01,30,17,13,19,18,28,15,12,,1.58,0.79,1.37*08

[1499588919677]$GPGSV,3,1,12,01,13,046,33,10,13,323,27,11,,,33,12,16,239,29*4A

[1499588919677]$GPGSV,3,2,12,13,41,183,26,15,51,239,41,17,52,108,37,18,13,297,34*73

[1499588919677]$GPGSV,3,3,12,19,41,145,37,24,43,289,37,28,34,063,11,30,08,110,20*74

[1499588919677]$GPGLL,5358.17448,N,02732.34891,E,052839.00,A,A*6A

[1499588920676]$GPRMC,052840.00,A,5358.17339,N,02732.32363,E,53.946,265.70,090717,,,A*51

[1499588920676]$GPVTG,265.70,T,,M,53.946,N,99.909,K,A*36

[1499588920676]$GPGGA,052840.00,5358.17339,N,02732.32363,E,1,11,0.79,220.6,M,24.9,M,,*57

[1499588920676]$GPGSA,A,3,10,24,01,30,17,13,19,18,28,15,12,,1.58,0.79,1.37*08

[1499588920676]$GPGSV,3,1,12,01,13,046,34,10,13,323,27,11,,,33,12,16,239,29*4D

[1499588920676]$GPGSV,3,2,12,13,41,183,25,15,51,239,41,17,52,108,38,18,13,297,34*7F

[1499588920676]$GPGSV,3,3,12,19,41,145,37,24,43,289,37,28,34,063,13,30,08,110,20*76

[1499588920676]$GPGLL,5358.17339,N,02732.32363,E,052840.00,A,A*65

[1499588921676]$GPRMC,052841.00,A,5358.17229,N,02732.29828,E,54.039,265.84,090717,,,A*53

[1499588921676]$GPVTG,265.84,T,,M,54.039,N,100.081,K,A*03

[1499588921676]$GPGGA,052841.00,5358.17229,N,02732.29828,E,1,11,0.79,220.8,M,24.9,M,,*56

[1499588921676]$GPGSA,A,3,10,24,01,30,17,13,19,18,28,15,12,,1.58,0.79,1.37*08

[1499588921676]$GPGSV,3,1,12,01,13,046,33,10,13,323,28,11,,,34,12,16,239,30*4A

[1499588921676]$GPGSV,3,2,12,13,41,183,25,15,51,239,41,17,52,108,38,18,13,297,35*7E

[1499588921676]$GPGSV,3,3,12,19,41,145,37,24,43,289,37,28,34,063,14,30,08,110,20*71

[1499588921676]$GPGLL,5358.17229,N,02732.29828,E,052841.00,A,A*6A

[1499588922677]$GPRMC,052842.00,A,5358.17124,N,02732.27291,E,54.036,265.99,090717,,,A*5B

[1499588922677]$GPVTG,265.99,T,,M,54.036,N,100.075,K,A*0B

[1499588922677]$GPGGA,052842.00,5358.17124,N,02732.27291,E,1,11,0.79,221.0,M,24.9,M,,*54

[1499588922677]$GPGSA,A,3,10,24,01,30,17,13,19,18,28,15,12,,1.58,0.79,1.37*08

[1499588922677]$GPGSV,3,1,12,01,13,046,33,10,13,323,29,11,,,34,12,16,239,29*43

[1499588922677]$GPGSV,3,2,12,13,41,183,25,15,51,239,41,17,52,108,38,18,13,297,34*7F

[1499588922677]$GPGSV,3,3,12,19,41,145,37,24,43,289,37,28,34,063,14,30,08,110,19*7B

[1499588922677]$GPGLL,5358.17124,N,02732.27291,E,052842.00,A,A*61

[1499588923676]$GPRMC,052843.00,A,5358.17021,N,02732.24754,E,54.110,265.94,090717,,,A*59

[1499588923676]$GPVTG,265.94,T,,M,54.110,N,100.212,K,A*00

[1499588923676]$GPGGA,052843.00,5358.17021,N,02732.24754,E,1,11,0.79,221.3,M,24.9,M,,*5D

[1499588923676]$GPGSA,A,3,10,24,01,30,17,13,19,18,28,15,12,,1.58,0.79,1.37*08

[1499588923676]$GPGSV,3,1,12,01,13,046,33,10,13,323,29,11,,,34,12,16,239,29*43

[1499588923676]$GPGSV,3,2,12,13,41,183,26,15,51,239,41,17,52,108,39,18,13,297,35*7C

[1499588923676]$GPGSV,3,3,12,19,41,145,37,24,43,289,37,28,34,063,15,30,08,110,19*7A

[1499588923676]$GPGLL,5358.17021,N,02732.24754,E,052843.00,A,A*6B

[1499588924677]$GPRMC,052844.00,A,5358.16915,N,02732.22215,E,54.125,265.89,090717,,,A*5D

[1499588924677]$GPVTG,265.89,T,,M,54.125,N,100.239,K,A*03

[1499588924677]$GPGGA,052844.00,5358.16915,N,02732.22215,E,1,11,0.79,221.5,M,24.9,M,,*55

[1499588924677]$GPGSA,A,3,10,24,01,30,17,13,19,18,28,15,12,,1.58,0.79,1.37*08

[1499588924677]$GPGSV,3,1,12,01,13,046,32,10,13,323,28,11,,,34,12,16,239,30*4B

[1499588924677]$GPGSV,3,2,12,13,41,183,26,15,51,239,41,17,52,108,39,18,13,297,33*7A

[1499588924677]$GPGSV,3,3,12,19,41,145,37,24,43,289,37,28,34,063,15,30,08,110,17*74

[1499588924677]$GPGLL,5358.16915,N,02732.22215,E,052844.00,A,A*65

[1499588925677]$GPRMC,052845.00,A,5358.16806,N,02732.19674,E,54.143,265.83,090717,,,A*5E

[1499588925677]$GPVTG,265.83,T,,M,54.143,N,100.274,K,A*00

[1499588925677]$GPGGA,052845.00,5358.16806,N,02732.19674,E,1,11,0.79,221.5,M,24.9,M,,*5C

[1499588925677]$GPGSA,A,3,10,24,01,30,17,13,19,18,28,15,12,,1.58,0.79,1.37*08

[1499588925677]$GPGSV,3,1,12,01,13,046,32,10,13,323,28,11,,,33,12,16,239,29*44

[1499588925677]$GPGSV,3,2,12,13,41,183,26,15,51,239,41,17,52,108,38,18,13,297,33*7B

[1499588925677]$GPGSV,3,3,12,19,41,145,37,24,43,289,37,28,34,063,15,30,08,110,18*7B

[1499588925677]$GPGLL,5358.16806,N,02732.19674,E,052845.00,A,A*6C

[1499588926678]$GPRMC,052846.00,A,5358.16694,N,02732.17133,E,54.157,265.80,090717,,,A*54

[1499588926678]$GPVTG,265.80,T,,M,54.157,N,100.299,K,A*05

[1499588926678]$GPGGA,052846.00,5358.16694,N,02732.17133,E,1,11,0.79,221.5,M,24.9,M,,*50

[1499588926678]$GPGSA,A,3,10,24,01,30,17,13,19,18,28,15,12,,1.58,0.79,1.37*08

[1499588926678]$GPGSV,3,1,12,01,13,046,33,10,13,323,27,11,,,31,12,16,239,29*48

[1499588926678]$GPGSV,3,2,12,13,41,183,27,15,51,239,41,17,52,108,38,18,13,297,33*7A

[1499588926678]$GPGSV,3,3,12,19,41,145,37,24,43,289,37,28,34,063,14,30,08,110,18*7A

[1499588926678]$GPGLL,5358.16694,N,02732.17133,E,052846.00,A,A*60

[1499588927677]$GPRMC,052847.00,A,5358.16580,N,02732.14594,E,54.107,265.78,090717,,,A*5B

[1499588927677]$GPVTG,265.78,T,,M,54.107,N,100.207,K,A*00

[1499588927677]$GPGGA,052847.00,5358.16580,N,02732.14594,E,1,11,0.79,221.5,M,24.9,M,,*5D

[1499588927677]$GPGSA,A,3,10,24,01,30,17,13,19,18,28,15,12,,1.58,0.79,1.37*08

[1499588927677]$GPGSV,3,1,12,01,13,046,33,10,13,323,25,11,,,31,12,16,239,28*4B

[1499588927677]$GPGSV,3,2,12,13,41,183,27,15,51,239,41,17,52,108,38,18,13,297,33*7A

[1499588927677]$GPGSV,3,3,12,19,42,145,37,24,43,289,37,28,34,063,12,30,08,110,17*70

[1499588927677]$GPGLL,5358.16580,N,02732.14594,E,052847.00,A,A*6D

[1499588928677]$GPRMC,052848.00,A,5358.16467,N,02732.12054,E,54.177,265.71,090717,,,A*5D

[1499588928677]$GPVTG,265.71,T,,M,54.177,N,100.337,K,A*0C

[1499588928677]$GPGGA,052848.00,5358.16467,N,02732.12054,E,1,11,0.79,221.6,M,24.9,M,,*56

[1499588928677]$GPGSA,A,3,10,24,01,30,17,13,19,18,28,15,12,,1.58,0.79,1.37*08

[1499588928677]$GPGSV,3,1,12,01,13,046,32,10,13,323,25,11,,,24,12,16,239,28*4E

[1499588928677]$GPGSV,3,2,12,13,41,183,27,15,51,239,41,17,52,108,38,18,13,297,27*7F

[1499588928677]$GPGSV,3,3,12,19,42,145,37,24,43,289,37,28,34,063,13,30,08,110,15*73

[1499588928677]$GPGLL,5358.16467,N,02732.12054,E,052848.00,A,A*65

[1499588929680]$GPRMC,052849.00,A,5358.16355,N,02732.09516,E,54.142,265.81,090717,,,A*5A

[1499588929680]$GPVTG,265.81,T,,M,54.142,N,100.271,K,A*06

[1499588929680]$GPGGA,052849.00,5358.16355,N,02732.09516,E,1,10,0.92,221.5,M,24.9,M,,*5F

[1499588929680]$GPGSA,A,3,10,24,01,17,13,19,18,28,15,12,,,2.04,0.92,1.82*0A

[1499588929680]$GPGSV,3,1,12,01,13,046,32,10,13,323,25,11,,,20,12,16,239,29*4B

[1499588929680]$GPGSV,3,2,12,13,41,183,27,15,51,239,41,17,52,108,39,18,13,297,35*7D

[1499588929680]$GPGSV,3,3,12,19,42,145,37,24,43,289,37,28,34,063,15,30,08,110,*71

[1499588929680]$GPGLL,5358.16355,N,02732.09516,E,052849.00,A,A*6B

[1499588930678]$GPRMC,052850.00,A,5358.16235,N,02732.06972,E,54.246,265.46,090717,,,A*58

[1499588930678]$GPVTG,265.46,T,,M,54.246,N,100.464,K,A*08

[1499588930678]$GPGGA,052850.00,5358.16235,N,02732.06972,E,1,10,0.92,221.4,M,24.9,M,,*50

[1499588930678]$GPGSA,A,3,10,24,01,17,13,19,18,28,15,12,,,2.04,0.92,1.82*0A

[1499588930678]$GPGSV,3,1,12,01,13,046,35,10,13,323,29,11,,,33,12,16,239,28*43

[1499588930678]$GPGSV,3,2,12,13,41,183,26,15,51,239,41,17,52,108,38,18,13,297,34*7C

[1499588930678]$GPGSV,3,3,12,19,42,145,37,24,43,289,37,28,34,063,15,30,08,110,15*75

[1499588930678]$GPGLL,5358.16235,N,02732.06972,E,052850.00,A,A*65

[1499588931676]$GPRMC,052851.00,A,5358.16120,N,02732.04426,E,54.254,265.54,090717,,,A*50

[1499588931676]$GPVTG,265.54,T,,M,54.254,N,100.479,K,A*04

[1499588931676]$GPGGA,052851.00,5358.16120,N,02732.04426,E,1,10,0.92,221.6,M,24.9,M,,*5A

[1499588931676]$GPGSA,A,3,10,24,01,17,13,19,18,28,15,12,,,2.04,0.92,1.82*0A

