[1499552090960]$GPRMC,191450.00,A,5357.14375,N,02740.86226,E,7.525,62.67,080717,,,A*56

[1499552090960]$GPVTG,62.67,T,,M,7.525,N,13.937,K,A*32

[1499552090960]$GPGGA,191450.00,5357.14375,N,02740.86226,E,1,11,0.81,222.3,M,24.8,M,,*5B

[1499552090960]$GPGSA,A,3,11,14,01,32,22,08,03,19,17,31,23,,1.30,0.81,1.02*09

[1499552090960]$GPGSV,4,1,14,01,77,242,41,03,44,266,38,04,09,133,16,08,07,194,33*7B

[1499552090960]$GPGSV,4,2,14,10,04,085,05,11,55,202,36,12,02,023,,14,55,075,38*7E

[1499552090960]$GPGSV,4,3,14,17,27,313,33,19,12,330,30,22,72,263,35,23,08,213,14*79

[1499552090960]$GPGSV,4,4,14,31,23,115,27,32,38,058,32*79

[1499552090960]$GPGLL,5357.14375,N,02740.86226,E,191450.00,A,A*68

[1499552091950]$GPRMC,191451.00,A,5357.14438,N,02740.86427,E,3.561,62.87,080717,,,A*54

[1499552091950]$GPVTG,62.87,T,,M,3.561,N,6.595,K,A*08

[1499552091950]$GPGGA,191451.00,5357.14438,N,02740.86427,E,1,11,0.81,222.4,M,24.8,M,,*54

[1499552091950]$GPGSA,A,3,11,14,01,32,22,08,03,19,17,31,23,,1.30,0.81,1.02*09

[1499552091950]$GPGSV,4,1,14,01,77,242,40,03,44,266,38,04,09,133,16,08,07,194,29*71

[1499552091950]$GPGSV,4,2,14,10,04,085,,11,55,202,36,12,02,023,,14,55,075,38*7B

[1499552091950]$GPGSV,4,3,14,17,27,313,33,19,12,330,31,22,72,263,36,23,08,213,14*7B

[1499552091950]$GPGSV,4,4,14,31,23,115,24,32,38,058,37*7F

[1499552091950]$GPGLL,5357.14438,N,02740.86427,E,191451.00,A,A*60

[1499552092950]$GPRMC,191452.00,A,5357.14448,N,02740.86475,E,0.151,,080717,,,A*76

[1499552092950]$GPVTG,,T,,M,0.151,N,0.280,K,A*2C

[1499552092950]$GPGGA,191452.00,5357.14448,N,02740.86475,E,1,11,0.81,222.5,M,24.8,M,,*56

[1499552092950]$GPGSA,A,3,11,14,01,32,22,08,03,19,17,31,23,,1.30,0.81,1.02*09

[1499552092950]$GPGSV,4,1,14,01,77,242,40,03,44,266,38,04,09,133,15,08,07,194,18*70

[1499552092950]$GPGSV,4,2,14,10,04,085,,11,55,202,36,12,02,023,,14,55,075,38*7B

[1499552092950]$GPGSV,4,3,14,17,27,313,36,19,12,330,35,22,72,263,38,23,08,213,14*74

[1499552092950]$GPGSV,4,4,14,31,23,115,24,32,38,058,36*7E

[1499552092950]$GPGLL,5357.14448,N,02740.86475,E,191452.00,A,A*63

[1499552093954]$GPRMC,191453.00,A,5357.14447,N,02740.86477,E,0.066,,080717,,,A*7F

[1499552093954]$GPVTG,,T,,M,0.066,N,0.122,K,A*22

[1499552093954]$GPGGA,191453.00,5357.14447,N,02740.86477,E,1,11,0.81,222.6,M,24.8,M,,*59

[1499552093954]$GPGSA,A,3,11,14,01,32,22,08,03,19,17,31,23,,1.30,0.81,1.02*09

[1499552093954]$GPGSV,4,1,14,01,77,242,41,03,44,266,38,04,09,133,15,08,07,194,17*7E

[1499552093954]$GPGSV,4,2,14,10,04,085,,11,55,202,36,12,02,023,,14,55,075,37*74

[1499552093954]$GPGSV,4,3,14,17,27,313,35,19,12,330,36,22,72,263,38,23,08,213,16*76

[1499552093954]$GPGSV,4,4,14,31,23,115,21,32,38,058,35*78

[1499552093954]$GPGLL,5357.14447,N,02740.86477,E,191453.00,A,A*6F

[1499552094950]$GPRMC,191454.00,A,5357.14442,N,02740.86478,E,0.059,,080717,,,A*7E

[1499552094950]$GPVTG,,T,,M,0.059,N,0.110,K,A*2F

[1499552094950]$GPGGA,191454.00,5357.14442,N,02740.86478,E,1,11,1.17,222.7,M,24.8,M,,*5B

[1499552094950]$GPGSA,A,3,11,14,01,32,22,08,03,19,17,31,23,,2.02,1.17,1.65*04

[1499552094950]$GPGSV,4,1,14,01,77,242,41,03,44,266,39,04,09,133,14,08,07,194,15*7C

[1499552094950]$GPGSV,4,2,14,10,04,085,,11,55,202,36,12,02,023,,14,55,075,37*74

[1499552094950]$GPGSV,4,3,14,17,27,313,35,19,12,330,36,22,72,263,39,23,08,213,18*79

[1499552094950]$GPGSV,4,4,14,31,23,115,20,32,38,058,35*79

[1499552094950]$GPGLL,5357.14442,N,02740.86478,E,191454.00,A,A*62

[1499552095950]$GPRMC,191455.00,A,5357.14441,N,02740.86480,E,0.017,,080717,,,A*71

[1499552095950]$GPVTG,,T,,M,0.017,N,0.032,K,A*24

[1499552095950]$GPGGA,191455.00,5357.14441,N,02740.86480,E,1,11,1.17,222.5,M,24.8,M,,*5C

[1499552095950]$GPGSA,A,3,11,14,01,32,22,08,03,19,17,31,23,,2.02,1.17,1.65*04

[1499552095950]$GPGSV,4,1,14,01,77,242,41,03,44,266,39,04,09,133,15,08,07,194,12*7A

[1499552095950]$GPGSV,4,2,14,10,04,085,,11,55,202,36,12,02,023,,14,55,075,37*74

[1499552095950]$GPGSV,4,3,14,17,27,313,34,19,12,330,36,22,72,263,39,23,08,213,19*79

[1499552095950]$GPGSV,4,4,14,31,23,115,19,32,38,058,35*73

[1499552095950]$GPGLL,5357.14441,N,02740.86480,E,191455.00,A,A*67

[1499552096950]$GPRMC,191456.00,A,5357.14439,N,02740.86484,E,0.030,,080717,,,A*7C

[1499552096950]$GPVTG,,T,,M,0.030,N,0.055,K,A*20

[1499552096950]$GPGGA,191456.00,5357.14439,N,02740.86484,E,1,11,1.17,222.5,M,24.8,M,,*54

[1499552096950]$GPGSA,A,3,11,14,01,32,22,08,03,19,17,31,23,,2.02,1.17,1.65*04

[1499552096950]$GPGSV,4,1,14,01,77,242,41,03,44,266,39,04,09,133,15,08,07,194,12*7A

[1499552096950]$GPGSV,4,2,14,10,04,085,,11,55,202,37,12,02,023,,14,55,075,37*75

[1499552096950]$GPGSV,4,3,14,17,27,313,35,19,12,330,36,22,72,263,39,23,08,213,19*78

[1499552096950]$GPGSV,4,4,14,31,23,115,19,32,38,058,35*73

[1499552096950]$GPGLL,5357.14439,N,02740.86484,E,191456.00,A,A*6F

[1499552097950]$GPRMC,191457.00,A,5357.14435,N,02740.86488,E,0.050,,080717,,,A*7B

[1499552097950]$GPVTG,,T,,M,0.050,N,0.092,K,A*2D

[1499552097950]$GPGGA,191457.00,5357.14435,N,02740.86488,E,1,11,1.17,222.6,M,24.8,M,,*56

[1499552097950]$GPGSA,A,3,11,14,01,32,22,08,03,19,17,31,23,,2.02,1.17,1.65*04

[1499552097950]$GPGSV,4,1,14,01,77,242,41,03,44,266,38,04,09,133,15,08,07,194,10*79

[1499552097950]$GPGSV,4,2,14,10,04,085,,11,55,202,37,12,02,023,,14,55,075,37*75

[1499552097950]$GPGSV,4,3,14,17,27,313,34,19,12,330,36,22,72,263,38,23,08,213,20*72

[1499552097950]$GPGSV,4,4,14,31,23,115,20,32,38,058,34*78

[1499552097950]$GPGLL,5357.14435,N,02740.86488,E,191457.00,A,A*6E

[1499552098954]$GPRMC,191458.00,A,5357.14432,N,02740.86489,E,0.059,,080717,,,A*7B

[1499552098954]$GPVTG,,T,,M,0.059,N,0.109,K,A*27

[1499552098954]$GPGGA,191458.00,5357.14432,N,02740.86489,E,1,11,1.17,222.6,M,24.8,M,,*5F

[1499552098954]$GPGSA,A,3,11,14,01,32,22,08,03,19,17,31,23,,2.02,1.17,1.65*04

[1499552098954]$GPGSV,4,1,14,01,77,242,41,03,44,266,38,04,09,133,15,08,07,194,12*7B

[1499552098954]$GPGSV,4,2,14,10,04,085,,11,55,202,36,12,02,023,,14,55,075,37*74

[1499552098954]$GPGSV,4,3,14,17,27,313,34,19,12,330,36,22,72,263,38,23,08,213,20*72

[1499552098954]$GPGSV,4,4,14,31,23,115,21,32,38,058,35*78

[1499552098954]$GPGLL,5357.14432,N,02740.86489,E,191458.00,A,A*67

[1499552099950]$GPRMC,191459.00,A,5357.14431,N,02740.86491,E,0.028,,080717,,,A*76

[1499552099950]$GPVTG,,T,,M,0.028,N,0.052,K,A*2E

[1499552099950]$GPGGA,191459.00,5357.14431,N,02740.86491,E,1,11,1.17,222.7,M,24.8,M,,*55

[1499552099950]$GPGSA,A,3,11,14,01,32,22,08,03,19,17,31,23,,2.02,1.17,1.65*04

[1499552099950]$GPGSV,4,1,14,01,77,242,41,03,44,266,38,04,09,133,15,08,07,194,12*7B

[1499552099950]$GPGSV,4,2,14,10,04,085,,11,55,202,37,12,02,023,,14,55,075,36*74

[1499552099950]$GPGSV,4,3,14,17,27,313,34,19,12,330,36,22,72,263,39,23,08,213,20*73

[1499552099950]$GPGSV,4,4,14,31,23,115,22,32,38,058,35*7B

[1499552099950]$GPGLL,5357.14431,N,02740.86491,E,191459.00,A,A*6C

[1499552100960]$GPRMC,191500.00,A,5357.14433,N,02740.86489,E,0.015,,080717,,,A*7E

[1499552100960]$GPVTG,,T,,M,0.015,N,0.028,K,A*2D

[1499552100960]$GPGGA,191500.00,5357.14433,N,02740.86489,E,1,11,1.17,222.9,M,24.8,M,,*5D

[1499552100960]$GPGSA,A,3,11,14,01,32,22,08,03,19,17,31,23,,2.02,1.17,1.65*04

[1499552100960]$GPGSV,4,1,14,01,77,242,40,03,44,266,38,04,09,133,14,08,07,194,11*78

[1499552100960]$GPGSV,4,2,14,10,04,085,,11,55,202,37,12,02,023,,14,55,075,36*74

[1499552100960]$GPGSV,4,3,14,17,27,313,33,19,12,330,36,22,72,263,38,23,08,213,20*75

[1499552100960]$GPGSV,4,4,14,31,23,115,24,32,38,058,35*7D

[1499552100960]$GPGLL,5357.14433,N,02740.86489,E,191500.00,A,A*6A

[1499552101954]$GPRMC,191501.00,A,5357.14446,N,02740.86486,E,0.043,,080717,,,A*71

[1499552101954]$GPVTG,,T,,M,0.043,N,0.079,K,A*2A

[1499552101954]$GPGGA,191501.00,5357.14446,N,02740.86486,E,1,11,1.17,223.2,M,24.8,M,,*5B

[1499552101954]$GPGSA,A,3,11,14,01,32,22,08,03,19,17,31,23,,2.02,1.17,1.65*04

[1499552101954]$GPGSV,4,1,14,01,77,242,40,03,44,266,37,04,09,133,12,08,07,194,14*74

[1499552101954]$GPGSV,4,2,14,10,04,085,,11,55,202,38,12,02,023,,14,55,075,37*7A

[1499552101954]$GPGSV,4,3,14,17,27,313,28,19,12,330,34,22,72,263,38,23,08,213,21*7C

[1499552101954]$GPGSV,4,4,14,31,23,115,24,32,38,058,34*7C

[1499552101954]$GPGLL,5357.14446,N,02740.86486,E,191501.00,A,A*66

[1499552102950]$GPRMC,191502.00,A,5357.14452,N,02740.86485,E,0.032,,080717,,,A*72

[1499552102950]$GPVTG,,T,,M,0.032,N,0.059,K,A*2E

[1499552102950]$GPGGA,191502.00,5357.14452,N,02740.86485,E,1,11,1.17,223.5,M,24.8,M,,*59

[1499552102950]$GPGSA,A,3,11,14,01,32,22,08,03,19,17,31,23,,2.02,1.17,1.65*04

[1499552102950]$GPGSV,4,1,14,01,77,242,40,03,44,266,37,04,09,133,10,08,07,194,16*74

[1499552102950]$GPGSV,4,2,14,10,04,085,,11,55,202,37,12,02,023,,14,55,075,37*75

[1499552102950]$GPGSV,4,3,14,17,27,313,29,19,12,330,36,22,72,263,38,23,08,213,20*7E

[1499552102950]$GPGSV,4,4,14,31,23,115,24,32,38,058,35*7D

[1499552102950]$GPGLL,5357.14452,N,02740.86485,E,191502.00,A,A*63

[1499552103960]$GPRMC,191503.00,A,5357.14458,N,02740.86482,E,0.075,,080717,,,A*7D

[1499552103960]$GPVTG,,T,,M,0.075,N,0.139,K,A*2A

[1499552103960]$GPGGA,191503.00,5357.14458,N,02740.86482,E,1,11,1.17,223.8,M,24.8,M,,*58

[1499552103960]$GPGSA,A,3,11,14,01,32,22,08,03,19,17,31,23,,2.02,1.17,1.65*04

[1499552103960]$GPGSV,4,1,14,01,77,242,40,03,44,266,37,04,09,133,09,08,07,194,17*7D

[1499552103960]$GPGSV,4,2,14,10,04,085,,11,55,202,37,12,02,023,,14,55,075,37*75

[1499552103960]$GPGSV,4,3,14,17,27,313,29,19,12,330,35,22,72,263,37,23,08,213,19*78

[1499552103960]$GPGSV,4,4,14,31,23,115,23,32,38,058,35*7A

[1499552103960]$GPGLL,5357.14458,N,02740.86482,E,191503.00,A,A*6F

[1499552104954]$GPRMC,191504.00,A,5357.14465,N,02740.86479,E,0.075,,080717,,,A*70

[1499552104954]$GPVTG,,T,,M,0.075,N,0.139,K,A*2A

[1499552104954]$GPGGA,191504.00,5357.14465,N,02740.86479,E,1,11,1.17,224.1,M,24.8,M,,*5B

[1499552104954]$GPGSA,A,3,11,14,01,32,22,08,03,19,17,31,23,,2.02,1.17,1.65*04

[1499552104954]$GPGSV,4,1,14,01,77,242,40,03,44,266,37,04,09,133,09,08,07,194,17*7D

[1499552104954]$GPGSV,4,2,14,10,04,085,,11,55,202,37,12,02,023,,14,55,075,37*75

[1499552104954]$GPGSV,4,3,14,17,27,313,30,19,12,330,35,22,72,263,37,23,08,213,19*70

[1499552104954]$GPGSV,4,4,14,31,23,115,23,32,38,058,34*7B

[1499552104954]$GPGLL,5357.14465,N,02740.86479,E,191504.00,A,A*62

[1499552105950]$GPRMC,191505.00,A,5357.14469,N,02740.86476,E,0.032,,080717,,,A*71

[1499552105950]$GPVTG,,T,,M,0.032,N,0.059,K,A*2E

[1499552105950]$GPGGA,191505.00,5357.14469,N,02740.86476,E,1,11,1.17,224.2,M,24.8,M,,*5A

[1499552105950]$GPGSA,A,3,11,14,01,32,22,08,03,19,17,31,23,,2.02,1.17,1.65*04

[1499552105950]$GPGSV,4,1,14,01,77,242,40,03,44,266,37,04,09,133,08,08,07,194,19*72

[1499552105950]$GPGSV,4,2,14,10,04,085,,11,55,202,37,12,02,023,,14,55,075,37*75

[1499552105950]$GPGSV,4,3,14,17,27,313,30,19,12,330,35,22,72,263,37,23,08,213,19*70

[1499552105950]$GPGSV,4,4,14,31,23,115,23,32,38,058,34*7B

[1499552105950]$GPGLL,5357.14469,N,02740.86476,E,191505.00,A,A*60

[1499552106951]$GPRMC,191506.00,A,5357.14480,N,02740.86472,E,0.060,,080717,,,A*76

[1499552106951]$GPVTG,,T,,M,0.060,N,0.110,K,A*25

[1499552106951]$GPGGA,191506.00,5357.14480,N,02740.86472,E,1,11,0.86,224.6,M,24.8,M,,*57

[1499552106951]$GPGSA,A,3,11,14,01,32,22,08,03,19,17,31,23,,1.40,0.86,1.11*0B

[1499552106951]$GPGSV,4,1,14,01,77,242,40,03,44,266,36,04,09,133,08,08,07,194,18*72

[1499552106951]$GPGSV,4,2,14,10,04,085,,11,55,202,37,12,02,023,,14,55,075,37*75

[1499552106951]$GPGSV,4,3,14,17,27,313,30,19,12,330,30,22,72,263,37,23,08,213,18*74

[1499552106951]$GPGSV,4,4,14,31,23,115,23,32,38,058,32*7D

[1499552106951]$GPGLL,5357.14480,N,02740.86472,E,191506.00,A,A*60

[1499552107954]$GPRMC,191507.00,A,5357.14493,N,02740.86489,E,0.762,,080717,,,A*74

[1499552107954]$GPVTG,,T,,M,0.762,N,1.411,K,A*25

[1499552107954]$GPGGA,191507.00,5357.14493,N,02740.86489,E,1,11,0.86,224.7,M,24.8,M,,*51

[1499552107954]$GPGSA,A,3,11,14,01,32,22,08,03,19,17,31,23,,1.40,0.86,1.11*0B

[1499552107954]$GPGSV,4,1,14,01,77,242,39,03,44,266,38,04,09,133,08,08,07,194,21*78

[1499552107954]$GPGSV,4,2,14,10,04,085,,11,55,202,37,12,02,023,,14,55,075,37*75

[1499552107954]$GPGSV,4,3,14,17,27,313,30,19,12,330,34,22,72,263,37,23,08,213,18*70

[1499552107954]$GPGSV,4,4,14,31,23,115,22,32,38,058,32*7C

[1499552107954]$GPGLL,5357.14493,N,02740.86489,E,191507.00,A,A*67

[1499552108955]$GPRMC,191508.00,A,5357.14539,N,02740.86592,E,3.510,61.05,080717,,,A*59

[1499552108955]$GPVTG,61.05,T,,M,3.510,N,6.500,K,A*0B

[1499552108955]$GPGGA,191508.00,5357.14539,N,02740.86592,E,1,11,0.86,224.9,M,24.8,M,,*5A

[1499552108955]$GPGSA,A,3,11,14,01,32,22,08,03,19,17,31,23,,1.40,0.86,1.11*0B

[1499552108955]$GPGSV,4,1,14,01,77,242,41,03,44,266,39,04,09,133,,08,07,194,30*7E

[1499552108955]$GPGSV,4,2,14,10,04,085,,11,55,202,37,12,02,023,,14,55,075,36*74

[1499552108955]$GPGSV,4,3,14,17,27,313,31,19,12,330,34,22,72,263,37,23,08,213,16*7F

[1499552108955]$GPGSV,4,4,14,31,23,115,23,32,38,058,33*7C

[1499552108955]$GPGLL,5357.14539,N,02740.86592,E,191508.00,A,A*62

[1499552109960]$GPRMC,191509.00,A,5357.14585,N,02740.86748,E,4.072,61.19,080717,,,A*51

[1499552109960]$GPVTG,61.19,T,,M,4.072,N,7.541,K,A*04

[1499552109960]$GPGGA,191509.00,5357.14585,N,02740.86748,E,1,10,0.98,224.7,M,24.8,M,,*59

[1499552109960]$GPGSA,A,3,11,14,01,22,08,03,19,17,31,23,,,1.48,0.98,1.11*0D

[1499552109960]$GPGSV,4,1,14,01,77,242,41,03,44,266,40,04,09,133,17,08,07,194,34*72

[1499552109960]$GPGSV,4,2,14,10,04,085,15,11,55,202,37,12,02,023,,14,55,075,36*70

[1499552109960]$GPGSV,4,3,14,17,27,313,30,19,12,330,24,22,72,263,36,23,08,213,17*7F

[1499552109960]$GPGSV,4,4,14,31,23,115,25,32,38,058,*7A

[1499552109960]$GPGLL,5357.14585,N,02740.86748,E,191509.00,A,A*61

[1499552110954]$GPRMC,191510.00,A,5357.14628,N,02740.86903,E,3.532,62.19,080717,,,A*59

[1499552110954]$GPVTG,62.19,T,,M,3.532,N,6.540,K,A*01

[1499552110954]$GPGGA,191510.00,5357.14628,N,02740.86903,E,1,11,0.99,224.4,M,24.8,M,,*57

[1499552110954]$GPGSA,A,3,11,14,01,32,22,08,03,19,17,31,23,,1.65,0.99,1.32*03

[1499552110954]$GPGSV,4,1,14,01,77,242,41,03,44,266,39,04,09,133,18,08,07,194,34*73

[1499552110954]$GPGSV,4,2,14,10,04,085,14,11,55,202,37,12,02,023,,14,55,075,38*7F

[1499552110954]$GPGSV,4,3,14,17,27,313,31,19,12,330,23,22,72,263,36,23,08,213,21*7C

[1499552110954]$GPGSV,4,4,14,31,23,115,31,32,38,058,32*7E

[1499552110954]$GPGLL,5357.14628,N,02740.86903,E,191510.00,A,A*6C

[1499552111960]$GPRMC,191511.00,A,5357.14668,N,02740.87027,E,2.786,62.42,080717,,,A*50

[1499552111960]$GPVTG,62.42,T,,M,2.786,N,5.160,K,A*06

[1499552111960]$GPGGA,191511.00,5357.14668,N,02740.87027,E,1,11,0.99,224.4,M,24.8,M,,*5C

[1499552111960]$GPGSA,A,3,11,14,01,32,22,08,03,19,17,31,23,,1.65,0.99,1.32*03

[1499552111960]$GPGSV,4,1,14,01,77,242,41,03,44,266,38,04,09,133,18,08,07,194,34*72

[1499552111960]$GPGSV,4,2,14,10,04,085,11,11,55,202,38,12,02,023,,14,55,075,37*7A

[1499552111960]$GPGSV,4,3,14,17,27,313,32,19,12,330,21,22,72,263,36,23,08,213,22*7E

[1499552111960]$GPGSV,4,4,14,31,23,115,30,32,38,058,28*74

[1499552111960]$GPGLL,5357.14668,N,02740.87027,E,191511.00,A,A*67

[1499552112961]$GPRMC,191512.00,A,5357.14705,N,02740.87126,E,2.320,61.61,080717,,,A*53

[1499552112961]$GPVTG,61.61,T,,M,2.320,N,4.297,K,A*06

[1499552112961]$GPGGA,191512.00,5357.14705,N,02740.87126,E,1,11,0.81,224.7,M,24.8,M,,*5F

[1499552112961]$GPGSA,A,3,11,14,01,32,22,08,03,19,17,31,23,,1.31,0.81,1.02*08

[1499552112961]$GPGSV,4,1,14,01,77,240,41,03,44,266,38,04,09,133,18,08,07,194,29*7C

[1499552112961]$GPGSV,4,2,14,10,04,085,11,11,55,202,37,12,02,023,,14,55,075,37*75

[1499552112961]$GPGSV,4,3,14,17,27,313,34,19,12,330,21,22,72,263,36,23,08,213,22*78

[1499552112961]$GPGSV,4,4,14,31,23,115,28,32,38,058,27*72

[1499552112961]$GPGLL,5357.14705,N,02740.87126,E,191512.00,A,A*6E

[1499552113950]$GPRMC,191513.00,A,5357.14752,N,02740.87284,E,4.315,62.72,080717,,,A*5A

[1499552113950]$GPVTG,62.72,T,,M,4.315,N,7.991,K,A*09

[1499552113950]$GPGGA,191513.00,5357.14752,N,02740.87284,E,1,11,0.81,224.8,M,24.8,M,,*58

[1499552113950]$GPGSA,A,3,11,14,01,32,22,08,03,19,17,31,23,,1.31,0.81,1.02*08

[1499552113950]$GPGSV,4,1,14,01,77,240,40,03,44,266,38,04,09,133,18,08,07,194,28*7C

[1499552113950]$GPGSV,4,2,14,10,04,085,13,11,55,202,37,12,02,023,,14,55,075,34*74

[1499552113950]$GPGSV,4,3,14,17,27,313,34,19,12,330,21,22,72,263,36,23,08,213,23*79

[1499552113950]$GPGSV,4,4,14,31,23,115,27,32,38,058,27*7D

[1499552113950]$GPGLL,5357.14752,N,02740.87284,E,191513.00,A,A*66

[1499552114960]$GPRMC,191514.00,A,5357.14818,N,02740.87511,E,5.846,62.11,080717,,,A*5E

[1499552114960]$GPVTG,62.11,T,,M,5.846,N,10.827,K,A*3A

[1499552114960]$GPGGA,191514.00,5357.14818,N,02740.87511,E,1,11,0.81,224.8,M,24.8,M,,*55

[1499552114960]$GPGSA,A,3,11,14,01,32,22,08,03,19,17,31,23,,1.31,0.81,1.02*08

[1499552114960]$GPGSV,4,1,14,01,77,240,40,03,44,266,38,04,09,133,19,08,07,194,33*77

[1499552114960]$GPGSV,4,2,14,10,04,085,13,11,55,202,37,12,02,023,,14,55,075,35*75

[1499552114960]$GPGSV,4,3,14,17,27,313,34,19,12,330,21,22,72,263,36,23,08,213,22*78

[1499552114960]$GPGSV,4,4,14,31,23,115,26,32,38,058,24*7F

[1499552114960]$GPGLL,5357.14818,N,02740.87511,E,191514.00,A,A*6B

[1499552115951]$GPRMC,191515.00,A,5357.14903,N,02740.87770,E,6.309,62.83,080717,,,A*59

[1499552115951]$GPVTG,62.83,T,,M,6.309,N,11.685,K,A*35

[1499552115951]$GPGGA,191515.00,5357.14903,N,02740.87770,E,1,11,0.81,224.9,M,24.8,M,,*5B

[1499552115951]$GPGSA,A,3,11,14,01,32,22,08,03,19,17,31,23,,1.31,0.81,1.02*08

[1499552115951]$GPGSV,4,1,14,01,77,240,40,03,44,266,38,04,09,133,20,08,07,194,30*7E

[1499552115951]$GPGSV,4,2,14,10,04,085,10,11,55,202,38,12,02,023,,14,55,075,36*7A

[1499552115951]$GPGSV,4,3,14,17,27,313,34,19,12,330,18,22,72,263,36,23,08,213,25*75

[1499552115951]$GPGSV,4,4,14,31,23,115,27,32,38,058,23*79

[1499552115951]$GPGLL,5357.14903,N,02740.87770,E,191515.00,A,A*64

[1499552116961]$GPRMC,191516.00,A,5357.15009,N,02740.88119,E,8.967,62.87,080717,,,A*56

[1499552116961]$GPVTG,62.87,T,,M,8.967,N,16.606,K,A*31

[1499552116961]$GPGGA,191516.00,5357.15009,N,02740.88119,E,1,11,0.81,224.9,M,24.8,M,,*5C

[1499552116961]$GPGSA,A,3,11,14,01,32,22,08,03,19,17,31,23,,1.31,0.81,1.02*08

[1499552116961]$GPGSV,4,1,14,01,77,240,40,03,44,266,38,04,09,133,22,08,07,194,29*74

[1499552116961]$GPGSV,4,2,14,10,04,085,10,11,55,202,37,12,02,023,,14,55,075,36*75

[1499552116961]$GPGSV,4,3,14,17,27,313,34,19,12,330,17,22,72,263,36,23,08,213,24*7B

[1499552116961]$GPGSV,4,4,14,31,23,115,28,32,38,058,24*71

[1499552116961]$GPGLL,5357.15009,N,02740.88119,E,191516.00,A,A*63

[1499552117954]$GPRMC,191517.00,A,5357.15162,N,02740.88576,E,11.768,61.33,080717,,,A*63

[1499552117954]$GPVTG,61.33,T,,M,11.768,N,21.794,K,A*0A

[1499552117954]$GPGGA,191517.00,5357.15162,N,02740.88576,E,1,11,0.81,225.1,M,24.7,M,,*5A

[1499552117954]$GPGSA,A,3,11,14,01,32,22,08,03,19,17,31,23,,1.31,0.81,1.02*08

[1499552117954]$GPGSV,4,1,14,01,77,240,40,03,44,266,39,04,09,133,24,08,07,194,29*73

[1499552117954]$GPGSV,4,2,14,10,04,085,10,11,55,202,38,12,02,023,,14,55,075,36*7A

[1499552117954]$GPGSV,4,3,14,17,27,313,33,19,12,330,15,22,72,263,36,23,08,213,20*7A

[1499552117954]$GPGSV,4,4,14,31,23,115,27,32,38,058,25*7F

[1499552117954]$GPGLL,5357.15162,N,02740.88576,E,191517.00,A,A*63

[1499552118950]$GPRMC,191518.00,A,5357.15345,N,02740.89139,E,14.208,61.32,080717,,,A*62

[1499552118950]$GPVTG,61.32,T,,M,14.208,N,26.313,K,A*01

[1499552118950]$GPGGA,191518.00,5357.15345,N,02740.89139,E,1,11,0.81,225.3,M,24.7,M,,*5E

[1499552118950]$GPGSA,A,3,11,14,01,32,22,08,03,19,17,31,23,,1.31,0.81,1.02*08

[1499552118950]$GPGSV,4,1,14,01,77,240,40,03,44,266,39,04,09,133,26,08,07,194,22*7A

[1499552118950]$GPGSV,4,2,14,10,04,085,10,11,55,202,38,12,02,023,,14,55,075,35*79

[1499552118950]$GPGSV,4,3,14,17,27,313,33,19,12,330,18,22,72,263,36,23,08,213,18*7C

[1499552118950]$GPGSV,4,4,14,31,23,115,28,32,38,058,25*70

[1499552118950]$GPGLL,5357.15345,N,02740.89139,E,191518.00,A,A*65

[1499552119950]$GPRMC,191519.00,A,5357.15552,N,02740.89788,E,16.081,61.53,080717,,,A*69

[1499552119950]$GPVTG,61.53,T,,M,16.081,N,29.782,K,A*04

[1499552119950]$GPGGA,191519.00,5357.15552,N,02740.89788,E,1,11,0.96,225.5,M,24.7,M,,*53

[1499552119950]$GPGSA,A,3,11,14,01,32,22,08,03,19,17,31,23,,1.55,0.96,1.22*0E

[1499552119950]$GPGSV,4,1,14,01,77,240,40,03,44,266,38,04,09,133,27,08,06,194,20*79

[1499552119950]$GPGSV,4,2,14,10,04,085,10,11,55,202,37,12,02,023,,14,55,075,36*75

[1499552119950]$GPGSV,4,3,14,17,27,313,32,19,12,330,16,22,72,263,36,23,08,213,18*73

[1499552119950]$GPGSV,4,4,14,31,23,115,29,32,38,058,26*72

[1499552119950]$GPGLL,5357.15552,N,02740.89788,E,191519.00,A,A*68

[1499552120962]$GPRMC,191520.00,A,5357.15786,N,02740.90502,E,17.617,61.37,080717,,,A*6A

[1499552120962]$GPVTG,61.37,T,,M,17.617,N,32.626,K,A*0B

[1499552120962]$GPGGA,191520.00,5357.15786,N,02740.90502,E,1,11,0.96,225.8,M,24.7,M,,*57

[1499552120962]$GPGSA,A,3,11,14,01,32,22,08,03,19,17,31,23,,1.55,0.96,1.22*0E

[1499552120962]$GPGSV,4,1,14,01,77,240,40,03,44,266,38,04,09,133,26,08,06,194,18*73

[1499552120962]$GPGSV,4,2,14,10,04,085,06,11,55,202,38,12,02,023,,14,55,075,35*7E

[1499552120962]$GPGSV,4,3,14,17,27,313,32,19,12,330,14,22,72,263,36,23,08,213,30*7B

[1499552120962]$GPGSV,4,4,14,31,23,115,30,32,38,058,26*7A

[1499552120962]$GPGLL,5357.15786,N,02740.90502,E,191520.00,A,A*61

[1499552121951]$GPRMC,191521.00,A,5357.16023,N,02740.91283,E,19.195,61.37,080717,,,A*6C

[1499552121951]$GPVTG,61.37,T,,M,19.195,N,35.549,K,A*05

[1499552121951]$GPGGA,191521.00,5357.16023,N,02740.91283,E,1,10,0.96,225.6,M,24.7,M,,*5D

[1499552121951]$GPGSA,A,3,11,14,01,32,22,08,03,17,31,23,,,1.55,0.96,1.22*06

[1499552121951]$GPGSV,4,1,14,01,77,240,40,03,44,266,38,04,09,133,25,08,06,194,16*7E

[1499552121951]$GPGSV,4,2,14,10,04,085,06,11,55,202,38,12,02,023,,14,55,075,35*7E

[1499552121951]$GPGSV,4,3,14,17,27,313,32,19,12,330,09,22,72,263,36,23,08,213,37*70

[1499552121951]$GPGSV,4,4,14,31,23,115,29,32,38,058,26*72

[1499552121951]$GPGLL,5357.16023,N,02740.91283,E,191521.00,A,A*64

[1499552122951]$GPRMC,191522.00,A,5357.16277,N,02740.92133,E,20.728,62.34,080717,,,A*6D

[1499552122951]$GPVTG,62.34,T,,M,20.728,N,38.389,K,A*08

[1499552122951]$GPGGA,191522.00,5357.16277,N,02740.92133,E,1,10,0.96,225.5,M,24.7,M,,*55

[1499552122951]$GPGSA,A,3,11,14,01,32,22,08,03,17,31,23,,,1.55,0.96,1.22*06

[1499552122951]$GPGSV,4,1,14,01,77,240,40,03,44,266,39,04,09,133,23,08,06,194,13*7C

[1499552122951]$GPGSV,4,2,14,10,04,085,,11,54,202,38,12,02,023,,14,55,075,35*79

[1499552122951]$GPGSV,4,3,14,17,27,313,31,19,12,330,08,22,72,263,36,23,08,213,37*72

[1499552122951]$GPGSV,4,4,14,31,23,115,27,32,38,058,25*7F

[1499552122951]$GPGLL,5357.16277,N,02740.92133,E,191522.00,A,A*6F

[1499552123954]$GPRMC,191523.00,A,5357.16557,N,02740.93039,E,22.038,62.55,080717,,,A*60

[1499552123954]$GPVTG,62.55,T,,M,22.038,N,40.815,K,A*0A

[1499552123954]$GPGGA,191523.00,5357.16557,N,02740.93039,E,1,11,0.96,225.8,M,24.7,M,,*57

[1499552123954]$GPGSA,A,3,11,14,01,32,22,08,03,19,17,31,23,,1.55,0.96,1.22*0E

[1499552123954]$GPGSV,4,1,14,01,77,240,40,03,44,266,39,04,09,133,22,08,06,194,15*7B

[1499552123954]$GPGSV,4,2,14,10,04,085,,11,54,202,38,12,02,023,,14,55,075,34*78

[1499552123954]$GPGSV,4,3,14,17,27,313,30,19,12,330,21,22,72,263,36,23,08,213,35*7A

[1499552123954]$GPGSV,4,4,14,31,23,115,15,32,38,058,24*7F

[1499552123954]$GPGLL,5357.16557,N,02740.93039,E,191523.00,A,A*61

[1499552124950]$GPRMC,191524.00,A,5357.16846,N,02740.94000,E,23.267,63.07,080717,,,A*68

[1499552124950]$GPVTG,63.07,T,,M,23.267,N,43.091,K,A*02

[1499552124950]$GPGGA,191524.00,5357.16846,N,02740.94000,E,1,11,0.96,226.0,M,24.7,M,,*5B

[1499552124950]$GPGSA,A,3,11,14,01,32,22,08,03,19,17,31,23,,1.55,0.96,1.22*0E

[1499552124950]$GPGSV,4,1,14,01,77,240,40,03,44,266,39,04,09,133,24,08,06,194,18*70

[1499552124950]$GPGSV,4,2,14,10,04,085,,11,54,202,38,12,02,023,,14,55,075,34*78

[1499552124950]$GPGSV,4,3,14,17,27,313,31,19,12,330,28,22,72,263,36,23,08,213,35*72

[1499552124950]$GPGSV,4,4,14,31,23,115,20,32,38,058,23*7E

[1499552124950]$GPGLL,5357.16846,N,02740.94000,E,191524.00,A,A*66

[1499552125959]$GPRMC,191525.00,A,5357.17152,N,02740.95006,E,24.285,62.57,080717,,,A*6C

[1499552125959]$GPVTG,62.57,T,,M,24.285,N,44.976,K,A*0A

[1499552125959]$GPGGA,191525.00,5357.17152,N,02740.95006,E,1,11,0.81,226.3,M,24.7,M,,*55

[1499552125959]$GPGSA,A,3,11,14,01,32,22,08,03,19,17,31,23,,1.31,0.81,1.02*08

[1499552125959]$GPGSV,4,1,14,01,77,240,40,03,44,266,39,04,09,133,23,08,06,194,20*7C

[1499552125959]$GPGSV,4,2,14,10,04,085,,11,54,202,37,12,02,023,,14,55,074,34*76

[1499552125959]$GPGSV,4,3,14,17,27,313,32,19,12,330,29,22,72,263,36,23,08,213,35*70

[1499552125959]$GPGSV,4,4,14,31,23,115,22,32,38,058,23*7C

[1499552125959]$GPGLL,5357.17152,N,02740.95006,E,191525.00,A,A*6D

[1499552126960]$GPRMC,191526.00,A,5357.17477,N,02740.96049,E,25.270,61.87,080717,,,A*60

[1499552126960]$GPVTG,61.87,T,,M,25.270,N,46.800,K,A*0D

[1499552126960]$GPGGA,191526.00,5357.17477,N,02740.96049,E,1,11,0.81,226.5,M,24.7,M,,*5A

[1499552126960]$GPGSA,A,3,11,14,01,32,22,08,03,19,17,31,23,,1.31,0.81,1.02*08

[1499552126960]$GPGSV,4,1,14,01,77,240,40,03,44,266,39,04,09,133,19,08,06,194,22*77

[1499552126960]$GPGSV,4,2,14,10,04,085,,11,54,202,37,12,02,023,,14,55,074,35*77

[1499552126960]$GPGSV,4,3,14,17,27,313,32,19,12,330,29,22,72,263,36,23,08,213,36*73

[1499552126960]$GPGSV,4,4,14,31,23,115,22,32,38,058,24*7B

[1499552126960]$GPGLL,5357.17477,N,02740.96049,E,191526.00,A,A*64

[1499552127951]$GPRMC,191527.00,A,5357.17807,N,02740.97130,E,26.086,62.96,080717,,,A*6F

[1499552127951]$GPVTG,62.96,T,,M,26.086,N,48.310,K,A*02

[1499552127951]$GPGGA,191527.00,5357.17807,N,02740.97130,E,1,11,0.81,226.9,M,24.7,M,,*52

[1499552127951]$GPGSA,A,3,11,14,01,32,22,08,03,19,17,31,23,,1.31,0.81,1.02*08

[1499552127951]$GPGSV,4,1,14,01,77,240,40,03,44,266,39,04,09,133,15,08,06,194,30*78

[1499552127951]$GPGSV,4,2,14,10,04,085,,11,54,202,37,12,02,023,,14,55,074,35*77

[1499552127951]$GPGSV,4,3,14,17,27,313,30,19,12,330,29,22,72,263,36,23,08,213,32*75

[1499552127951]$GPGSV,4,4,14,31,23,115,24,32,38,058,24*7D

[1499552127951]$GPGLL,5357.17807,N,02740.97130,E,191527.00,A,A*60

[1499552128950]$GPRMC,191528.00,A,5357.18127,N,02740.98229,E,26.058,64.01,080717,,,A*6B

[1499552128950]$GPVTG,64.01,T,,M,26.058,N,48.259,K,A*05

[1499552128950]$GPGGA,191528.00,5357.18127,N,02740.98229,E,1,11,0.81,227.3,M,24.7,M,,*56

[1499552128950]$GPGSA,A,3,11,14,01,32,22,08,03,19,17,31,23,,1.31,0.81,1.02*08

[1499552128950]$GPGSV,4,1,14,01,77,240,40,03,44,266,38,04,09,133,14,08,06,194,21*78

[1499552128950]$GPGSV,4,2,14,10,04,085,,11,54,202,37,12,02,023,,14,55,074,35*77

[1499552128950]$GPGSV,4,3,14,17,27,313,30,19,12,330,27,22,72,263,36,23,08,213,27*7F

[1499552128950]$GPGSV,4,4,14,31,23,115,22,32,38,058,26*79

[1499552128950]$GPGLL,5357.18127,N,02740.98229,E,191528.00,A,A*6F

[1499552129961]$GPRMC,191529.00,A,5357.18423,N,02740.99300,E,24.831,65.13,080717,,,A*67

[1499552129961]$GPVTG,65.13,T,,M,24.831,N,45.987,K,A*07

[1499552129961]$GPGGA,191529.00,5357.18423,N,02740.99300,E,1,11,0.81,227.5,M,24.7,M,,*5B

[1499552129961]$GPGSA,A,3,11,14,01,32,22,08,03,19,17,31,23,,1.31,0.81,1.02*08

[1499552129961]$GPGSV,4,1,14,01,77,240,40,03,44,266,39,04,09,133,12,08,06,194,22*7C

[1499552129961]$GPGSV,4,2,14,10,04,085,,11,54,202,36,12,02,023,,14,55,074,35*76

[1499552129961]$GPGSV,4,3,14,17,27,313,31,19,12,330,27,22,72,263,36,23,08,213,32*7A

[1499552129961]$GPGSV,4,4,14,31,23,115,20,32,38,058,29*74

[1499552129961]$GPGLL,5357.18423,N,02740.99300,E,191529.00,A,A*64

[1499552130960]$GPRMC,191530.00,A,5357.18702,N,02741.00322,E,23.601,65.28,080717,,,A*6C

[1499552130960]$GPVTG,65.28,T,,M,23.601,N,43.708,K,A*0A

[1499552130960]$GPGGA,191530.00,5357.18702,N,02741.00322,E,1,11,0.81,227.8,M,24.7,M,,*5F

[1499552130960]$GPGSA,A,3,11,14,01,32,22,08,03,19,17,31,23,,1.31,0.81,1.02*08

[1499552130960]$GPGSV,4,1,14,01,77,240,40,03,44,266,39,04,09,133,11,08,06,194,23*7E

[1499552130960]$GPGSV,4,2,14,10,04,085,,11,54,202,36,12,02,023,,14,55,074,35*76

[1499552130960]$GPGSV,4,3,14,17,27,313,34,19,12,330,26,22,72,263,36,23,08,213,32*7E

[1499552130960]$GPGSV,4,4,14,31,23,115,33,32,38,058,31*7F

[1499552130960]$GPGLL,5357.18702,N,02741.00322,E,191530.00,A,A*6D

[1499552131950]$GPRMC,191531.00,A,5357.18967,N,02741.01282,E,22.234,65.03,080717,,,A*60

[1499552131950]$GPVTG,65.03,T,,M,22.234,N,41.177,K,A*0C

[1499552131950]$GPGGA,191531.00,5357.18967,N,02741.01282,E,1,11,0.81,228.0,M,24.7,M,,*5E

[1499552131950]$GPGSA,A,3,11,14,01,32,22,08,03,19,17,31,23,,1.31,0.81,1.02*08

[1499552131950]$GPGSV,4,1,14,01,77,240,40,03,44,266,39,04,09,133,11,08,06,194,21*7C

[1499552131950]$GPGSV,4,2,14,10,04,085,,11,54,202,36,12,02,023,,14,55,074,35*76

[1499552131950]$GPGSV,4,3,14,17,27,313,34,19,12,330,24,22,72,263,36,23,08,213,28*77

[1499552131950]$GPGSV,4,4,14,31,23,115,32,32,38,058,34*7B

[1499552131950]$GPGLL,5357.18967,N,02741.01282,E,191531.00,A,A*6B

[1499552132951]$GPRMC,191532.00,A,5357.19203,N,02741.02177,E,20.457,65.54,080717,,,A*62

[1499552132951]$GPVTG,65.54,T,,M,20.457,N,37.887,K,A*08

[1499552132951]$GPGGA,191532.00,5357.19203,N,02741.02177,E,1,11,0.87,228.2,M,24.7,M,,*5B

[1499552132951]$GPGSA,A,3,11,14,01,32,22,08,03,19,17,31,23,,1.43,0.87,1.14*0C

[1499552132951]$GPGSV,4,1,14,01,77,240,40,03,44,266,39,04,09,133,22,08,06,194,20*7D

[1499552132951]$GPGSV,4,2,14,10,04,085,,11,54,202,36,12,02,023,,14,55,074,35*76

[1499552132951]$GPGSV,4,3,14,17,27,313,35,19,12,330,22,22,72,263,36,23,08,213,29*71

[1499552132951]$GPGSV,4,4,14,31,23,115,31,32,38,058,31*7D

[1499552132951]$GPGLL,5357.19203,N,02741.02177,E,191532.00,A,A*6A

[1499552133954]$GPRMC,191533.00,A,5357.19421,N,02741.02983,E,18.307,65.25,080717,,,A*69

[1499552133954]$GPVTG,65.25,T,,M,18.307,N,33.905,K,A*08

[1499552133954]$GPGGA,191533.00,5357.19421,N,02741.02983,E,1,11,0.87,228.4,M,24.7,M,,*59

[1499552133954]$GPGSA,A,3,11,14,01,32,22,08,03,19,17,31,23,,1.43,0.87,1.14*0C

[1499552133954]$GPGSV,4,1,14,01,77,240,40,03,44,266,39,04,09,133,25,08,06,194,23*79

[1499552133954]$GPGSV,4,2,14,10,04,085,,11,54,202,36,12,02,023,,14,55,074,35*76

[1499552133954]$GPGSV,4,3,14,17,27,313,34,19,12,330,21,22,72,263,37,23,08,213,34*7E

[1499552133954]$GPGSV,4,4,14,31,23,115,35,32,38,058,33*7B

[1499552133954]$GPGLL,5357.19421,N,02741.02983,E,191533.00,A,A*6E

[1499552134960]$GPRMC,191534.00,A,5357.19619,N,02741.03725,E,16.991,65.93,080717,,,A*62

[1499552134960]$GPVTG,65.93,T,,M,16.991,N,31.468,K,A*0A

[1499552134960]$GPGGA,191534.00,5357.19619,N,02741.03725,E,1,11,0.87,228.5,M,24.7,M,,*55

[1499552134960]$GPGSA,A,3,11,14,01,32,22,08,03,19,17,31,23,,1.43,0.87,1.14*0C

[1499552134960]$GPGSV,4,1,14,01,77,240,40,03,44,266,38,04,09,133,25,08,06,194,23*78

[1499552134960]$GPGSV,4,2,14,10,04,085,,11,54,202,36,12,02,023,,14,55,074,35*76

[1499552134960]$GPGSV,4,3,14,17,27,313,35,19,12,330,18,22,72,263,37,23,08,213,31*70

[1499552134960]$GPGSV,4,4,14,31,23,115,32,32,38,058,33*7C

[1499552134960]$GPGLL,5357.19619,N,02741.03725,E,191534.00,A,A*63

[1499552135950]$GPRMC,191535.00,A,5357.19777,N,02741.04339,E,13.273,66.10,080717,,,A*6E

[1499552135950]$GPVTG,66.10,T,,M,13.273,N,24.582,K,A*01

[1499552135950]$GPGGA,191535.00,5357.19777,N,02741.04339,E,1,11,0.81,228.5,M,24.7,M,,*55

[1499552135950]$GPGSA,A,3,11,14,01,32,22,08,03,19,17,31,23,,1.31,0.81,1.02*08

[1499552135950]$GPGSV,4,1,14,01,77,240,40,03,44,266,39,04,09,133,23,08,06,194,23*7F

[1499552135950]$GPGSV,4,2,14,10,04,085,,11,54,202,36,12,02,023,,14,55,074,36*75

[1499552135950]$GPGSV,4,3,14,17,27,313,33,19,12,330,20,22,72,263,37,23,08,213,37*7B

[1499552135950]$GPGSV,4,4,14,31,23,115,32,32,38,058,34*7B

[1499552135950]$GPGLL,5357.19777,N,02741.04339,E,191535.00,A,A*65

