[1499588476646]$GPRMC,052116.00,A,5356.67570,N,02741.02452,E,0.104,,090717,,,A*7B

[1499588476646]$GPVTG,,T,,M,0.104,N,0.193,K,A*2D

[1499588476646]$GPGGA,052116.00,5356.67570,N,02741.02452,E,1,06,1.32,218.8,M,24.8,M,,*51

[1499588476646]$GPGSA,A,3,24,17,13,19,28,15,,,,,,,6.34,1.32,6.20*03

[1499588476646]$GPGSV,3,1,09,12,,,23,13,45,184,29,15,53,244,39,17,51,113,40*4A

[1499588476646]$GPGSV,3,2,09,18,14,300,24,19,39,147,38,24,40,289,29,28,37,062,30*70

[1499588476646]$GPGSV,3,3,09,30,,,16*74

[1499588476646]$GPGLL,5356.67570,N,02741.02452,E,052116.00,A,A*6F

[1499588477650]$GPRMC,052117.00,A,5356.67572,N,02741.02424,E,0.060,,090717,,,A*7A

[1499588477650]$GPVTG,,T,,M,0.060,N,0.111,K,A*24

[1499588477650]$GPGGA,052117.00,5356.67572,N,02741.02424,E,1,06,1.32,219.1,M,24.8,M,,*5B

[1499588477650]$GPGSA,A,3,24,17,13,19,28,15,,,,,,,6.34,1.32,6.20*03

[1499588477650]$GPGSV,3,1,09,12,,,25,13,45,184,30,15,53,244,39,17,51,113,40*44

[1499588477650]$GPGSV,3,2,09,18,14,300,24,19,39,147,37,24,40,289,31,28,37,062,31*77

[1499588477650]$GPGSV,3,3,09,30,,,19*7B

[1499588477650]$GPGLL,5356.67572,N,02741.02424,E,052117.00,A,A*6D

[1499588478656]$GPRMC,052118.00,A,5356.67576,N,02741.02411,E,0.039,,090717,,,A*7B

[1499588478656]$GPVTG,,T,,M,0.039,N,0.071,K,A*2F

[1499588478656]$GPGGA,052118.00,5356.67576,N,02741.02411,E,1,06,1.32,219.4,M,24.8,M,,*53

[1499588478656]$GPGSA,A,3,24,17,13,19,28,15,,,,,,,6.34,1.32,6.21*02

[1499588478656]$GPGSV,3,1,09,12,,,31,13,45,184,30,15,53,244,39,17,51,113,38*4E

[1499588478656]$GPGSV,3,2,09,18,14,300,23,19,39,147,35,24,40,289,32,28,37,062,31*71

[1499588478656]$GPGSV,3,3,09,30,,,17*75

[1499588478656]$GPGLL,5356.67576,N,02741.02411,E,052118.00,A,A*60

[1499588479647]$GPRMC,052119.00,A,5356.67566,N,02741.02381,E,1.044,240.30,090717,,,A*65

[1499588479647]$GPVTG,240.30,T,,M,1.044,N,1.934,K,A*36

[1499588479647]$GPGGA,052119.00,5356.67566,N,02741.02381,E,1,06,1.32,219.5,M,24.8,M,,*5C

[1499588479647]$GPGSA,A,3,24,17,13,19,28,15,,,,,,,6.35,1.32,6.21*03

[1499588479647]$GPGSV,3,1,09,12,,,34,13,45,184,29,15,53,244,37,17,51,113,38*4D

[1499588479647]$GPGSV,3,2,09,18,14,300,22,19,39,147,34,24,40,289,33,28,37,062,31*70

[1499588479647]$GPGSV,3,3,09,30,,,16*74

[1499588479647]$GPGLL,5356.67566,N,02741.02381,E,052119.00,A,A*6E

[1499588480689]$GPRMC,052120.00,A,5356.67528,N,02741.02274,E,3.263,242.63,090717,,,A*6F

[1499588480689]$GPVTG,242.63,T,,M,3.263,N,6.043,K,A*39

[1499588480689]$GPGGA,052120.00,5356.67528,N,02741.02274,E,1,06,1.32,219.9,M,24.8,M,,*5B

[1499588480689]$GPGSA,A,3,24,17,13,19,28,15,,,,,,,6.35,1.32,6.21*03

[1499588480689]$GPGSV,3,1,09,12,,,27,13,45,184,33,15,53,244,39,17,51,113,38*4A

[1499588480689]$GPGSV,3,2,09,18,14,300,25,19,39,147,34,24,40,289,33,28,37,062,31*77

[1499588480689]$GPGSV,3,3,09,30,,,15*77

[1499588480689]$GPGLL,5356.67528,N,02741.02274,E,052120.00,A,A*65

[1499588481646]$GPRMC,052121.00,A,5356.67440,N,02741.02024,E,7.352,241.06,090717,,,A*61

[1499588481646]$GPVTG,241.06,T,,M,7.352,N,13.617,K,A*0D

[1499588481646]$GPGGA,052121.00,5356.67440,N,02741.02024,E,1,06,1.32,219.9,M,24.8,M,,*52

[1499588481646]$GPGSA,A,3,24,17,13,19,28,15,,,,,,,6.35,1.32,6.21*03

[1499588481646]$GPGSV,3,1,09,12,,,27,13,45,184,34,15,53,244,37,17,51,113,37*4C

[1499588481646]$GPGSV,3,2,09,18,14,300,26,19,39,147,34,24,40,289,36,28,37,062,33*73

[1499588481646]$GPGSV,3,3,09,30,,,16*74

[1499588481646]$GPGLL,5356.67440,N,02741.02024,E,052121.00,A,A*6C

[1499588482657]$GPRMC,052122.00,A,5356.67284,N,02741.01591,E,12.221,240.12,090717,,,A*51

[1499588482657]$GPVTG,240.12,T,,M,12.221,N,22.633,K,A*3C

[1499588482657]$GPGGA,052122.00,5356.67284,N,02741.01591,E,1,06,1.32,220.0,M,24.8,M,,*54

[1499588482657]$GPGSA,A,3,24,17,13,19,28,15,,,,,,,6.35,1.32,6.21*03

[1499588482657]$GPGSV,3,1,09,12,,,26,13,45,184,35,15,53,244,38,17,51,113,38*4C

[1499588482657]$GPGSV,3,2,09,18,14,300,25,19,39,147,33,24,40,289,36,28,37,062,33*77

[1499588482657]$GPGSV,3,3,09,30,,,16*74

[1499588482657]$GPGLL,5356.67284,N,02741.01591,E,052122.00,A,A*69

[1499588483646]$GPRMC,052123.00,A,5356.67099,N,02741.01032,E,14.480,241.02,090717,,,A*59

[1499588483646]$GPVTG,241.02,T,,M,14.480,N,26.816,K,A*3A

[1499588483646]$GPGGA,052123.00,5356.67099,N,02741.01032,E,1,06,1.32,220.0,M,24.8,M,,*57

[1499588483646]$GPGSA,A,3,24,17,13,19,28,15,,,,,,,6.35,1.32,6.21*03

[1499588483646]$GPGSV,3,1,09,12,,,28,13,45,184,34,15,53,244,38,17,51,113,41*4D

[1499588483646]$GPGSV,3,2,09,18,14,300,24,19,39,147,33,24,40,289,35,28,37,062,34*72

[1499588483646]$GPGSV,3,3,09,30,,,17*75

[1499588483646]$GPGLL,5356.67099,N,02741.01032,E,052123.00,A,A*6A

[1499588484656]$GPRMC,052124.00,A,5356.66901,N,02741.00375,E,16.306,244.15,090717,,,A*5E

[1499588484656]$GPVTG,244.15,T,,M,16.306,N,30.199,K,A*3B

[1499588484656]$GPGGA,052124.00,5356.66901,N,02741.00375,E,1,06,1.32,219.5,M,24.8,M,,*57

[1499588484656]$GPGSA,A,3,24,17,13,19,28,15,,,,,,,6.35,1.32,6.22*00

[1499588484656]$GPGSV,3,1,09,12,,,28,13,45,184,33,15,53,244,38,17,51,113,40*4B

[1499588484656]$GPGSV,3,2,09,18,14,300,25,19,39,147,32,24,40,289,34,28,37,062,29*7F

[1499588484656]$GPGSV,3,3,09,30,,,17*75

[1499588484656]$GPGLL,5356.66901,N,02741.00375,E,052124.00,A,A*65

[1499588485657]$GPRMC,052125.00,A,5356.66675,N,02740.99619,E,18.833,242.69,090717,,,A*53

[1499588485657]$GPVTG,242.69,T,,M,18.833,N,34.878,K,A*37

[1499588485657]$GPGGA,052125.00,5356.66675,N,02740.99619,E,1,06,1.32,219.6,M,24.8,M,,*57

[1499588485657]$GPGSA,A,3,24,17,13,19,28,15,,,,,,,6.35,1.32,6.22*00

[1499588485657]$GPGSV,3,1,09,12,,,33,13,45,184,33,15,53,244,34,17,51,113,37*4D

[1499588485657]$GPGSV,3,2,09,18,14,300,29,19,39,147,34,24,40,289,30,28,37,062,29*71

[1499588485657]$GPGSV,3,3,09,30,,,17*75

[1499588485657]$GPGLL,5356.66675,N,02740.99619,E,052125.00,A,A*66

[1499588486656]$GPRMC,052126.00,A,5356.66425,N,02740.98799,E,20.582,242.68,090717,,,A*52

[1499588486656]$GPVTG,242.68,T,,M,20.582,N,38.118,K,A*39

[1499588486656]$GPGGA,052126.00,5356.66425,N,02740.98799,E,1,06,1.32,220.6,M,24.8,M,,*51

[1499588486656]$GPGSA,A,3,24,17,13,19,28,15,,,,,,,6.36,1.32,6.22*03

[1499588486656]$GPGSV,3,1,09,12,,,32,13,45,184,33,15,53,244,36,17,51,113,40*4E

[1499588486656]$GPGSV,3,2,09,18,14,300,28,19,39,147,33,24,40,289,30,28,37,062,28*76

[1499588486656]$GPGSV,3,3,09,30,,,17*75

[1499588486656]$GPGLL,5356.66425,N,02740.98799,E,052126.00,A,A*6A

[1499588487646]$GPRMC,052127.00,A,5356.66154,N,02740.97899,E,22.294,242.90,090717,,,A*55

[1499588487646]$GPVTG,242.90,T,,M,22.294,N,41.288,K,A*38

[1499588487646]$GPGGA,052127.00,5356.66154,N,02740.97899,E,1,06,1.32,221.0,M,24.8,M,,*54

[1499588487646]$GPGSA,A,3,24,17,13,19,28,15,,,,,,,6.36,1.32,6.22*03

[1499588487646]$GPGSV,3,1,09,12,,,28,13,45,184,34,15,53,244,33,17,51,113,40*47

[1499588487646]$GPGSV,3,2,09,18,14,300,28,19,39,147,33,24,40,289,30,28,37,062,29*77

[1499588487646]$GPGSV,3,3,09,30,,,18*7A

[1499588487646]$GPGLL,5356.66154,N,02740.97899,E,052127.00,A,A*68

[1499588488656]$GPRMC,052128.00,A,5356.65855,N,02740.96930,E,23.763,242.14,090717,,,A*52

[1499588488656]$GPVTG,242.14,T,,M,23.763,N,44.009,K,A*36

[1499588488656]$GPGGA,052128.00,5356.65855,N,02740.96930,E,1,06,1.32,220.9,M,24.8,M,,*5B

[1499588488656]$GPGSA,A,3,24,17,13,19,28,15,,,,,,,6.36,1.32,6.22*03

[1499588488656]$GPGSV,3,1,09,12,,,28,13,45,184,33,15,53,244,31,17,51,113,37*42

[1499588488656]$GPGSV,3,2,09,18,14,300,27,19,39,147,36,24,40,289,31,28,37,062,28*7D

[1499588488656]$GPGSV,3,3,09,30,,,18*7A

[1499588488656]$GPGLL,5356.65855,N,02740.96930,E,052128.00,A,A*6F

[1499588489656]$GPRMC,052129.00,A,5356.65538,N,02740.95921,E,24.958,241.61,090717,,,A*56

[1499588489656]$GPVTG,241.61,T,,M,24.958,N,46.222,K,A*3F

[1499588489656]$GPGGA,052129.00,5356.65538,N,02740.95921,E,1,06,1.32,221.8,M,24.8,M,,*5F

[1499588489656]$GPGSA,A,3,24,17,13,19,28,15,,,,,,,6.36,1.32,6.22*03

[1499588489656]$GPGSV,3,1,09,12,,,28,13,45,184,33,15,53,244,31,17,51,113,42*40

[1499588489656]$GPGSV,3,2,09,18,14,300,26,19,39,147,35,24,40,289,32,28,37,062,28*7C

[1499588489656]$GPGSV,3,3,09,30,,,17*75

[1499588489656]$GPGLL,5356.65538,N,02740.95921,E,052129.00,A,A*6B

[1499588490658]$GPRMC,052130.00,A,5356.65209,N,02740.94869,E,25.874,241.82,090717,,,A*54

[1499588490658]$GPVTG,241.82,T,,M,25.874,N,47.919,K,A*3E

[1499588490658]$GPGGA,052130.00,5356.65209,N,02740.94869,E,1,06,1.32,222.6,M,24.8,M,,*53

[1499588490658]$GPGSA,A,3,24,17,13,19,28,15,,,,,,,6.36,1.32,6.22*03

[1499588490658]$GPGSV,3,1,10,01,,,35,12,,,28,13,44,184,34,15,53,244,30*7F

[1499588490658]$GPGSV,3,2,10,17,51,113,41,18,14,300,26,19,39,147,35,24,40,289,32*70

[1499588490658]$GPGSV,3,3,10,28,37,062,27,30,,,15*40

[1499588490658]$GPGLL,5356.65209,N,02740.94869,E,052130.00,A,A*6A

[1499588491656]$GPRMC,052131.00,A,5356.64871,N,02740.93781,E,26.713,241.66,090717,,,A*58

[1499588491656]$GPVTG,241.66,T,,M,26.713,N,49.473,K,A*36

[1499588491656]$GPGGA,052131.00,5356.64871,N,02740.93781,E,1,06,1.32,223.2,M,24.8,M,,*5D

[1499588491656]$GPGSA,A,3,24,17,13,19,28,15,,,,,,,6.36,1.32,6.23*02

[1499588491656]$GPGSV,3,1,10,01,,,34,12,,,28,13,44,184,34,15,53,244,31*7F

[1499588491656]$GPGSV,3,2,10,17,51,113,41,18,14,300,26,19,39,147,35,24,40,289,32*70

[1499588491656]$GPGSV,3,3,10,28,37,062,27,30,,,14*41

[1499588491656]$GPGLL,5356.64871,N,02740.93781,E,052131.00,A,A*61

[1499588492658]$GPRMC,052132.00,A,5356.64519,N,02740.92672,E,27.014,241.74,090717,,,A*56

[1499588492658]$GPVTG,241.74,T,,M,27.014,N,50.030,K,A*3F

[1499588492658]$GPGGA,052132.00,5356.64519,N,02740.92672,E,1,06,1.32,223.6,M,24.8,M,,*55

[1499588492658]$GPGSA,A,3,24,17,13,19,28,15,,,,,,,6.37,1.32,6.23*03

[1499588492658]$GPGSV,3,1,10,01,,,35,12,,,32,13,44,184,33,15,53,244,30*73

[1499588492658]$GPGSV,3,2,10,17,51,113,41,18,14,300,26,19,39,147,35,24,40,289,32*70

[1499588492658]$GPGSV,3,3,10,28,37,062,27,30,,,28*4E

[1499588492658]$GPGLL,5356.64519,N,02740.92672,E,052132.00,A,A*6D

[1499588493649]$GPRMC,052133.00,A,5356.64155,N,02740.91595,E,26.315,240.06,090717,,,A*55

[1499588493649]$GPVTG,240.06,T,,M,26.315,N,48.735,K,A*33

[1499588493649]$GPGGA,052133.00,5356.64155,N,02740.91595,E,1,06,1.32,224.2,M,24.8,M,,*52

[1499588493649]$GPGSA,A,3,24,17,13,19,28,15,,,,,,,6.37,1.32,6.23*03

[1499588493649]$GPGSV,3,1,10,01,,,34,12,,,32,13,44,184,33,15,53,244,28*7B

[1499588493649]$GPGSV,3,2,10,17,51,113,42,18,14,300,25,19,39,147,33,24,40,289,33*77

[1499588493649]$GPGSV,3,3,10,28,37,062,26,30,,,30*46

[1499588493649]$GPGLL,5356.64155,N,02740.91595,E,052133.00,A,A*69

[1499588494651]$GPRMC,052134.00,A,5356.63772,N,02740.90561,E,25.817,237.66,090717,,,A*50

[1499588494651]$GPVTG,237.66,T,,M,25.817,N,47.813,K,A*3B

[1499588494651]$GPGGA,052134.00,5356.63772,N,02740.90561,E,1,06,1.32,225.2,M,24.8,M,,*5A

[1499588494651]$GPGSA,A,3,24,17,13,19,28,15,,,,,,,6.37,1.32,6.23*03

[1499588494651]$GPGSV,3,1,10,01,,,34,12,,,27,13,44,184,30,15,53,244,27*73

[1499588494651]$GPGSV,3,2,10,17,51,113,44,18,14,300,25,19,39,147,35,24,40,289,36*72

[1499588494651]$GPGSV,3,3,10,28,37,062,26,30,,,31*47

[1499588494651]$GPGLL,5356.63772,N,02740.90561,E,052134.00,A,A*60

[1499588495646]$GPRMC,052135.00,A,5356.63376,N,02740.89591,E,24.737,235.53,090717,,,A*5E

[1499588495646]$GPVTG,235.53,T,,M,24.737,N,45.813,K,A*31

[1499588495646]$GPGGA,052135.00,5356.63376,N,02740.89591,E,1,06,1.32,226.1,M,24.8,M,,*5C

[1499588495646]$GPGSA,A,3,24,17,13,19,28,15,,,,,,,6.37,1.32,6.23*03

[1499588495646]$GPGSV,3,1,10,01,,,33,12,,,27,13,44,184,31,15,53,244,26*74

[1499588495646]$GPGSV,3,2,10,17,51,113,43,18,14,300,23,19,39,147,35,24,40,289,39*7C

[1499588495646]$GPGSV,3,3,10,28,37,062,27,30,,,30*47

[1499588495646]$GPGLL,5356.63376,N,02740.89591,E,052135.00,A,A*66

[1499588496656]$GPRMC,052136.00,A,5356.62966,N,02740.88708,E,23.782,231.89,090717,,,A*5E

[1499588496656]$GPVTG,231.89,T,,M,23.782,N,44.045,K,A*31

[1499588496656]$GPGGA,052136.00,5356.62966,N,02740.88708,E,1,06,1.32,226.8,M,24.8,M,,*5F

[1499588496656]$GPGSA,A,3,24,17,13,19,28,15,,,,,,,6.37,1.32,6.23*03

[1499588496656]$GPGSV,3,1,10,01,,,30,12,,,33,13,44,184,32,15,53,244,32*74

[1499588496656]$GPGSV,3,2,10,17,51,113,40,18,14,300,21,19,39,147,27,24,40,289,38*7F

[1499588496656]$GPGSV,3,3,10,28,37,062,36,30,,,21*47

[1499588496656]$GPGLL,5356.62966,N,02740.88708,E,052136.00,A,A*6C

[1499588497656]$GPRMC,052137.00,A,5356.62516,N,02740.87916,E,22.563,228.88,090717,,,A*5F

[1499588497656]$GPVTG,228.88,T,,M,22.563,N,41.787,K,A*38

[1499588497656]$GPGGA,052137.00,5356.62516,N,02740.87916,E,1,06,1.32,228.9,M,24.8,M,,*54

[1499588497656]$GPGSA,A,3,24,17,13,19,28,15,,,,,,,6.37,1.32,6.23*03

[1499588497656]$GPGSV,3,1,10,01,,,24,12,,,40,13,44,184,33,15,53,244,34*72

[1499588497656]$GPGSV,3,2,10,17,51,113,38,18,14,300,29,19,39,147,29,24,40,289,41*78

[1499588497656]$GPGSV,3,3,10,28,37,062,37,30,,,21*46

[1499588497656]$GPGLL,5356.62516,N,02740.87916,E,052137.00,A,A*68

[1499588498656]$GPRMC,052138.00,A,5356.62091,N,02740.87189,E,21.269,226.43,090717,,,A*53

[1499588498656]$GPVTG,226.43,T,,M,21.269,N,39.391,K,A*33

[1499588498656]$GPGGA,052138.00,5356.62091,N,02740.87189,E,1,06,1.32,229.7,M,24.8,M,,*50

[1499588498656]$GPGSA,A,3,24,17,13,19,28,15,,,,,,,6.37,1.32,6.24*04

[1499588498656]$GPGSV,3,1,10,01,,,26,12,,,40,13,44,184,34,15,53,244,37*74

[1499588498656]$GPGSV,3,2,10,17,51,113,31,18,14,300,27,19,39,147,29,24,40,289,39*70

[1499588498656]$GPGSV,3,3,10,28,37,062,33,30,,,25*46

[1499588498656]$GPGLL,5356.62091,N,02740.87189,E,052138.00,A,A*63

[1499588499657]$GPRMC,052139.00,A,5356.61695,N,02740.86524,E,19.803,224.00,090717,,,A*59

[1499588499657]$GPVTG,224.00,T,,M,19.803,N,36.675,K,A*3B

[1499588499657]$GPGGA,052139.00,5356.61695,N,02740.86524,E,1,06,1.32,229.6,M,24.8,M,,*53

[1499588499657]$GPGSA,A,3,24,17,13,19,28,15,,,,,,,6.38,1.32,6.24*0B

[1499588499657]$GPGSV,3,1,10,01,,,25,12,,,36,13,44,184,34,15,53,244,35*74

[1499588499657]$GPGSV,3,2,10,17,51,113,25,18,14,300,28,19,39,147,30,24,40,289,37*7C

[1499588499657]$GPGSV,3,3,10,28,37,062,29,30,,,22*4A

[1499588499657]$GPGLL,5356.61695,N,02740.86524,E,052139.00,A,A*61

[1499588500656]$GPRMC,052140.00,A,5356.61319,N,02740.85924,E,18.097,223.12,090717,,,A*59

[1499588500656]$GPVTG,223.12,T,,M,18.097,N,33.515,K,A*3B

[1499588500656]$GPGGA,052140.00,5356.61319,N,02740.85924,E,1,06,1.32,229.7,M,24.8,M,,*52

[1499588500656]$GPGSA,A,3,24,17,13,19,28,15,,,,,,,6.38,1.32,6.24*0B

[1499588500656]$GPGSV,3,1,10,01,,,22,12,,,33,13,44,184,33,15,53,244,39*7D

[1499588500656]$GPGSV,3,2,10,17,51,113,27,18,14,300,28,19,39,147,30,24,40,289,37*7E

[1499588500656]$GPGSV,3,3,10,28,37,062,30,30,,,20*40

[1499588500656]$GPGLL,5356.61319,N,02740.85924,E,052140.00,A,A*61

[1499588501656]$GPRMC,052141.00,A,5356.60967,N,02740.85394,E,16.380,222.45,090717,,,A*53

[1499588501656]$GPVTG,222.45,T,,M,16.380,N,30.336,K,A*37

[1499588501656]$GPGGA,052141.00,5356.60967,N,02740.85394,E,1,06,1.32,229.2,M,24.8,M,,*55

[1499588501656]$GPGSA,A,3,24,17,13,19,28,15,,,,,,,6.38,1.32,6.24*0B

[1499588501656]$GPGSV,3,1,10,01,,,21,12,,,34,13,44,184,33,15,53,244,40*77

[1499588501656]$GPGSV,3,2,10,17,51,113,32,18,14,300,28,19,39,147,29,24,40,289,38*7D

[1499588501656]$GPGSV,3,3,10,28,37,062,33,30,,,22*41

[1499588501656]$GPGLL,5356.60967,N,02740.85394,E,052141.00,A,A*63

[1499588502656]$GPRMC,052142.00,A,5356.60662,N,02740.84905,E,14.445,224.46,090717,,,A*50

[1499588502656]$GPVTG,224.46,T,,M,14.445,N,26.751,K,A*3C

[1499588502656]$GPGGA,052142.00,5356.60662,N,02740.84905,E,1,06,1.32,229.6,M,24.8,M,,*5B

[1499588502656]$GPGSA,A,3,24,17,13,19,28,15,,,,,,,6.38,1.32,6.24*0B

[1499588502656]$GPGSV,3,1,10,01,,,18,12,,,30,13,44,184,33,15,53,244,38*76

[1499588502656]$GPGSV,3,2,10,17,51,113,32,18,14,300,29,19,39,147,32,24,40,289,38*76

[1499588502656]$GPGSV,3,3,10,28,37,062,32,30,,,23*41

[1499588502656]$GPGLL,5356.60662,N,02740.84905,E,052142.00,A,A*69

[1499588503656]$GPRMC,052143.00,A,5356.60390,N,02740.84462,E,13.197,224.78,090717,,,A*55

[1499588503656]$GPVTG,224.78,T,,M,13.197,N,24.440,K,A*3D

[1499588503656]$GPGGA,052143.00,5356.60390,N,02740.84462,E,1,06,1.32,230.0,M,24.8,M,,*50

[1499588503656]$GPGSA,A,3,24,17,13,19,28,15,,,,,,,6.38,1.32,6.24*0B

[1499588503656]$GPGSV,3,1,10,01,,,19,12,,,23,13,44,184,34,15,53,244,36*7C

[1499588503656]$GPGSV,3,2,10,17,51,113,32,18,14,300,29,19,39,147,33,24,40,289,38*77

[1499588503656]$GPGSV,3,3,10,28,37,062,32,30,,,23*41

[1499588503656]$GPGLL,5356.60390,N,02740.84462,E,052143.00,A,A*6C

[1499588504656]$GPRMC,052144.00,A,5356.60134,N,02740.84035,E,12.717,225.90,090717,,,A*50

[1499588504656]$GPVTG,225.90,T,,M,12.717,N,23.552,K,A*30

[1499588504656]$GPGGA,052144.00,5356.60134,N,02740.84035,E,1,06,1.32,229.8,M,24.8,M,,*5D

[1499588504656]$GPGSA,A,3,24,17,13,19,28,15,,,,,,,6.38,1.32,6.24*0B

[1499588504656]$GPGSV,3,1,10,01,,,22,12,,,23,13,44,184,34,15,53,244,40*75

[1499588504656]$GPGSV,3,2,10,17,51,113,31,18,14,300,31,19,39,147,33,24,40,289,38*7D

[1499588504656]$GPGSV,3,3,10,28,37,062,35,30,,,22*47

[1499588504656]$GPGLL,5356.60134,N,02740.84035,E,052144.00,A,A*61

[1499588505646]$GPRMC,052145.00,A,5356.59890,N,02740.83603,E,12.368,228.79,090717,,,A*5E

[1499588505646]$GPVTG,228.79,T,,M,12.368,N,22.906,K,A*3A

[1499588505646]$GPGGA,052145.00,5356.59890,N,02740.83603,E,1,06,1.32,230.7,M,24.8,M,,*52

[1499588505646]$GPGSA,A,3,24,17,13,19,28,15,,,,,,,6.38,1.32,6.25*0A

[1499588505646]$GPGSV,3,1,10,01,,,29,12,,,16,13,44,184,29,15,53,244,38*7B

[1499588505646]$GPGSV,3,2,10,17,51,113,25,18,14,300,30,19,39,147,31,24,40,289,40*74

[1499588505646]$GPGSV,3,3,10,28,37,062,36,30,,,24*42

[1499588505646]$GPGLL,5356.59890,N,02740.83603,E,052145.00,A,A*69

[1499588506656]$GPRMC,052146.00,A,5356.59642,N,02740.83134,E,14.160,230.18,090717,,,A*5D

[1499588506656]$GPVTG,230.18,T,,M,14.160,N,26.224,K,A*37

[1499588506656]$GPGGA,052146.00,5356.59642,N,02740.83134,E,1,06,1.32,231.5,M,24.8,M,,*50

[1499588506656]$GPGSA,A,3,24,17,13,19,28,15,,,,,,,6.39,1.32,6.25*0B

[1499588506656]$GPGSV,3,1,10,01,,,27,12,,,26,13,44,184,31,15,53,244,36*71

[1499588506656]$GPGSV,3,2,10,17,51,113,35,18,14,300,33,19,39,147,30,24,40,289,40*77

[1499588506656]$GPGSV,3,3,10,28,37,062,37,30,,,23*44

[1499588506656]$GPGLL,5356.59642,N,02740.83134,E,052146.00,A,A*68

[1499588507656]$GPRMC,052147.00,A,5356.59355,N,02740.82545,E,17.122,232.41,090717,,,A*57

[1499588507656]$GPVTG,232.41,T,,M,17.122,N,31.710,K,A*38

[1499588507656]$GPGGA,052147.00,5356.59355,N,02740.82545,E,1,06,1.32,232.1,M,24.8,M,,*56

[1499588507656]$GPGSA,A,3,24,17,13,19,28,15,,,,,,,6.39,1.32,6.25*0B

[1499588507656]$GPGSV,3,1,10,01,,,27,12,,,26,13,44,184,31,15,53,244,36*71

[1499588507656]$GPGSV,3,2,10,17,51,113,40,18,14,300,33,19,39,147,25,24,40,289,40*71

[1499588507656]$GPGSV,3,3,10,28,37,062,33,30,,,22*41

[1499588507656]$GPGLL,5356.59355,N,02740.82545,E,052147.00,A,A*69

[1499588508656]$GPRMC,052148.00,A,5356.59038,N,02740.81830,E,19.652,233.50,090717,,,A*53

[1499588508656]$GPVTG,233.50,T,,M,19.652,N,36.396,K,A*3A

[1499588508656]$GPGGA,052148.00,5356.59038,N,02740.81830,E,1,06,1.32,231.8,M,24.8,M,,*57

[1499588508656]$GPGSA,A,3,24,17,13,19,28,15,,,,,,,6.39,1.32,6.25*0B

[1499588508656]$GPGSV,3,1,10,01,,,25,12,,,25,13,44,184,29,15,53,244,32*7D

[1499588508656]$GPGSV,3,2,10,17,51,113,41,18,14,300,31,19,39,147,32,24,40,289,38*7B

[1499588508656]$GPGSV,3,3,10,28,37,062,33,30,,,30*42

[1499588508656]$GPGLL,5356.59038,N,02740.81830,E,052148.00,A,A*62

[1499588509657]$GPRMC,052149.00,A,5356.58722,N,02740.81025,E,21.148,237.89,090717,,,A*54

[1499588509657]$GPVTG,237.89,T,,M,21.148,N,39.167,K,A*3E

[1499588509657]$GPGGA,052149.00,5356.58722,N,02740.81025,E,1,06,1.32,232.2,M,24.8,M,,*5E

[1499588509657]$GPGSA,A,3,24,17,13,19,28,15,,,,,,,6.39,1.32,6.25*0B

[1499588509657]$GPGSV,3,1,10,01,,,28,12,,,31,13,44,184,29,15,53,244,31*76

[1499588509657]$GPGSV,3,2,10,17,51,113,42,18,14,300,23,19,39,147,33,24,40,289,37*75

[1499588509657]$GPGSV,3,3,10,28,37,062,31,30,,,37*47

[1499588509657]$GPGLL,5356.58722,N,02740.81025,E,052149.00,A,A*62

[1499588510656]$GPRMC,052150.00,A,5356.58430,N,02740.80166,E,21.333,240.14,090717,,,A*51

[1499588510656]$GPVTG,240.14,T,,M,21.333,N,39.509,K,A*38

[1499588510656]$GPGGA,052150.00,5356.58430,N,02740.80166,E,1,06,1.32,232.9,M,24.8,M,,*5A

[1499588510656]$GPGSA,A,3,24,17,13,19,28,15,,,,,,,6.39,1.32,6.25*0B

[1499588510656]$GPGSV,3,1,10,01,,,33,12,,,31,13,44,184,33,15,53,244,31*77

[1499588510656]$GPGSV,3,2,10,17,51,113,38,18,14,300,26,19,39,147,32,24,40,289,33*78

[1499588510656]$GPGSV,3,3,10,28,37,062,30,30,,,35*44

[1499588510656]$GPGLL,5356.58430,N,02740.80166,E,052150.00,A,A*6D

[1499588511656]$GPRMC,052151.00,A,5356.58140,N,02740.79255,E,22.471,242.02,090717,,,A*50

[1499588511656]$GPVTG,242.02,T,,M,22.471,N,41.617,K,A*3C

[1499588511656]$GPGGA,052151.00,5356.58140,N,02740.79255,E,1,06,1.32,233.2,M,24.8,M,,*56

[1499588511656]$GPGSA,A,3,24,17,13,19,28,15,,,,,,,6.39,1.32,6.25*0B

[1499588511656]$GPGSV,3,1,10,01,,,33,12,,,33,13,44,184,30,15,53,244,31*76

[1499588511656]$GPGSV,3,2,10,17,51,113,38,18,14,300,25,19,39,147,33,24,40,289,32*7B

[1499588511656]$GPGSV,3,3,10,28,37,062,30,30,,,34*45

[1499588511656]$GPGLL,5356.58140,N,02740.79255,E,052151.00,A,A*6B

[1499588512656]$GPRMC,052152.00,A,5356.57846,N,02740.78277,E,23.987,243.48,090717,,,A*58

[1499588512656]$GPVTG,243.48,T,,M,23.987,N,44.425,K,A*30

[1499588512656]$GPGGA,052152.00,5356.57846,N,02740.78277,E,1,06,1.32,233.7,M,24.8,M,,*51

[1499588512656]$GPGSA,A,3,24,17,13,19,28,15,,,,,,,6.39,1.32,6.26*08

[1499588512656]$GPGSV,3,1,10,01,,,34,12,,,34,13,44,184,30,15,53,244,34*73

[1499588512656]$GPGSV,3,2,10,17,51,113,40,18,14,300,31,19,39,147,32,24,40,289,28*7B

[1499588512656]$GPGSV,3,3,10,28,37,062,30,30,,,29*49

[1499588512656]$GPGLL,5356.57846,N,02740.78277,E,052152.00,A,A*69

[1499588513646]$GPRMC,052153.00,A,5356.57534,N,02740.77220,E,25.535,244.47,090717,,,A*57

[1499588513646]$GPVTG,244.47,T,,M,25.535,N,47.290,K,A*30

[1499588513646]$GPGGA,052153.00,5356.57534,N,02740.77220,E,1,06,1.32,233.3,M,24.8,M,,*51

[1499588513646]$GPGSA,A,3,24,17,13,19,28,15,,,,,,,6.39,1.32,6.26*08

[1499588513646]$GPGSV,3,1,10,01,,,29,12,,,34,13,44,184,30,15,53,244,33*78

[1499588513646]$GPGSV,3,2,10,17,51,113,41,18,14,300,31,19,39,147,33,24,40,289,28*7B

[1499588513646]$GPGSV,3,3,10,28,37,062,30,30,,,21*41

[1499588513646]$GPGLL,5356.57534,N,02740.77220,E,052153.00,A,A*6D

[1499588514656]$GPRMC,052154.00,A,5356.57221,N,02740.76091,E,26.873,245.52,090717,,,A*53

[1499588514656]$GPVTG,245.52,T,,M,26.873,N,49.769,K,A*34

[1499588514656]$GPGGA,052154.00,5356.57221,N,02740.76091,E,1,06,1.32,232.4,M,24.8,M,,*5A

[1499588514656]$GPGSA,A,3,24,17,13,19,28,15,,,,,,,6.40,1.32,6.26*06

[1499588514656]$GPGSV,3,1,10,01,,,30,12,,,32,13,44,184,30,15,53,244,33*76

[1499588514656]$GPGSV,3,2,10,17,51,113,41,18,14,300,23,19,39,147,33,24,40,289,27*77

[1499588514656]$GPGSV,3,3,10,28,37,062,30,30,,,20*40

[1499588514656]$GPGLL,5356.57221,N,02740.76091,E,052154.00,A,A*60

[1499588515659]$GPRMC,052155.00,A,5356.56921,N,02740.74890,E,27.952,247.47,090717,,,A*56

[1499588515659]$GPVTG,247.47,T,,M,27.952,N,51.768,K,A*39

[1499588515659]$GPGGA,052155.00,5356.56921,N,02740.74890,E,1,06,1.32,232.0,M,24.8,M,,*5E

[1499588515659]$GPGSA,A,3,24,17,13,19,28,15,,,,,,,6.40,1.32,6.26*06

[1499588515659]$GPGSV,3,1,11,01,,,29,11,,,34,12,,,36,13,44,184,30*4C

[1499588515659]$GPGSV,3,2,11,15,53,244,33,17,51,113,40,18,14,300,34,19,39,147,32*74

[1499588515659]$GPGSV,3,3,11,24,40,289,30,28,37,062,30,30,,,29*7A

[1499588515659]$GPGLL,5356.56921,N,02740.74890,E,052155.00,A,A*60

[1499588516656]$GPRMC,052156.00,A,5356.56648,N,02740.73640,E,28.650,249.99,090717,,,A*5E

[1499588516656]$GPVTG,249.99,T,,M,28.650,N,53.059,K,A*31

[1499588516656]$GPGGA,052156.00,5356.56648,N,02740.73640,E,1,06,1.32,231.7,M,24.8,M,,*5D

[1499588516656]$GPGSA,A,3,24,17,13,19,28,15,,,,,,,6.40,1.32,6.26*06

[1499588516656]$GPGSV,3,1,11,01,,,20,11,,,32,12,,,36,13,44,184,32*41

[1499588516656]$GPGSV,3,2,11,15,53,244,33,17,51,113,38,18,14,300,38,19,39,147,33*76

[1499588516656]$GPGSV,3,3,11,24,40,289,29,28,37,062,30,30,,,29*72

[1499588516656]$GPGLL,5356.56648,N,02740.73640,E,052156.00,A,A*67

[1499588517657]$GPRMC,052157.00,A,5356.56394,N,02740.72331,E,29.626,253.06,090717,,,A*54

[1499588517657]$GPVTG,253.06,T,,M,29.626,N,54.868,K,A*31

[1499588517657]$GPGGA,052157.00,5356.56394,N,02740.72331,E,1,06,1.32,231.4,M,24.8,M,,*59

[1499588517657]$GPGSA,A,3,24,17,13,19,28,15,,,,,,,6.40,1.32,6.26*06

[1499588517657]$GPGSV,3,1,11,01,,,33,11,,,31,12,,,39,13,44,184,34*49

[1499588517657]$GPGSV,3,2,11,15,53,244,32,17,51,113,38,18,14,300,33,19,39,147,33*7C

[1499588517657]$GPGSV,3,3,11,24,40,289,29,28,37,062,29,30,,,29*7A

[1499588517657]$GPGLL,5356.56394,N,02740.72331,E,052157.00,A,A*60

[1499588518656]$GPRMC,052158.00,A,5356.56156,N,02740.70974,E,30.318,253.80,090717,,,A*50

[1499588518656]$GPVTG,253.80,T,,M,30.318,N,56.150,K,A*3F

[1499588518656]$GPGGA,052158.00,5356.56156,N,02740.70974,E,1,06,1.32,230.8,M,24.8,M,,*5E

[1499588518656]$GPGSA,A,3,24,17,13,19,28,15,,,,,,,6.40,1.32,6.26*06

[1499588518656]$GPGSV,3,1,11,01,,,34,11,,,31,12,,,39,13,44,184,34*4E

[1499588518656]$GPGSV,3,2,11,15,53,244,32,17,51,113,37,18,14,300,31,19,39,147,33*71

[1499588518656]$GPGSV,3,3,11,24,40,289,28,28,37,062,28,30,,,30*72

[1499588518656]$GPGLL,5356.56156,N,02740.70974,E,052158.00,A,A*6A

[1499588519656]$GPRMC,052159.00,A,5356.55923,N,02740.69580,E,30.995,254.52,090717,,,A*50

[1499588519656]$GPVTG,254.52,T,,M,30.995,N,57.402,K,A*3B

[1499588519656]$GPGGA,052159.00,5356.55923,N,02740.69580,E,1,06,1.32,230.3,M,24.8,M,,*52

[1499588519656]$GPGSA,A,3,24,17,13,19,28,15,,,,,,,6.40,1.32,6.26*06

[1499588519656]$GPGSV,3,1,11,01,,,35,11,,,32,12,,,39,13,44,184,34*4C

[1499588519656]$GPGSV,3,2,11,15,53,244,31,17,51,113,36,18,14,300,31,19,39,147,33*73

[1499588519656]$GPGSV,3,3,11,24,40,289,28,28,37,062,27,30,,,30*7D

[1499588519656]$GPGLL,5356.55923,N,02740.69580,E,052159.00,A,A*6D

[1499588520657]$GPRMC,052200.00,A,5356.55704,N,02740.68154,E,31.515,255.64,090717,,,A*59

[1499588520657]$GPVTG,255.64,T,,M,31.515,N,58.366,K,A*30

[1499588520657]$GPGGA,052200.00,5356.55704,N,02740.68154,E,1,06,1.32,229.9,M,24.8,M,,*58

[1499588520657]$GPGSA,A,3,24,17,13,19,28,15,,,,,,,6.40,1.32,6.27*07

[1499588520657]$GPGSV,3,1,11,01,,,35,11,,,31,12,,,35,13,44,184,33*44

[1499588520657]$GPGSV,3,2,11,15,53,244,31,17,51,113,34,18,14,300,32,19,39,147,33*72

[1499588520657]$GPGSV,3,3,11,24,40,289,27,28,37,062,27,30,,,29*7A

[1499588520657]$GPGLL,5356.55704,N,02740.68154,E,052200.00,A,A*65

[1499588521656]$GPRMC,052201.00,A,5356.55488,N,02740.66698,E,32.120,255.95,090717,,,A*59

[1499588521656]$GPVTG,255.95,T,,M,32.120,N,59.487,K,A*36

[1499588521656]$GPGGA,052201.00,5356.55488,N,02740.66698,E,1,06,1.32,229.7,M,24.8,M,,*59

[1499588521656]$GPGSA,A,3,24,17,13,19,28,15,,,,,,,6.40,1.32,6.27*07

[1499588521656]$GPGSV,3,1,11,01,,,35,11,,,31,12,,,37,13,44,184,32*47

[1499588521656]$GPGSV,3,2,11,15,53,244,31,17,51,113,34,18,14,300,36,19,39,147,33*76

[1499588521656]$GPGSV,3,3,11,24,40,289,28,28,37,062,27,30,,,29*75

[1499588521656]$GPGLL,5356.55488,N,02740.66698,E,052201.00,A,A*6A

[1499588522656]$GPRMC,052202.00,A,5356.55268,N,02740.65215,E,32.608,256.23,090717,,,A*53

[1499588522656]$GPVTG,256.23,T,,M,32.608,N,60.389,K,A*36

[1499588522656]$GPGGA,052202.00,5356.55268,N,02740.65215,E,1,06,1.32,229.4,M,24.8,M,,*53

[1499588522656]$GPGSA,A,3,24,17,13,19,28,15,,,,,,,6.41,1.32,6.27*06

[1499588522656]$GPGSV,3,1,11,01,,,35,11,,,31,12,,,33,13,44,184,31*40

[1499588522656]$GPGSV,3,2,11,15,53,244,32,17,51,113,34,18,14,300,36,19,39,147,33*75

[1499588522656]$GPGSV,3,3,11,24,40,289,28,28,37,062,28,30,,,30*72

[1499588522656]$GPGLL,5356.55268,N,02740.65215,E,052202.00,A,A*63

[1499588523647]$GPRMC,052203.00,A,5356.55049,N,02740.63715,E,32.903,256.24,090717,,,A*53

[1499588523647]$GPVTG,256.24,T,,M,32.903,N,60.936,K,A*3B

[1499588523647]$GPGGA,052203.00,5356.55049,N,02740.63715,E,1,06,1.32,229.2,M,24.8,M,,*56

[1499588523647]$GPGSA,A,3,24,17,13,19,28,15,,,,,,,6.41,1.32,6.27*06

[1499588523647]$GPGSV,3,1,11,01,,,36,11,,,31,12,,,36,13,44,184,31*46

[1499588523647]$GPGSV,3,2,11,15,53,244,31,17,51,113,34,18,14,300,36,19,39,147,33*76

[1499588523647]$GPGSV,3,3,11,24,40,289,28,28,37,062,29,30,,,31*72

[1499588523647]$GPGLL,5356.55049,N,02740.63715,E,052203.00,A,A*60

[1499588524656]$GPRMC,052204.00,A,5356.54836,N,02740.62203,E,33.044,256.44,090717,,,A*5B

[1499588524656]$GPVTG,256.44,T,,M,33.044,N,61.197,K,A*34

[1499588524656]$GPGGA,052204.00,5356.54836,N,02740.62203,E,1,06,1.32,229.1,M,24.8,M,,*50

[1499588524656]$GPGSA,A,3,24,17,13,19,28,15,,,,,,,6.41,1.32,6.27*06

[1499588524656]$GPGSV,3,1,11,01,,,35,11,,,31,12,,,35,13,44,184,30*47

[1499588524656]$GPGSV,3,2,11,15,53,244,32,17,51,113,33,18,14,300,36,19,39,147,27*77

[1499588524656]$GPGSV,3,3,11,24,40,289,27,28,37,062,29,30,,,32*7E

[1499588524656]$GPGLL,5356.54836,N,02740.62203,E,052204.00,A,A*65

[1499588525656]$GPRMC,052205.00,A,5356.54617,N,02740.60692,E,33.109,255.89,090717,,,A*53

[1499588525656]$GPVTG,255.89,T,,M,33.109,N,61.319,K,A*3A

[1499588525656]$GPGGA,052205.00,5356.54617,N,02740.60692,E,1,06,1.32,228.8,M,24.8,M,,*5A

[1499588525656]$GPGSA,A,3,24,17,13,19,28,15,,,,,,,6.41,1.32,6.27*06

[1499588525656]$GPGSV,3,1,11,01,,,35,11,,,31,12,,,35,13,44,184,30*47

[1499588525656]$GPGSV,3,2,11,15,53,244,31,17,51,113,35,18,14,300,36,19,39,147,33*77

[1499588525656]$GPGSV,3,3,11,24,40,289,27,28,37,062,30,30,,,31*75

[1499588525656]$GPGLL,5356.54617,N,02740.60692,E,052205.00,A,A*67

[1499588526656]$GPRMC,052206.00,A,5356.54400,N,02740.59178,E,33.077,257.02,090717,,,A*54

[1499588526656]$GPVTG,257.02,T,,M,33.077,N,61.259,K,A*36

[1499588526656]$GPGGA,052206.00,5356.54400,N,02740.59178,E,1,06,1.32,228.4,M,24.8,M,,*58

[1499588526656]$GPGSA,A,3,24,17,13,19,28,15,,,,,,,6.41,1.32,6.27*06

[1499588526656]$GPGSV,3,1,11,01,,,34,11,,,31,12,,,35,13,44,184,30*46

[1499588526656]$GPGSV,3,2,11,15,53,244,31,17,51,113,34,18,14,300,36,19,39,147,33*76

[1499588526656]$GPGSV,3,3,11,24,40,289,28,28,37,062,29,30,,,28*7A

[1499588526656]$GPGLL,5356.54400,N,02740.59178,E,052206.00,A,A*69

[1499588527656]$GPRMC,052207.00,A,5356.54182,N,02740.57666,E,32.990,256.58,090717,,,A*53

[1499588527656]$GPVTG,256.58,T,,M,32.990,N,61.098,K,A*36

[1499588527656]$GPGGA,052207.00,5356.54182,N,02740.57666,E,1,06,1.32,227.5,M,24.8,M,,*5E

[1499588527656]$GPGSA,A,3,24,17,13,19,28,15,,,,,,,6.41,1.32,6.27*06

[1499588527656]$GPGSV,3,1,11,01,,,34,11,,,32,12,,,34,13,44,184,31*45

[1499588527656]$GPGSV,3,2,11,15,53,244,32,17,51,113,34,18,14,300,37,19,39,147,32*75

[1499588527656]$GPGSV,3,3,11,24,40,289,30,28,37,062,29,30,,,31*7B

[1499588527656]$GPGLL,5356.54182,N,02740.57666,E,052207.00,A,A*61

[1499588528656]$GPRMC,052208.00,A,5356.53972,N,02740.56170,E,32.582,256.25,090717,,,A*58

[1499588528656]$GPVTG,256.25,T,,M,32.582,N,60.342,K,A*36

[1499588528656]$GPGGA,052208.00,5356.53972,N,02740.56170,E,1,06,1.32,226.8,M,24.8,M,,*5C

[1499588528656]$GPGSA,A,3,24,17,13,19,28,15,,,,,,,6.41,1.32,6.28*09

[1499588528656]$GPGSV,3,1,11,01,,,34,11,,,32,12,,,35,13,44,184,31*44

[1499588528656]$GPGSV,3,2,11,15,53,244,32,17,51,113,34,18,14,300,36,19,39,147,32*74

[1499588528656]$GPGSV,3,3,11,24,40,289,29,28,37,062,29,30,,,31*73

[1499588528656]$GPGLL,5356.53972,N,02740.56170,E,052208.00,A,A*6F

[1499588529656]$GPRMC,052209.00,A,5356.53760,N,02740.54694,E,32.129,256.53,090717,,,A*5F

[1499588529656]$GPVTG,256.53,T,,M,32.129,N,59.504,K,A*3C

[1499588529656]$GPGGA,052209.00,5356.53760,N,02740.54694,E,1,06,1.32,226.2,M,24.8,M,,*55

[1499588529656]$GPGSA,A,3,24,17,13,19,28,15,,,,,,,6.41,1.32,6.28*09

[1499588529656]$GPGSV,3,1,11,01,,,34,11,,,33,12,,,35,13,44,184,31*45

[1499588529656]$GPGSV,3,2,11,15,53,244,32,17,51,113,33,18,14,300,36,19,39,147,32*73

[1499588529656]$GPGSV,3,3,11,24,40,289,27,28,37,062,29,30,,,32*7E

[1499588529656]$GPGLL,5356.53760,N,02740.54694,E,052209.00,A,A*6C

[1499588530657]$GPRMC,052210.00,A,5356.53545,N,02740.53238,E,31.718,256.51,090717,,,A*52

[1499588530657]$GPVTG,256.51,T,,M,31.718,N,58.742,K,A*38

[1499588530657]$GPGGA,052210.00,5356.53545,N,02740.53238,E,1,06,1.32,225.6,M,24.8,M,,*5A

[1499588530657]$GPGSA,A,3,24,17,13,19,28,15,,,,,,,6.41,1.32,6.28*09

[1499588530657]$GPGSV,3,1,11,01,,,32,11,,,32,12,,,35,13,44,184,31*42

[1499588530657]$GPGSV,3,2,11,15,53,244,33,17,51,113,33,18,14,300,36,19,39,147,32*72

[1499588530657]$GPGSV,3,3,11,24,40,289,26,28,37,062,29,30,,,35*78

[1499588530657]$GPGLL,5356.53545,N,02740.53238,E,052210.00,A,A*64

[1499588531659]$GPRMC,052211.00,A,5356.53344,N,02740.51797,E,31.323,257.00,090717,,,A*5F

[1499588531659]$GPVTG,257.00,T,,M,31.323,N,58.009,K,A*39

[1499588531659]$GPGGA,052211.00,5356.53344,N,02740.51797,E,1,06,1.32,225.2,M,24.8,M,,*5A

[1499588531659]$GPGSA,A,3,24,17,13,19,28,15,,,,,,,6.42,1.32,6.28*0A

[1499588531659]$GPGSV,3,1,11,01,,,35,11,,,32,12,,,33,13,44,184,30*42

[1499588531659]$GPGSV,3,2,11,15,53,244,34,17,51,113,33,18,14,300,36,19,39,147,33*74

[1499588531659]$GPGSV,3,3,11,24,40,289,27,28,37,062,30,30,,,35*71

[1499588531659]$GPGLL,5356.53344,N,02740.51797,E,052211.00,A,A*60

[1499588532656]$GPRMC,052212.00,A,5356.53146,N,02740.50373,E,30.880,256.73,090717,,,A*55

[1499588532656]$GPVTG,256.73,T,,M,30.880,N,57.190,K,A*31

[1499588532656]$GPGGA,052212.00,5356.53146,N,02740.50373,E,1,06,1.32,224.2,M,24.8,M,,*57

[1499588532656]$GPGSA,A,3,24,17,13,19,28,15,,,,,,,6.42,1.32,6.28*0A

[1499588532656]$GPGSV,3,1,11,01,,,32,11,,,31,12,,,34,13,44,184,29*49

[1499588532656]$GPGSV,3,2,11,15,53,244,34,17,51,113,33,18,14,300,34,19,39,147,33*76

[1499588532656]$GPGSV,3,3,11,24,40,289,28,28,37,062,32,30,,,34*7D

[1499588532656]$GPGLL,5356.53146,N,02740.50373,E,052212.00,A,A*6C

[1499588533656]$GPRMC,052213.00,A,5356.52944,N,02740.48971,E,30.558,256.23,090717,,,A*53

[1499588533656]$GPVTG,256.23,T,,M,30.558,N,56.593,K,A*3A

[1499588533656]$GPGGA,052213.00,5356.52944,N,02740.48971,E,1,06,1.32,223.7,M,24.8,M,,*5E

[1499588533656]$GPGSA,A,3,24,17,13,19,28,15,,,,,,,6.42,1.32,6.28*0A

[1499588533656]$GPGSV,3,1,11,01,,,33,11,,,31,12,,,37,13,44,184,29*4B

[1499588533656]$GPGSV,3,2,11,15,53,244,33,17,51,113,31,18,14,300,35,19,39,147,33*72

[1499588533656]$GPGSV,3,3,11,24,40,289,27,28,37,062,32,30,,,33*75

[1499588533656]$GPGLL,5356.52944,N,02740.48971,E,052213.00,A,A*67

[1499588534656]$GPRMC,052214.00,A,5356.52738,N,02740.47587,E,30.172,255.87,090717,,,A*5A

[1499588534656]$GPVTG,255.87,T,,M,30.172,N,55.879,K,A*31

[1499588534656]$GPGGA,052214.00,5356.52738,N,02740.47587,E,1,06,1.32,223.1,M,24.8,M,,*50

[1499588534656]$GPGSA,A,3,24,17,13,19,28,15,,,,,,,6.42,1.32,6.28*0A

[1499588534656]$GPGSV,3,1,11,01,,,33,11,,,30,12,,,37,13,44,183,30*45

[1499588534656]$GPGSV,3,2,11,15,53,244,33,17,51,113,34,18,14,300,34,19,39,147,33*76

[1499588534656]$GPGSV,3,3,11,24,40,289,26,28,37,062,33,30,,,34*72

[1499588534656]$GPGLL,5356.52738,N,02740.47587,E,052214.00,A,A*6F

[1499588535656]$GPRMC,052215.00,A,5356.52544,N,02740.46258,E,28.644,256.60,090717,,,A*57

[1499588535656]$GPVTG,256.60,T,,M,28.644,N,53.049,K,A*3D

[1499588535656]$GPGGA,052215.00,5356.52544,N,02740.46258,E,1,06,1.32,222.3,M,24.8,M,,*5F

[1499588535656]$GPGSA,A,3,24,17,13,19,28,15,,,,,,,6.42,1.32,6.28*0A

[1499588535656]$GPGSV,3,1,11,01,,,33,11,,,30,12,,,37,13,44,183,30*45

[1499588535656]$GPGSV,3,2,11,15,53,244,32,17,51,113,31,18,14,300,34,19,39,147,33*72

[1499588535656]$GPGSV,3,3,11,24,40,289,26,28,37,062,32,30,,,33*74

[1499588535656]$GPGLL,5356.52544,N,02740.46258,E,052215.00,A,A*63

[1499588536659]$GPRMC,052216.00,A,5356.52386,N,02740.44999,E,26.795,258.58,090717,,,A*5E

[1499588536659]$GPVTG,258.58,T,,M,26.795,N,49.625,K,A*3C

[1499588536659]$GPGGA,052216.00,5356.52386,N,02740.44999,E,1,06,1.32,221.6,M,24.8,M,,*56

[1499588536659]$GPGSA,A,3,24,17,13,19,28,15,,,,,,,6.42,1.32,6.28*0A

[1499588536659]$GPGSV,3,1,11,01,,,32,11,,,31,12,,,29,13,44,183,28*43

[1499588536659]$GPGSV,3,2,11,15,53,244,30,17,51,113,31,18,14,300,37,19,39,147,32*72

[1499588536659]$GPGSV,3,3,11,24,40,289,33,28,37,062,32,30,,,33*70

[1499588536659]$GPGLL,5356.52386,N,02740.44999,E,052216.00,A,A*6C

[1499588537656]$GPRMC,052217.00,A,5356.52287,N,02740.43769,E,25.394,261.64,090717,,,A*5A

[1499588537656]$GPVTG,261.64,T,,M,25.394,N,47.031,K,A*32

[1499588537656]$GPGGA,052217.00,5356.52287,N,02740.43769,E,1,06,1.32,219.3,M,24.8,M,,*5F

[1499588537656]$GPGSA,A,3,24,17,13,19,28,15,,,,,,,6.42,1.32,6.29*0B

[1499588537656]$GPGSV,3,1,11,01,,,34,11,,,31,12,,,20,13,44,183,29*4D

[1499588537656]$GPGSV,3,2,11,15,53,244,31,17,51,113,36,18,14,300,29,19,39,147,33*7A

[1499588537656]$GPGSV,3,3,11,24,40,289,40,28,37,062,26,30,,,30*72

[1499588537656]$GPGLL,5356.52287,N,02740.43769,E,052217.00,A,A*6B

[1499588538656]$GPRMC,052218.00,A,5356.52220,N,02740.42612,E,24.670,267.69,090717,,,A*51

[1499588538656]$GPVTG,267.69,T,,M,24.670,N,45.690,K,A*38

[1499588538656]$GPGGA,052218.00,5356.52220,N,02740.42612,E,1,06,1.32,218.7,M,24.8,M,,*54

[1499588538656]$GPGSA,A,3,24,17,13,19,28,15,,,,,,,6.42,1.32,6.29*0B

[1499588538656]$GPGSV,3,1,11,01,,,36,11,,,31,12,,,33,13,44,183,18*4F

[1499588538656]$GPGSV,3,2,11,15,53,244,37,17,51,113,39,18,14,300,33,19,39,147,37*7C

[1499588538656]$GPGSV,3,3,11,24,40,289,40,28,37,062,32,30,,,23*75

[1499588538656]$GPGLL,5356.52220,N,02740.42612,E,052218.00,A,A*65

[1499588539659]$GPRMC,052219.00,A,5356.52242,N,02740.41484,E,24.160,274.36,090717,,,A*54

[1499588539659]$GPVTG,274.36,T,,M,24.160,N,44.745,K,A*3E

[1499588539659]$GPGGA,052219.00,5356.52242,N,02740.41484,E,1,06,1.32,215.4,M,24.8,M,,*51

[1499588539659]$GPGSA,A,3,24,17,13,19,28,15,,,,,,,6.42,1.32,6.29*0B

[1499588539659]$GPGSV,3,1,11,01,,,33,11,,,32,12,,,21,13,44,183,33*43

[1499588539659]$GPGSV,3,2,11,15,53,244,40,17,51,113,39,18,14,299,36,19,39,147,29*77

[1499588539659]$GPGSV,3,3,11,24,40,289,38,28,37,062,27,30,,,25*78

[1499588539659]$GPGLL,5356.52242,N,02740.41484,E,052219.00,A,A*6E

[1499588540656]$GPRMC,052220.00,A,5356.52366,N,02740.40367,E,24.287,282.04,090717,,,A*50

[1499588540656]$GPVTG,282.04,T,,M,24.287,N,44.979,K,A*3D

[1499588540656]$GPGGA,052220.00,5356.52366,N,02740.40367,E,1,06,1.32,213.1,M,24.8,M,,*54

[1499588540656]$GPGSA,A,3,24,17,13,19,28,15,,,,,,,6.43,1.32,6.29*0A

[1499588540656]$GPGSV,3,1,11,01,,,28,11,,,30,12,,,34,13,44,183,36*4A

[1499588540656]$GPGSV,3,2,11,15,53,244,39,17,51,113,39,18,14,299,26,19,39,147,33*73

[1499588540656]$GPGSV,3,3,11,24,40,289,35,28,37,062,24,30,,,27*74

[1499588540656]$GPGLL,5356.52366,N,02740.40367,E,052220.00,A,A*68

[1499588541656]$GPRMC,052221.00,A,5356.52571,N,02740.39265,E,24.469,288.46,090717,,,A*56

[1499588541656]$GPVTG,288.46,T,,M,24.469,N,45.316,K,A*35

[1499588541656]$GPGGA,052221.00,5356.52571,N,02740.39265,E,1,06,1.32,215.1,M,24.8,M,,*5E

[1499588541656]$GPGSA,A,3,24,17,13,19,28,15,,,,,,,6.43,1.32,6.29*0A

[1499588541656]$GPGSV,3,1,11,01,,,33,11,,,24,12,,,31,13,44,183,36*40

[1499588541656]$GPGSV,3,2,11,15,53,244,38,17,51,113,35,18,14,299,30,19,39,147,39*73

[1499588541656]$GPGSV,3,3,11,24,40,289,39,28,37,062,31,30,,,27*7C

[1499588541656]$GPGLL,5356.52571,N,02740.39265,E,052221.00,A,A*64

[1499588542656]$GPRMC,052222.00,A,5356.52873,N,02740.38235,E,24.347,297.40,090717,,,A*5D

[1499588542656]$GPVTG,297.40,T,,M,24.347,N,45.090,K,A*3B

[1499588542656]$GPGGA,052222.00,5356.52873,N,02740.38235,E,1,06,1.32,215.6,M,24.8,M,,*51

[1499588542656]$GPGSA,A,3,24,17,13,19,28,15,,,,,,,6.43,1.32,6.29*0A

[1499588542656]$GPGSV,3,1,11,01,,,33,11,,,26,12,,,35,13,44,183,29*48

[1499588542656]$GPGSV,3,2,11,15,53,244,43,17,51,113,30,18,14,299,30,19,39,147,37*74

[1499588542656]$GPGSV,3,3,11,24,41,289,29,28,37,062,32,30,,,32*7B

[1499588542656]$GPGLL,5356.52873,N,02740.38235,E,052222.00,A,A*6C

[1499588543656]$GPRMC,052223.00,A,5356.53232,N,02740.37273,E,23.681,303.69,090717,,,A*50

[1499588543656]$GPVTG,303.69,T,,M,23.681,N,43.858,K,A*3E

[1499588543656]$GPGGA,052223.00,5356.53232,N,02740.37273,E,1,06,1.32,214.5,M,24.8,M,,*51

[1499588543656]$GPGSA,A,3,24,17,13,19,28,15,,,,,,,6.43,1.32,6.29*0A

[1499588543656]$GPGSV,3,1,11,01,,,28,11,,,25,12,,,26,13,44,183,30*4B

[1499588543656]$GPGSV,3,2,11,15,53,244,36,17,51,113,29,18,14,299,28,19,39,147,33*73

[1499588543656]$GPGSV,3,3,11,24,41,289,37,28,37,062,25,30,,,36*76

[1499588543656]$GPGLL,5356.53232,N,02740.37273,E,052223.00,A,A*6E

[1499588544656]$GPRMC,052224.00,A,5356.53629,N,02740.36440,E,22.630,310.64,090717,,,A*5A

[1499588544656]$GPVTG,310.64,T,,M,22.630,N,41.911,K,A*34

[1499588544656]$GPGGA,052224.00,5356.53629,N,02740.36440,E,1,06,1.32,214.5,M,24.8,M,,*5F

[1499588544656]$GPGSA,A,3,24,17,13,19,28,15,,,,,,,6.43,1.32,6.29*0A

[1499588544656]$GPGSV,3,1,11,01,,,27,11,,,22,12,,,25,13,44,183,34*44

[1499588544656]$GPGSV,3,2,11,15,53,244,36,17,51,113,21,18,14,299,34,19,39,147,30*75

[1499588544656]$GPGSV,3,3,11,24,41,289,37,28,37,062,34,30,,,32*72

[1499588544656]$GPGLL,5356.53629,N,02740.36440,E,052224.00,A,A*60

[1499588545646]$GPRMC,052225.00,A,5356.54080,N,02740.35727,E,22.386,318.87,090717,,,A*55

[1499588545646]$GPVTG,318.87,T,,M,22.386,N,41.460,K,A*32

[1499588545646]$GPGGA,052225.00,5356.54080,N,02740.35727,E,1,06,1.32,214.1,M,24.8,M,,*59

[1499588545646]$GPGSA,A,3,24,17,13,19,28,15,,,,,,,6.43,1.32,6.29*0A

[1499588545646]$GPGSV,3,1,11,01,,,27,11,,,21,12,,,34,13,44,183,39*4A

[1499588545646]$GPGSV,3,2,11,15,53,244,32,17,51,113,37,18,14,299,32,19,39,147,36*76

[1499588545646]$GPGSV,3,3,11,24,41,289,35,28,37,062,35,30,,,32*71

[1499588545646]$GPGLL,5356.54080,N,02740.35727,E,052225.00,A,A*62

[1499588546656]$GPRMC,052226.00,A,5356.54582,N,02740.35136,E,22.133,327.64,090717,,,A*5A

[1499588546656]$GPVTG,327.64,T,,M,22.133,N,40.991,K,A*3D

[1499588546656]$GPGGA,052226.00,5356.54582,N,02740.35136,E,1,06,1.32,214.1,M,24.8,M,,*5B

[1499588546656]$GPGSA,A,3,24,17,13,19,28,15,,,,,,,6.43,1.32,6.29*0A

[1499588546656]$GPGSV,3,1,11,01,,,26,11,,,27,12,,,31,13,44,183,30*41

[1499588546656]$GPGSV,3,2,11,15,53,244,39,17,51,113,37,18,14,299,29,19,39,147,28*78

[1499588546656]$GPGSV,3,3,11,24,41,289,33,28,37,062,35,30,,,32*77

[1499588546656]$GPGLL,5356.54582,N,02740.35136,E,052226.00,A,A*60

[1499588547661]$GPRMC,052227.00,A,5356.55135,N,02740.34674,E,22.259,335.90,090717,,,A*55

[1499588547661]$GPVTG,335.90,T,,M,22.259,N,41.224,K,A*3E

[1499588547661]$GPGGA,052227.00,5356.55135,N,02740.34674,E,1,06,1.32,214.5,M,24.8,M,,*57

[1499588547661]$GPGSA,A,3,24,17,13,19,28,15,,,,,,,6.43,1.32,6.30*02

[1499588547661]$GPGSV,3,1,11,01,,,31,11,,,25,12,,,30,13,44,183,33*47

[1499588547661]$GPGSV,3,2,11,15,53,244,38,17,51,113,35,18,14,299,19,19,39,147,36*77

[1499588547661]$GPGSV,3,3,11,24,41,289,33,28,37,062,35,30,,,34*71

[1499588547661]$GPGLL,5356.55135,N,02740.34674,E,052227.00,A,A*68

[1499588548656]$GPRMC,052228.00,A,5356.55718,N,02740.34250,E,22.854,337.03,090717,,,A*5E

[1499588548656]$GPVTG,337.03,T,,M,22.854,N,42.326,K,A*31

[1499588548656]$GPGGA,052228.00,5356.55718,N,02740.34250,E,1,06,1.32,213.8,M,24.8,M,,*59

[1499588548656]$GPGSA,A,3,24,17,13,19,28,15,,,,,,,6.43,1.32,6.30*02

[1499588548656]$GPGSV,3,1,11,01,,,29,11,,,26,12,,,29,13,44,183,33*45

[1499588548656]$GPGSV,3,2,11,15,53,244,38,17,51,113,35,18,14,299,24,19,39,147,35*7A

[1499588548656]$GPGSV,3,3,11,24,41,289,30,28,37,062,36,30,,,39*7C

[1499588548656]$GPGLL,5356.55718,N,02740.34250,E,052228.00,A,A*6C

[1499588549656]$GPRMC,052229.00,A,5356.56284,N,02740.33722,E,23.807,332.24,090717,,,A*5C

[1499588549656]$GPVTG,332.24,T,,M,23.807,N,44.091,K,A*3F

[1499588549656]$GPGGA,052229.00,5356.56284,N,02740.33722,E,1,06,1.32,212.6,M,24.8,M,,*53

[1499588549656]$GPGSA,A,3,24,17,13,19,28,15,,,,,,,6.43,1.32,6.30*02

[1499588549656]$GPGSV,3,1,11,01,,,30,11,,,25,12,,,22,13,44,183,34*42

[1499588549656]$GPGSV,3,2,11,15,53,244,40,17,51,113,38,18,14,299,26,19,39,147,35*7A

[1499588549656]$GPGSV,3,3,11,24,41,289,34,28,37,062,36,30,,,34*75

[1499588549656]$GPGLL,5356.56284,N,02740.33722,E,052229.00,A,A*69

[1499588550656]$GPRMC,052230.00,A,5356.56881,N,02740.33144,E,25.320,331.04,090717,,,A*54

[1499588550656]$GPVTG,331.04,T,,M,25.320,N,46.893,K,A*3E

[1499588550656]$GPGGA,052230.00,5356.56881,N,02740.33144,E,1,06,1.32,212.4,M,24.8,M,,*50

[1499588550656]$GPGSA,A,3,24,17,13,19,28,15,,,,,,,6.44,1.32,6.30*05

[1499588550656]$GPGSV,3,1,11,01,,,30,11,,,21,12,,,32,13,44,183,33*40

[1499588550656]$GPGSV,3,2,11,15,53,244,42,17,51,113,38,18,14,299,32,19,39,147,34*7C

[1499588550656]$GPGSV,3,3,11,24,41,289,35,28,37,062,36,30,,,33*73

[1499588550656]$GPGLL,5356.56881,N,02740.33144,E,052230.00,A,A*68

[1499588551656]$GPRMC,052231.00,A,5356.57524,N,02740.32521,E,27.149,330.17,090717,,,A*5C

[1499588551656]$GPVTG,330.17,T,,M,27.149,N,50.280,K,A*3D

[1499588551656]$GPGGA,052231.00,5356.57524,N,02740.32521,E,1,06,1.32,212.5,M,24.8,M,,*55

[1499588551656]$GPGSA,A,3,24,17,13,19,28,15,,,,,,,6.44,1.32,6.30*05

[1499588551656]$GPGSV,3,1,11,01,,,29,11,,,20,12,,,31,13,44,183,33*4A

[1499588551656]$GPGSV,3,2,11,15,53,244,40,17,51,113,38,18,14,299,32,19,39,147,34*7E

[1499588551656]$GPGSV,3,3,11,24,41,289,35,28,37,062,36,30,,,33*73

[1499588551656]$GPGLL,5356.57524,N,02740.32521,E,052231.00,A,A*6C

[1499588552657]$GPRMC,052232.00,A,5356.58185,N,02740.31806,E,28.902,326.86,090717,,,A*53

[1499588552657]$GPVTG,326.86,T,,M,28.902,N,53.527,K,A*33

[1499588552657]$GPGGA,052232.00,5356.58185,N,02740.31806,E,1,06,1.32,213.1,M,24.8,M,,*58

[1499588552657]$GPGSA,A,3,24,17,13,19,28,15,,,,,,,6.44,1.32,6.30*05

[1499588552657]$GPGSV,3,1,11,01,,,27,11,,,20,12,,,29,13,44,183,27*48

[1499588552657]$GPGSV,3,2,11,15,53,244,40,17,51,113,36,18,14,299,27,19,39,147,30*70

[1499588552657]$GPGSV,3,3,11,24,41,289,35,28,37,062,35,30,,,34*77

[1499588552657]$GPGLL,5356.58185,N,02740.31806,E,052232.00,A,A*64

[1499588553656]$GPRMC,052233.00,A,5356.58884,N,02740.31025,E,30.760,326.89,090717,,,A*5F

[1499588553656]$GPVTG,326.89,T,,M,30.760,N,56.967,K,A*32

[1499588553656]$GPGGA,052233.00,5356.58884,N,02740.31025,E,1,06,1.32,213.5,M,24.8,M,,*5C

[1499588553656]$GPGSA,A,3,24,17,13,19,28,15,,,,,,,6.44,1.32,6.30*05

[1499588553656]$GPGSV,3,1,11,01,,,27,11,,,24,12,,,34,13,44,183,26*41

[1499588553656]$GPGSV,3,2,11,15,53,244,40,17,51,113,37,18,14,299,27,19,39,147,31*70

[1499588553656]$GPGSV,3,3,11,24,41,289,35,28,37,062,35,30,,,34*77

[1499588553656]$GPGLL,5356.58884,N,02740.31025,E,052233.00,A,A*64

[1499588554656]$GPRMC,052234.00,A,5356.59636,N,02740.30205,E,32.804,327.76,090717,,,A*51

[1499588554656]$GPVTG,327.76,T,,M,32.804,N,60.752,K,A*31

[1499588554656]$GPGGA,052234.00,5356.59636,N,02740.30205,E,1,06,1.32,213.5,M,24.8,M,,*5C

[1499588554656]$GPGSA,A,3,24,17,13,19,28,15,,,,,,,6.44,1.32,6.30*05

[1499588554656]$GPGSV,3,1,11,01,,,27,11,,,25,12,,,35,13,44,183,26*41

[1499588554656]$GPGSV,3,2,11,15,53,244,40,17,51,113,38,18,14,299,28,19,39,147,31*70

[1499588554656]$GPGSV,3,3,11,24,41,289,34,28,37,062,36,30,,,36*77

[1499588554656]$GPGLL,5356.59636,N,02740.30205,E,052234.00,A,A*64

[1499588555656]$GPRMC,052235.00,A,5356.60443,N,02740.29335,E,35.134,327.63,090717,,,A*59

[1499588555656]$GPVTG,327.63,T,,M,35.134,N,65.068,K,A*33

[1499588555656]$GPGGA,052235.00,5356.60443,N,02740.29335,E,1,06,1.32,213.6,M,24.8,M,,*5E

[1499588555656]$GPGSA,A,3,24,17,13,19,28,15,,,,,,,6.44,1.32,6.30*05

[1499588555656]$GPGSV,3,1,11,01,,,31,11,,,24,12,,,35,13,44,183,26*47

[1499588555656]$GPGSV,3,2,11,15,53,244,40,17,51,113,38,18,14,299,19,19,39,147,31*72

[1499588555656]$GPGSV,3,3,11,24,41,289,34,28,37,062,36,30,,,36*77

[1499588555656]$GPGLL,5356.60443,N,02740.29335,E,052235.00,A,A*65

[1499588556656]$GPRMC,052236.00,A,5356.61285,N,02740.28378,E,37.342,326.03,090717,,,A*59

[1499588556656]$GPVTG,326.03,T,,M,37.342,N,69.158,K,A*3B

[1499588556656]$GPGGA,052236.00,5356.61285,N,02740.28378,E,1,06,1.32,213.6,M,24.8,M,,*58

[1499588556656]$GPGSA,A,3,24,17,13,19,28,15,,,,,,,6.44,1.32,6.30*05

[1499588556656]$GPGSV,3,1,11,01,,,32,11,,,24,12,,,30,13,44,183,27*40

[1499588556656]$GPGSV,3,2,11,15,53,244,40,17,51,113,38,18,14,299,23,19,39,147,29*72

[1499588556656]$GPGSV,3,3,11,24,41,289,35,28,37,062,32,30,,,35*71

[1499588556656]$GPGLL,5356.61285,N,02740.28378,E,052236.00,A,A*63

[1499588557656]$GPRMC,052237.00,A,5356.62145,N,02740.27315,E,39.277,323.31,090717,,,A*5D

[1499588557656]$GPVTG,323.31,T,,M,39.277,N,72.742,K,A*31

[1499588557656]$GPGGA,052237.00,5356.62145,N,02740.27315,E,1,06,1.32,214.2,M,24.8,M,,*52

[1499588557656]$GPGSA,A,3,24,17,13,19,28,15,,,,,,,6.44,1.32,6.30*05

[1499588557656]$GPGSV,3,1,11,01,,,34,11,,,24,12,,,34,13,44,183,36*42

[1499588557656]$GPGSV,3,2,11,15,53,244,38,17,51,113,36,18,14,299,24,19,39,147,28*75

[1499588557656]$GPGSV,3,3,11,24,41,289,37,28,37,062,26,30,,,37*74

[1499588557656]$GPGLL,5356.62145,N,02740.27315,E,052237.00,A,A*6A

[1499588558658]$GPRMC,052238.00,A,5356.63009,N,02740.26126,E,40.872,320.15,090717,,,A*5D

[1499588558658]$GPVTG,320.15,T,,M,40.872,N,75.695,K,A*39

[1499588558658]$GPGGA,052238.00,5356.63009,N,02740.26126,E,1,06,1.32,214.4,M,24.8,M,,*50

[1499588558658]$GPGSA,A,3,24,17,13,19,28,15,,,,,,,6.44,1.32,6.31*04

[1499588558658]$GPGSV,3,1,11,01,,,26,11,,,22,12,,,37,13,44,183,37*45

[1499588558658]$GPGSV,3,2,11,15,53,244,35,17,51,113,34,18,14,299,27,19,39,147,33*73

[1499588558658]$GPGSV,3,3,11,24,41,289,36,28,37,062,32,30,,,35*72

[1499588558658]$GPGLL,5356.63009,N,02740.26126,E,052238.00,A,A*6E

[1499588559656]$GPRMC,052239.00,A,5356.63853,N,02740.24794,E,41.625,315.55,090717,,,A*59

[1499588559656]$GPVTG,315.55,T,,M,41.625,N,77.090,K,A*37

[1499588559656]$GPGGA,052239.00,5356.63853,N,02740.24794,E,1,06,1.32,215.2,M,24.8,M,,*5C

[1499588559656]$GPGSA,A,3,24,17,13,19,28,15,,,,,,,6.44,1.32,6.31*04

[1499588559656]$GPGSV,3,1,12,01,,,31,10,,,34,11,,,21,12,,,29*76

[1499588559656]$GPGSV,3,2,12,13,44,183,36,15,52,243,34,17,51,113,34,18,14,299,36*7A

[1499588559656]$GPGSV,3,3,12,19,39,147,37,24,41,289,32,28,37,062,33,30,,,39*4C

[1499588559656]$GPGLL,5356.63853,N,02740.24794,E,052239.00,A,A*65

[1499588560656]$GPRMC,052240.00,A,5356.64629,N,02740.23382,E,42.208,311.87,090717,,,A*54

[1499588560656]$GPVTG,311.87,T,,M,42.208,N,78.169,K,A*3C

[1499588560656]$GPGGA,052240.00,5356.64629,N,02740.23382,E,1,06,1.32,217.6,M,24.8,M,,*54

[1499588560656]$GPGSA,A,3,24,17,13,19,28,15,,,,,,,6.44,1.32,6.31*04

[1499588560656]$GPGSV,3,1,12,01,,,24,10,,,34,11,,,23,12,,,28*71

[1499588560656]$GPGSV,3,2,12,13,44,183,34,15,52,243,33,17,51,113,30,18,14,299,33*7E

[1499588560656]$GPGSV,3,3,12,19,39,147,36,24,41,289,40,28,37,062,37,30,,,35*40

[1499588560656]$GPGLL,5356.64629,N,02740.23382,E,052240.00,A,A*6B

[1499588561657]$GPRMC,052241.00,A,5356.65351,N,02740.21852,E,42.621,308.88,090717,,,A*52

[1499588561657]$GPVTG,308.88,T,,M,42.621,N,78.933,K,A*33

[1499588561657]$GPGGA,052241.00,5356.65351,N,02740.21852,E,1,06,1.32,219.4,M,24.8,M,,*56

[1499588561657]$GPGSA,A,3,24,17,13,19,28,15,,,,,,,6.45,1.32,6.31*05

[1499588561657]$GPGSV,3,1,12,01,,,23,10,,,31,11,,,21,12,,,30*78

[1499588561657]$GPGSV,3,2,12,13,44,183,34,15,52,243,37,17,51,112,31,18,14,299,32*7B

[1499588561657]$GPGSV,3,3,12,19,39,147,35,24,41,289,40,28,37,062,37,30,,,19*4D

[1499588561657]$GPGLL,5356.65351,N,02740.21852,E,052241.00,A,A*65

[1499588562656]$GPRMC,052242.00,A,5356.66082,N,02740.20274,E,43.019,307.97,090717,,,A*5D

[1499588562656]$GPVTG,307.97,T,,M,43.019,N,79.670,K,A*37

[1499588562656]$GPGGA,052242.00,5356.66082,N,02740.20274,E,1,06,1.32,220.6,M,24.8,M,,*5C

[1499588562656]$GPGSA,A,3,24,17,13,19,28,15,,,,,,,6.45,1.32,6.31*05

[1499588562656]$GPGSV,3,1,12,01,,,25,10,,,25,11,,,20,12,,,31*7B

[1499588562656]$GPGSV,3,2,12,13,44,183,35,15,52,243,37,17,51,112,31,18,14,299,31*79

[1499588562656]$GPGSV,3,3,12,19,39,147,32,24,41,289,39,28,37,062,35,30,,,29*45

[1499588562656]$GPGLL,5356.66082,N,02740.20274,E,052242.00,A,A*67

[1499588563656]$GPRMC,052243.00,A,5356.66809,N,02740.18670,E,43.383,307.49,090717,,,A*5F

[1499588563656]$GPVTG,307.49,T,,M,43.383,N,80.345,K,A*31

[1499588563656]$GPGGA,052243.00,5356.66809,N,02740.18670,E,1,06,1.32,221.9,M,24.8,M,,*53

[1499588563656]$GPGSA,A,3,24,17,13,19,28,15,,,,,,,6.45,1.32,6.31*05

[1499588563656]$GPGSV,3,1,12,01,,,26,10,,,26,11,,,17,12,,,31*7F

[1499588563656]$GPGSV,3,2,12,13,44,183,34,15,52,243,38,17,51,112,30,18,14,299,31*76

[1499588563656]$GPGSV,3,3,12,19,39,147,32,24,41,289,39,28,37,062,35,30,,,30*4D

[1499588563656]$GPGLL,5356.66809,N,02740.18670,E,052243.00,A,A*66

[1499588564656]$GPRMC,052244.00,A,5356.67534,N,02740.17020,E,43.891,306.59,090717,,,A*5E

[1499588564656]$GPVTG,306.59,T,,M,43.891,N,81.286,K,A*36

[1499588564656]$GPGGA,052244.00,5356.67534,N,02740.17020,E,1,06,1.32,222.8,M,24.8,M,,*58

[1499588564656]$GPGSA,A,3,24,17,13,19,28,15,,,,,,,6.45,1.32,6.31*05

[1499588564656]$GPGSV,3,1,12,01,,,26,10,,,26,11,,,14,12,,,31*7C

[1499588564656]$GPGSV,3,2,12,13,44,183,32,15,52,243,39,17,51,112,29,18,14,299,31*79

[1499588564656]$GPGSV,3,3,12,19,39,147,31,24,41,289,36,28,37,062,35,30,,,34*45

[1499588564656]$GPGLL,5356.67534,N,02740.17020,E,052244.00,A,A*6F

[1499588565656]$GPRMC,052245.00,A,5356.68255,N,02740.15334,E,44.397,305.68,090717,,,A*5F

[1499588565656]$GPVTG,305.68,T,,M,44.397,N,82.223,K,A*31

[1499588565656]$GPGGA,052245.00,5356.68255,N,02740.15334,E,1,06,1.32,223.3,M,24.8,M,,*58

[1499588565656]$GPGSA,A,3,24,17,13,19,28,15,,,,,,,6.45,1.32,6.31*05

[1499588565656]$GPGSV,3,1,12,01,,,24,10,,,31,11,,,14,12,,,29*71

[1499588565656]$GPGSV,3,2,12,13,44,183,31,15,52,243,40,17,51,112,29,18,14,299,31*74

[1499588565656]$GPGSV,3,3,12,19,39,147,31,24,41,289,35,28,37,062,34,30,,,34*47

[1499588565656]$GPGLL,5356.68255,N,02740.15334,E,052245.00,A,A*65

[1499588566657]$GPRMC,052246.00,A,5356.68963,N,02740.13607,E,44.914,304.53,090717,,,A*59

[1499588566657]$GPVTG,304.53,T,,M,44.914,N,83.181,K,A*33

[1499588566657]$GPGGA,052246.00,5356.68963,N,02740.13607,E,1,06,1.32,223.4,M,24.8,M,,*51

[1499588566657]$GPGSA,A,3,24,17,13,19,28,15,,,,,,,6.45,1.32,6.31*05

[1499588566657]$GPGSV,3,1,12,01,,,24,10,,,30,11,,,13,12,,,26*78

[1499588566657]$GPGSV,3,2,12,13,44,183,29,15,52,243,40,17,51,112,28,18,14,299,30*7D

[1499588566657]$GPGSV,3,3,12,19,39,147,33,24,41,289,33,28,37,062,31,30,,,36*44

[1499588566657]$GPGLL,5356.68963,N,02740.13607,E,052246.00,A,A*6B

[1499588567656]$GPRMC,052247.00,A,5356.69657,N,02740.11830,E,45.441,303.19,090717,,,A*5C

[1499588567656]$GPVTG,303.19,T,,M,45.441,N,84.157,K,A*3A

[1499588567656]$GPGGA,052247.00,5356.69657,N,02740.11830,E,1,06,1.32,222.8,M,24.8,M,,*5C

[1499588567656]$GPGSA,A,3,24,17,13,19,28,15,,,,,,,6.45,1.32,6.31*05

[1499588567656]$GPGSV,3,1,12,01,,,22,10,,,30,11,,,13,12,,,24*7C

[1499588567656]$GPGSV,3,2,12,13,44,183,28,15,52,243,41,17,51,112,27,18,14,299,30*72

[1499588567656]$GPGSV,3,3,12,19,39,147,32,24,41,289,31,28,37,062,23,30,,,36*44

[1499588567656]$GPGLL,5356.69657,N,02740.11830,E,052247.00,A,A*6B

[1499588568658]$GPRMC,052248.00,A,5356.70344,N,02740.10013,E,46.061,302.46,090717,,,A*5A

[1499588568658]$GPVTG,302.46,T,,M,46.061,N,85.304,K,A*31

[1499588568658]$GPGGA,052248.00,5356.70344,N,02740.10013,E,1,06,1.32,222.7,M,24.8,M,,*5B

[1499588568658]$GPGSA,A,3,24,17,13,19,28,15,,,,,,,6.45,1.32,6.31*05

[1499588568658]$GPGSV,3,1,12,01,,,18,10,,,29,11,,,13,12,,,23*7A

[1499588568658]$GPGSV,3,2,12,13,44,183,28,15,52,243,41,17,51,112,27,18,14,299,31*73

[1499588568658]$GPGSV,3,3,12,19,39,147,32,24,41,289,30,28,37,062,23,30,,,36*45

[1499588568658]$GPGLL,5356.70344,N,02740.10013,E,052248.00,A,A*63

[1499588569656]$GPRMC,052249.00,A,5356.71037,N,02740.08154,E,46.914,302.24,090717,,,A*59

[1499588569656]$GPVTG,302.24,T,,M,46.914,N,86.884,K,A*3E

[1499588569656]$GPGGA,052249.00,5356.71037,N,02740.08154,E,1,06,1.32,222.6,M,24.8,M,,*56

[1499588569656]$GPGSA,A,3,24,17,13,19,28,15,,,,,,,6.45,1.32,6.31*05

[1499588569656]$GPGSV,3,1,11,01,,,12,10,,,28,12,,,21,13,44,183,28*40

[1499588569656]$GPGSV,3,2,11,15,52,243,42,17,51,112,26,18,14,299,26,19,39,147,31*74

[1499588569656]$GPGSV,3,3,11,24,41,289,30,28,37,062,25,30,,,34*73

[1499588569656]$GPGLL,5356.71037,N,02740.08154,E,052249.00,A,A*6F

[1499588570657]$GPRMC,052250.00,A,5356.71724,N,02740.06249,E,47.592,301.40,090717,,,A*57

[1499588570657]$GPVTG,301.40,T,,M,47.592,N,88.141,K,A*32

[1499588570657]$GPGGA,052250.00,5356.71724,N,02740.06249,E,1,06,1.32,222.4,M,24.8,M,,*58

[1499588570657]$GPGSA,A,3,24,17,13,19,28,15,,,,,,,6.45,1.32,6.32*06

[1499588570657]$GPGSV,3,1,11,01,,,13,10,,,32,12,,,23,13,44,183,28*48

[1499588570657]$GPGSV,3,2,11,15,52,243,42,17,51,112,28,18,14,299,27,19,39,147,32*78

[1499588570657]$GPGSV,3,3,11,24,41,289,29,28,37,062,27,30,,,35*78

[1499588570657]$GPGLL,5356.71724,N,02740.06249,E,052250.00,A,A*63

[1499588571656]$GPRMC,052251.00,A,5356.72418,N,02740.04312,E,48.316,301.12,090717,,,A*56

[1499588571656]$GPVTG,301.12,T,,M,48.316,N,89.481,K,A*38

[1499588571656]$GPGGA,052251.00,5356.72418,N,02740.04312,E,1,06,1.32,222.5,M,24.8,M,,*5A

[1499588571656]$GPGSA,A,3,24,17,13,19,28,15,,,,,,,6.45,1.32,6.32*06

[1499588571656]$GPGSV,3,1,11,01,,,14,10,,,28,12,,,26,13,44,183,30*48

[1499588571656]$GPGSV,3,2,11,15,52,243,43,17,51,112,28,18,14,299,28,19,39,147,33*77

[1499588571656]$GPGSV,3,3,11,24,41,289,29,28,37,062,30,30,,,35*7E

[1499588571656]$GPGLL,5356.72418,N,02740.04312,E,052251.00,A,A*60

[1499588572657]$GPRMC,052252.00,A,5356.73123,N,02740.02340,E,49.174,301.28,090717,,,A*56

[1499588572657]$GPVTG,301.28,T,,M,49.174,N,91.070,K,A*35

[1499588572657]$GPGGA,052252.00,5356.73123,N,02740.02340,E,1,06,1.32,222.3,M,24.8,M,,*52

[1499588572657]$GPGSA,A,3,24,17,13,19,28,15,,,,,,,6.45,1.32,6.32*06

[1499588572657]$GPGSV,3,1,11,01,,,30,10,,,32,12,,,25,13,44,183,30*46

[1499588572657]$GPGSV,3,2,11,15,52,243,42,17,51,112,29,18,14,299,29,19,39,147,33*76

[1499588572657]$GPGSV,3,3,11,24,41,289,29,28,37,062,30,30,,,35*7E

[1499588572657]$GPGLL,5356.73123,N,02740.02340,E,052252.00,A,A*6E

[1499588573656]$GPRMC,052253.00,A,5356.73834,N,02740.00331,E,49.991,301.06,090717,,,A*53

[1499588573656]$GPVTG,301.06,T,,M,49.991,N,92.583,K,A*30

[1499588573656]$GPGGA,052253.00,5356.73834,N,02740.00331,E,1,06,1.32,221.9,M,24.8,M,,*51

[1499588573656]$GPGSA,A,3,24,17,13,19,28,15,,,,,,,6.45,1.32,6.32*06

[1499588573656]$GPGSV,3,1,11,01,,,32,10,,,33,12,,,26,13,44,183,29*4E

[1499588573656]$GPGSV,3,2,11,15,52,243,42,17,51,112,29,18,14,299,29,19,39,147,33*76

[1499588573656]$GPGSV,3,3,11,24,41,289,28,28,37,062,31,30,,,35*7E

[1499588573656]$GPGLL,5356.73834,N,02740.00331,E,052253.00,A,A*64

[1499588574669]$GPRMC,052254.00,A,5356.74555,N,02739.98289,E,50.818,300.99,090717,,,A*5B

[1499588574669]$GPVTG,300.99,T,,M,50.818,N,94.116,K,A*31

[1499588574669]$GPGGA,052254.00,5356.74555,N,02739.98289,E,1,06,1.32,221.8,M,24.8,M,,*57

[1499588574669]$GPGSA,A,3,24,17,13,19,28,15,,,,,,,6.46,1.32,6.32*05

[1499588574669]$GPGSV,3,1,11,01,,,26,10,,,33,12,,,27,13,44,183,29*4A

[1499588574669]$GPGSV,3,2,11,15,52,243,42,17,51,112,28,18,14,299,31,19,39,147,33*7E

[1499588574669]$GPGSV,3,3,11,24,41,289,28,28,37,062,32,30,,,34*7C

[1499588574669]$GPGLL,5356.74555,N,02739.98289,E,052254.00,A,A*63

[1499588575656]$GPRMC,052255.00,A,5356.75290,N,02739.96203,E,51.530,300.78,090717,,,A*50

[1499588575656]$GPVTG,300.78,T,,M,51.530,N,95.434,K,A*3C

[1499588575656]$GPGGA,052255.00,5356.75290,N,02739.96203,E,1,08,1.13,221.5,M,24.8,M,,*55

[1499588575656]$GPGSA,A,3,24,30,17,13,19,18,28,15,,,,,2.08,1.13,1.75*06

[1499588575656]$GPGSV,3,1,11,01,,,22,10,,,37,12,,,29,13,44,183,29*44

[1499588575656]$GPGSV,3,2,11,15,52,243,42,17,51,112,30,18,14,299,30,19,39,147,33*76

[1499588575656]$GPGSV,3,3,11,24,41,289,29,28,37,062,33,30,10,109,35*44

[1499588575656]$GPGLL,5356.75290,N,02739.96203,E,052255.00,A,A*61

[1499588576667]$GPRMC,052256.00,A,5356.76020,N,02739.94096,E,51.861,300.42,090717,,,A*55

[1499588576667]$GPVTG,300.42,T,,M,51.861,N,96.046,K,A*3E

[1499588576667]$GPGGA,052256.00,5356.76020,N,02739.94096,E,1,08,1.13,221.8,M,24.8,M,,*5D

[1499588576667]$GPGSA,A,3,24,30,17,13,19,18,28,15,,,,,2.08,1.13,1.74*07

[1499588576667]$GPGSV,3,1,11,01,,,34,10,,,34,12,,,28,13,44,183,29*41

[1499588576667]$GPGSV,3,2,11,15,52,243,41,17,51,112,29,18,14,299,31,19,39,147,33*7C

[1499588576667]$GPGSV,3,3,11,24,41,289,29,28,37,062,33,30,10,109,34*45

[1499588576667]$GPGLL,5356.76020,N,02739.94096,E,052256.00,A,A*64

[1499588577656]$GPRMC,052257.00,A,5356.76774,N,02739.92014,E,51.778,301.66,090717,,,A*5E

[1499588577656]$GPVTG,301.66,T,,M,51.778,N,95.893,K,A*3D

