[1499552130960]$GPRMC,191530.00,A,5357.18702,N,02741.00322,E,23.601,65.28,080717,,,A*6C

[1499552130960]$GPVTG,65.28,T,,M,23.601,N,43.708,K,A*0A

[1499552130960]$GPGGA,191530.00,5357.18702,N,02741.00322,E,1,11,0.81,227.8,M,24.7,M,,*5F

[1499552130960]$GPGSA,A,3,11,14,01,32,22,08,03,19,17,31,23,,1.31,0.81,1.02*08

[1499552130960]$GPGSV,4,1,14,01,77,240,40,03,44,266,39,04,09,133,11,08,06,194,23*7E

[1499552130960]$GPGSV,4,2,14,10,04,085,,11,54,202,36,12,02,023,,14,55,074,35*76

[1499552130960]$GPGSV,4,3,14,17,27,313,34,19,12,330,26,22,72,263,36,23,08,213,32*7E

[1499552130960]$GPGSV,4,4,14,31,23,115,33,32,38,058,31*7F

[1499552130960]$GPGLL,5357.18702,N,02741.00322,E,191530.00,A,A*6D

[1499552131950]$GPRMC,191531.00,A,5357.18967,N,02741.01282,E,22.234,65.03,080717,,,A*60

[1499552131950]$GPVTG,65.03,T,,M,22.234,N,41.177,K,A*0C

[1499552131950]$GPGGA,191531.00,5357.18967,N,02741.01282,E,1,11,0.81,228.0,M,24.7,M,,*5E

[1499552131950]$GPGSA,A,3,11,14,01,32,22,08,03,19,17,31,23,,1.31,0.81,1.02*08

[1499552131950]$GPGSV,4,1,14,01,77,240,40,03,44,266,39,04,09,133,11,08,06,194,21*7C

[1499552131950]$GPGSV,4,2,14,10,04,085,,11,54,202,36,12,02,023,,14,55,074,35*76

[1499552131950]$GPGSV,4,3,14,17,27,313,34,19,12,330,24,22,72,263,36,23,08,213,28*77

[1499552131950]$GPGSV,4,4,14,31,23,115,32,32,38,058,34*7B

[1499552131950]$GPGLL,5357.18967,N,02741.01282,E,191531.00,A,A*6B

[1499552132951]$GPRMC,191532.00,A,5357.19203,N,02741.02177,E,20.457,65.54,080717,,,A*62

[1499552132951]$GPVTG,65.54,T,,M,20.457,N,37.887,K,A*08

[1499552132951]$GPGGA,191532.00,5357.19203,N,02741.02177,E,1,11,0.87,228.2,M,24.7,M,,*5B

[1499552132951]$GPGSA,A,3,11,14,01,32,22,08,03,19,17,31,23,,1.43,0.87,1.14*0C

[1499552132951]$GPGSV,4,1,14,01,77,240,40,03,44,266,39,04,09,133,22,08,06,194,20*7D

[1499552132951]$GPGSV,4,2,14,10,04,085,,11,54,202,36,12,02,023,,14,55,074,35*76

[1499552132951]$GPGSV,4,3,14,17,27,313,35,19,12,330,22,22,72,263,36,23,08,213,29*71

[1499552132951]$GPGSV,4,4,14,31,23,115,31,32,38,058,31*7D

[1499552132951]$GPGLL,5357.19203,N,02741.02177,E,191532.00,A,A*6A

[1499552133954]$GPRMC,191533.00,A,5357.19421,N,02741.02983,E,18.307,65.25,080717,,,A*69

[1499552133954]$GPVTG,65.25,T,,M,18.307,N,33.905,K,A*08

[1499552133954]$GPGGA,191533.00,5357.19421,N,02741.02983,E,1,11,0.87,228.4,M,24.7,M,,*59

[1499552133954]$GPGSA,A,3,11,14,01,32,22,08,03,19,17,31,23,,1.43,0.87,1.14*0C

[1499552133954]$GPGSV,4,1,14,01,77,240,40,03,44,266,39,04,09,133,25,08,06,194,23*79

[1499552133954]$GPGSV,4,2,14,10,04,085,,11,54,202,36,12,02,023,,14,55,074,35*76

[1499552133954]$GPGSV,4,3,14,17,27,313,34,19,12,330,21,22,72,263,37,23,08,213,34*7E

[1499552133954]$GPGSV,4,4,14,31,23,115,35,32,38,058,33*7B

[1499552133954]$GPGLL,5357.19421,N,02741.02983,E,191533.00,A,A*6E

[1499552134960]$GPRMC,191534.00,A,5357.19619,N,02741.03725,E,16.991,65.93,080717,,,A*62

[1499552134960]$GPVTG,65.93,T,,M,16.991,N,31.468,K,A*0A

[1499552134960]$GPGGA,191534.00,5357.19619,N,02741.03725,E,1,11,0.87,228.5,M,24.7,M,,*55

[1499552134960]$GPGSA,A,3,11,14,01,32,22,08,03,19,17,31,23,,1.43,0.87,1.14*0C

[1499552134960]$GPGSV,4,1,14,01,77,240,40,03,44,266,38,04,09,133,25,08,06,194,23*78

[1499552134960]$GPGSV,4,2,14,10,04,085,,11,54,202,36,12,02,023,,14,55,074,35*76

[1499552134960]$GPGSV,4,3,14,17,27,313,35,19,12,330,18,22,72,263,37,23,08,213,31*70

[1499552134960]$GPGSV,4,4,14,31,23,115,32,32,38,058,33*7C

[1499552134960]$GPGLL,5357.19619,N,02741.03725,E,191534.00,A,A*63

[1499552135950]$GPRMC,191535.00,A,5357.19777,N,02741.04339,E,13.273,66.10,080717,,,A*6E

[1499552135950]$GPVTG,66.10,T,,M,13.273,N,24.582,K,A*01

[1499552135950]$GPGGA,191535.00,5357.19777,N,02741.04339,E,1,11,0.81,228.5,M,24.7,M,,*55

[1499552135950]$GPGSA,A,3,11,14,01,32,22,08,03,19,17,31,23,,1.31,0.81,1.02*08

[1499552135950]$GPGSV,4,1,14,01,77,240,40,03,44,266,39,04,09,133,23,08,06,194,23*7F

[1499552135950]$GPGSV,4,2,14,10,04,085,,11,54,202,36,12,02,023,,14,55,074,36*75

[1499552135950]$GPGSV,4,3,14,17,27,313,33,19,12,330,20,22,72,263,37,23,08,213,37*7B

[1499552135950]$GPGSV,4,4,14,31,23,115,32,32,38,058,34*7B

[1499552135950]$GPGLL,5357.19777,N,02741.04339,E,191535.00,A,A*65

[1499552136950]$GPRMC,191536.00,A,5357.19914,N,02741.04857,E,11.695,66.20,080717,,,A*68

[1499552136950]$GPVTG,66.20,T,,M,11.695,N,21.658,K,A*0D

[1499552136950]$GPGGA,191536.00,5357.19914,N,02741.04857,E,1,11,0.81,228.6,M,24.7,M,,*5D

[1499552136950]$GPGSA,A,3,11,14,01,32,22,08,03,19,17,31,23,,1.31,0.81,1.02*08

[1499552136950]$GPGSV,4,1,14,01,77,240,40,03,44,266,39,04,09,133,21,08,06,194,21*7F

[1499552136950]$GPGSV,4,2,14,10,04,085,,11,54,202,35,12,02,023,,14,55,074,36*76

[1499552136950]$GPGSV,4,3,14,17,27,313,33,19,12,330,21,22,72,263,37,23,08,213,34*79

[1499552136950]$GPGSV,4,4,14,31,23,115,26,32,38,058,34*7E

[1499552136950]$GPGLL,5357.19914,N,02741.04857,E,191536.00,A,A*6E

[1499552137950]$GPRMC,191537.00,A,5357.20040,N,02741.05331,E,10.891,65.67,080717,,,A*6A

[1499552137950]$GPVTG,65.67,T,,M,10.891,N,20.170,K,A*0A

[1499552137950]$GPGGA,191537.00,5357.20040,N,02741.05331,E,1,11,0.87,228.7,M,24.7,M,,*53

[1499552137950]$GPGSA,A,3,11,14,01,32,22,08,03,19,17,31,23,,1.43,0.87,1.14*0C

[1499552137950]$GPGSV,4,1,14,01,77,240,39,03,44,266,39,04,09,133,18,08,06,194,19*70

[1499552137950]$GPGSV,4,2,14,10,04,085,,11,54,202,35,12,02,023,,14,55,074,35*75

[1499552137950]$GPGSV,4,3,14,17,27,313,33,19,12,330,20,22,72,263,37,23,08,213,34*78

[1499552137950]$GPGSV,4,4,14,31,23,115,25,32,38,058,34*7D

[1499552137950]$GPGLL,5357.20040,N,02741.05331,E,191537.00,A,A*67

[1499552138950]$GPRMC,191538.00,A,5357.20163,N,02741.05792,E,10.922,65.70,080717,,,A*67

[1499552138950]$GPVTG,65.70,T,,M,10.922,N,20.227,K,A*04

[1499552138950]$GPGGA,191538.00,5357.20163,N,02741.05792,E,1,11,0.87,228.9,M,24.7,M,,*5F

[1499552138950]$GPGSA,A,3,11,14,01,32,22,08,03,19,17,31,23,,1.43,0.87,1.14*0C

[1499552138950]$GPGSV,4,1,14,01,77,240,40,03,44,266,39,04,09,133,16,08,06,194,19*70

[1499552138950]$GPGSV,4,2,14,10,04,085,,11,54,202,35,12,02,023,,14,55,074,36*76

[1499552138950]$GPGSV,4,3,14,17,27,313,35,19,12,330,20,22,72,263,37,23,08,213,26*7D

[1499552138950]$GPGSV,4,4,14,31,23,115,22,32,38,058,33*7D

[1499552138950]$GPGLL,5357.20163,N,02741.05792,E,191538.00,A,A*65

[1499552139950]$GPRMC,191539.00,A,5357.20299,N,02741.06313,E,12.693,66.13,080717,,,A*6F

[1499552139950]$GPVTG,66.13,T,,M,12.693,N,23.508,K,A*0C

[1499552139950]$GPGGA,191539.00,5357.20299,N,02741.06313,E,1,11,1.03,229.1,M,24.7,M,,*52

[1499552139950]$GPGSA,A,3,11,14,01,32,22,08,03,19,17,31,23,,1.64,1.03,1.27*04

[1499552139950]$GPGSV,4,1,14,01,77,240,40,03,44,266,39,04,09,133,15,08,06,194,18*72

[1499552139950]$GPGSV,4,2,14,10,04,085,,11,54,202,36,12,02,023,,14,55,074,34*77

[1499552139950]$GPGSV,4,3,14,17,27,313,34,19,12,330,19,22,72,263,36,23,08,213,30*70

[1499552139950]$GPGSV,4,4,14,31,23,115,20,32,38,058,33*7F

[1499552139950]$GPGLL,5357.20299,N,02741.06313,E,191539.00,A,A*6C

[1499552140952]$GPRMC,191540.00,A,5357.20463,N,02741.06933,E,15.103,65.95,080717,,,A*6E

[1499552140952]$GPVTG,65.95,T,,M,15.103,N,27.970,K,A*0F

[1499552140952]$GPGGA,191540.00,5357.20463,N,02741.06933,E,1,11,1.03,229.2,M,24.7,M,,*54

[1499552140952]$GPGSA,A,3,11,14,01,32,22,08,03,19,17,31,23,,1.64,1.03,1.27*04

[1499552140952]$GPGSV,4,1,14,01,77,240,40,03,44,266,38,04,09,133,15,08,06,194,18*73

[1499552140952]$GPGSV,4,2,14,10,04,085,,11,54,202,36,12,02,023,,14,55,074,34*77

[1499552140952]$GPGSV,4,3,14,17,27,313,33,19,12,330,18,22,72,263,36,23,08,213,21*76

[1499552140952]$GPGSV,4,4,14,31,23,115,18,32,38,058,33*74

[1499552140952]$GPGLL,5357.20463,N,02741.06933,E,191540.00,A,A*69

[1499552141954]$GPRMC,191541.00,A,5357.20639,N,02741.07618,E,16.215,67.13,080717,,,A*6E

[1499552141954]$GPVTG,67.13,T,,M,16.215,N,30.031,K,A*0E

[1499552141954]$GPGGA,191541.00,5357.20639,N,02741.07618,E,1,11,1.03,229.4,M,24.7,M,,*59

[1499552141954]$GPGSA,A,3,11,14,01,32,22,08,03,19,17,31,23,,1.64,1.03,1.27*04

[1499552141954]$GPGSV,4,1,14,01,77,240,40,03,44,266,38,04,09,133,13,08,06,194,18*75

[1499552141954]$GPGSV,4,2,14,10,04,085,,11,54,202,36,12,02,023,,14,55,074,34*77

[1499552141954]$GPGSV,4,3,14,17,27,313,32,19,12,330,16,22,72,263,36,23,08,213,20*78

[1499552141954]$GPGSV,4,4,14,31,23,115,16,32,38,058,33*7A

[1499552141954]$GPGLL,5357.20639,N,02741.07618,E,191541.00,A,A*62

[1499552142953]$GPRMC,191542.00,A,5357.20816,N,02741.08342,E,16.853,67.90,080717,,,A*68

[1499552142953]$GPVTG,67.90,T,,M,16.853,N,31.212,K,A*0F

[1499552142953]$GPGGA,191542.00,5357.20816,N,02741.08342,E,1,11,1.03,229.5,M,24.7,M,,*5D

[1499552142953]$GPGSA,A,3,11,14,01,32,22,08,03,19,17,31,23,,1.64,1.03,1.27*04

[1499552142953]$GPGSV,4,1,14,01,77,240,40,03,44,266,38,04,09,133,12,08,06,194,17*7B

[1499552142953]$GPGSV,4,2,14,10,04,085,,11,54,202,35,12,02,023,,14,55,074,34*74

[1499552142953]$GPGSV,4,3,14,17,27,313,33,19,12,330,16,22,72,263,37,23,08,213,20*78

[1499552142953]$GPGSV,4,4,14,31,24,115,16,32,38,058,33*7D

[1499552142953]$GPGLL,5357.20816,N,02741.08342,E,191542.00,A,A*67

[1499552143950]$GPRMC,191543.00,A,5357.20993,N,02741.09091,E,17.262,68.48,080717,,,A*6A

[1499552143950]$GPVTG,68.48,T,,M,17.262,N,31.970,K,A*03

[1499552143950]$GPGGA,191543.00,5357.20993,N,02741.09091,E,1,11,1.03,229.6,M,24.7,M,,*5F

[1499552143950]$GPGSA,A,3,11,14,01,32,22,08,03,19,17,31,23,,1.64,1.03,1.27*04

[1499552143950]$GPGSV,4,1,14,01,77,240,40,03,44,266,38,04,09,133,,08,06,194,15*7A

[1499552143950]$GPGSV,4,2,14,10,04,085,,11,54,202,35,12,02,023,,14,55,074,33*73

[1499552143950]$GPGSV,4,3,14,17,27,313,33,19,12,330,15,22,72,263,37,23,08,213,17*7F

[1499552143950]$GPGSV,4,4,14,31,24,115,29,32,37,058,33*7E

[1499552143950]$GPGLL,5357.20993,N,02741.09091,E,191543.00,A,A*66

[1499552144951]$GPRMC,191544.00,A,5357.21170,N,02741.09851,E,17.452,68.69,080717,,,A*6B

[1499552144951]$GPVTG,68.69,T,,M,17.452,N,32.321,K,A*08

[1499552144951]$GPGGA,191544.00,5357.21170,N,02741.09851,E,1,11,0.87,229.6,M,24.7,M,,*55

[1499552144951]$GPGSA,A,3,11,14,01,32,22,08,03,19,17,31,23,,1.44,0.87,1.14*0B

[1499552144951]$GPGSV,4,1,14,01,77,240,39,03,44,266,38,04,09,133,,08,06,194,13*72

[1499552144951]$GPGSV,4,2,14,10,04,085,,11,54,202,35,12,02,023,,14,55,074,34*74

[1499552144951]$GPGSV,4,3,14,17,27,313,34,19,12,330,17,22,72,263,36,23,08,213,15*79

[1499552144951]$GPGSV,4,4,14,31,24,115,28,32,37,058,34*78

[1499552144951]$GPGLL,5357.21170,N,02741.09851,E,191544.00,A,A*61

[1499552145950]$GPRMC,191545.00,A,5357.21349,N,02741.10607,E,17.377,68.09,080717,,,A*61

[1499552145950]$GPVTG,68.09,T,,M,17.377,N,32.182,K,A*05

[1499552145950]$GPGGA,191545.00,5357.21349,N,02741.10607,E,1,11,0.87,229.7,M,24.7,M,,*58

[1499552145950]$GPGSA,A,3,11,14,01,32,22,08,03,19,17,31,23,,1.44,0.87,1.14*0B

[1499552145950]$GPGSV,4,1,14,01,77,240,38,03,44,266,38,04,09,133,08,08,06,194,12*7A

[1499552145950]$GPGSV,4,2,14,10,04,085,,11,54,202,31,12,02,023,,14,55,074,34*70

[1499552145950]$GPGSV,4,3,14,17,27,313,35,19,12,330,17,22,72,263,36,23,08,213,13*7E

[1499552145950]$GPGSV,4,4,14,31,24,115,28,32,37,058,34*78

[1499552145950]$GPGLL,5357.21349,N,02741.10607,E,191545.00,A,A*6D

[1499552146960]$GPRMC,191546.00,A,5357.21527,N,02741.11376,E,17.644,68.84,080717,,,A*6E

[1499552146960]$GPVTG,68.84,T,,M,17.644,N,32.676,K,A*09

[1499552146960]$GPGGA,191546.00,5357.21527,N,02741.11376,E,1,11,1.01,229.8,M,24.7,M,,*57

[1499552146960]$GPGSA,A,3,11,14,01,32,22,08,03,19,17,31,23,,1.67,1.01,1.32*01

[1499552146960]$GPGSV,4,1,14,01,77,240,38,03,44,266,38,04,09,133,12,08,06,194,11*72

[1499552146960]$GPGSV,4,2,14,10,04,085,,11,54,202,34,12,02,023,,14,55,074,34*75

[1499552146960]$GPGSV,4,3,14,17,27,313,35,19,12,330,17,22,72,263,36,23,08,213,11*7C

[1499552146960]$GPGSV,4,4,14,31,24,115,28,32,37,058,35*79

[1499552146960]$GPGLL,5357.21527,N,02741.11376,E,191546.00,A,A*62

[1499552147953]$GPRMC,191547.00,A,5357.21699,N,02741.12159,E,17.833,69.74,080717,,,A*65

[1499552147953]$GPVTG,69.74,T,,M,17.833,N,33.027,K,A*0A

[1499552147953]$GPGGA,191547.00,5357.21699,N,02741.12159,E,1,11,0.96,229.7,M,24.7,M,,*5C

[1499552147953]$GPGSA,A,3,11,14,01,32,22,08,03,19,17,31,23,,1.55,0.96,1.22*0E

[1499552147953]$GPGSV,4,1,14,01,77,240,38,03,44,266,39,04,09,133,15,08,06,194,12*77

[1499552147953]$GPGSV,4,2,14,10,04,085,,11,54,202,35,12,02,023,,14,55,074,35*75

[1499552147953]$GPGSV,4,3,14,17,27,313,34,19,12,330,17,22,72,263,36,23,08,213,13*7F

[1499552147953]$GPGSV,4,4,14,31,24,115,25,32,37,058,34*75

[1499552147953]$GPGLL,5357.21699,N,02741.12159,E,191547.00,A,A*69

[1499552148960]$GPRMC,191548.00,A,5357.21880,N,02741.12953,E,18.072,68.82,080717,,,A*64

[1499552148960]$GPVTG,68.82,T,,M,18.072,N,33.470,K,A*06

[1499552148960]$GPGGA,191548.00,5357.21880,N,02741.12953,E,1,11,0.96,229.7,M,24.7,M,,*57

[1499552148960]$GPGSA,A,3,11,14,01,32,22,08,03,19,17,31,23,,1.55,0.96,1.22*0E

[1499552148960]$GPGSV,4,1,14,01,77,240,39,03,44,266,39,04,09,133,16,08,06,194,11*76

[1499552148960]$GPGSV,4,2,14,10,04,085,,11,54,202,35,12,02,023,,14,55,074,34*74

[1499552148960]$GPGSV,4,3,14,17,27,313,34,19,12,330,16,22,72,263,36,23,08,213,15*78

[1499552148960]$GPGSV,4,4,14,31,24,115,22,32,37,058,33*75

[1499552148960]$GPGLL,5357.21880,N,02741.12953,E,191548.00,A,A*62

[1499552149951]$GPRMC,191549.00,A,5357.22069,N,02741.13748,E,18.247,68.74,080717,,,A*61

[1499552149951]$GPVTG,68.74,T,,M,18.247,N,33.794,K,A*02

[1499552149951]$GPGGA,191549.00,5357.22069,N,02741.13748,E,1,11,0.96,229.8,M,24.7,M,,*50

[1499552149951]$GPGSA,A,3,11,14,01,32,22,08,03,19,17,31,23,,1.55,0.96,1.22*0E

[1499552149951]$GPGSV,4,1,14,01,77,240,38,03,44,266,38,04,09,133,15,08,06,194,11*75

[1499552149951]$GPGSV,4,2,14,10,04,085,18,11,54,202,35,12,02,023,,14,55,074,35*7C

[1499552149951]$GPGSV,4,3,14,17,27,313,30,19,12,330,16,22,72,263,37,23,08,213,15*7D

[1499552149951]$GPGSV,4,4,14,31,24,115,28,32,37,058,33*7F

[1499552149951]$GPGLL,5357.22069,N,02741.13748,E,191549.00,A,A*6A

[1499552150950]$GPRMC,191550.00,A,5357.22258,N,02741.14548,E,18.319,68.70,080717,,,A*62

[1499552150950]$GPVTG,68.70,T,,M,18.319,N,33.926,K,A*0B

[1499552150950]$GPGGA,191550.00,5357.22258,N,02741.14548,E,1,10,0.87,229.9,M,24.7,M,,*5D

[1499552150950]$GPGSA,A,3,11,14,01,32,22,03,19,17,31,23,,,1.44,0.87,1.14*03

[1499552150950]$GPGSV,4,1,14,01,77,240,37,03,44,266,37,04,09,133,16,08,06,194,09*7F

[1499552150950]$GPGSV,4,2,14,10,04,085,16,11,54,202,34,12,02,023,,14,55,074,35*73

[1499552150950]$GPGSV,4,3,14,17,27,313,31,19,12,330,16,22,72,263,37,23,08,213,13*7A

[1499552150950]$GPGSV,4,4,14,31,24,115,29,32,37,058,33*7E

[1499552150950]$GPGLL,5357.22258,N,02741.14548,E,191550.00,A,A*67

[1499552151954]$GPRMC,191551.00,A,5357.22442,N,02741.15347,E,18.160,68.52,080717,,,A*6A

[1499552151954]$GPVTG,68.52,T,,M,18.160,N,33.632,K,A*0D

[1499552151954]$GPGGA,191551.00,5357.22442,N,02741.15347,E,1,10,0.87,229.8,M,24.7,M,,*58

[1499552151954]$GPGSA,A,3,11,14,01,32,22,03,19,17,31,23,,,1.44,0.87,1.14*03

[1499552151954]$GPGSV,4,1,14,01,77,240,37,03,44,266,37,04,09,133,17,08,06,194,09*7E

[1499552151954]$GPGSV,4,2,14,10,04,085,14,11,54,202,34,12,02,023,,14,55,074,35*71

[1499552151954]$GPGSV,4,3,14,17,27,313,32,19,12,330,19,22,72,263,37,23,08,213,13*76

[1499552151954]$GPGSV,4,4,14,31,24,115,29,32,37,058,34*79

[1499552151954]$GPGLL,5357.22442,N,02741.15347,E,191551.00,A,A*63

[1499552152960]$GPRMC,191552.00,A,5357.22633,N,02741.16131,E,18.042,66.35,080717,,,A*63

[1499552152960]$GPVTG,66.35,T,,M,18.042,N,33.414,K,A*05

[1499552152960]$GPGGA,191552.00,5357.22633,N,02741.16131,E,1,10,1.01,229.6,M,24.7,M,,*5E

[1499552152960]$GPGSA,A,3,11,14,01,32,22,03,19,17,31,23,,,1.67,1.01,1.33*08

[1499552152960]$GPGSV,4,1,14,01,77,240,36,03,44,266,37,04,09,133,21,08,06,194,08*7B

[1499552152960]$GPGSV,4,2,14,10,04,085,11,11,54,202,34,12,02,023,,14,55,074,35*74

[1499552152960]$GPGSV,4,3,14,17,27,313,33,19,12,330,19,22,72,263,37,23,08,213,10*74

[1499552152960]$GPGSV,4,4,14,31,24,115,30,32,37,058,35*70

[1499552152960]$GPGLL,5357.22633,N,02741.16131,E,191552.00,A,A*64

[1499552153950]$GPRMC,191553.00,A,5357.22819,N,02741.16911,E,17.846,69.05,080717,,,A*61

[1499552153950]$GPVTG,69.05,T,,M,17.846,N,33.050,K,A*0E

[1499552153950]$GPGGA,191553.00,5357.22819,N,02741.16911,E,1,10,0.87,229.6,M,24.7,M,,*5C

[1499552153950]$GPGSA,A,3,11,14,01,32,22,03,19,17,31,23,,,1.44,0.87,1.14*03

[1499552153950]$GPGSV,4,1,14,01,77,240,37,03,44,266,36,04,09,133,20,08,06,194,09*7B

[1499552153950]$GPGSV,4,2,14,10,04,085,10,11,54,202,34,12,02,023,,14,55,074,35*75

[1499552153950]$GPGSV,4,3,14,17,27,313,32,19,12,330,20,22,72,263,37,23,08,213,10*7F

[1499552153950]$GPGSV,4,4,14,31,24,115,30,32,37,058,35*70

[1499552153950]$GPGLL,5357.22819,N,02741.16911,E,191553.00,A,A*69

[1499552154950]$GPRMC,191554.00,A,5357.22988,N,02741.17639,E,16.023,69.83,080717,,,A*6F

[1499552154950]$GPVTG,69.83,T,,M,16.023,N,29.675,K,A*00

[1499552154950]$GPGGA,191554.00,5357.22988,N,02741.17639,E,1,10,0.87,229.8,M,24.7,M,,*58

[1499552154950]$GPGSA,A,3,11,14,01,32,22,03,19,17,31,23,,,1.44,0.87,1.14*03

[1499552154950]$GPGSV,4,1,14,01,77,240,36,03,44,266,35,04,09,133,18,08,06,194,08*73

[1499552154950]$GPGSV,4,2,14,10,04,085,13,11,54,202,34,12,02,023,,14,55,074,36*75

[1499552154950]$GPGSV,4,3,14,17,27,313,32,19,12,330,20,22,72,263,37,23,08,213,10*7F

[1499552154950]$GPGSV,4,4,14,31,24,115,22,32,37,058,34*72

[1499552154950]$GPGLL,5357.22988,N,02741.17639,E,191554.00,A,A*63

[1499552155950]$GPRMC,191555.00,A,5357.23141,N,02741.18297,E,14.542,68.89,080717,,,A*66

[1499552155950]$GPVTG,68.89,T,,M,14.542,N,26.933,K,A*09

[1499552155950]$GPGGA,191555.00,5357.23141,N,02741.18297,E,1,10,0.87,230.0,M,24.7,M,,*5A

[1499552155950]$GPGSA,A,3,11,14,01,32,22,03,19,17,31,23,,,1.44,0.87,1.14*03

[1499552155950]$GPGSV,4,1,14,01,77,240,36,03,44,266,35,04,09,133,16,08,06,194,08*7D

[1499552155950]$GPGSV,4,2,14,10,04,085,15,11,54,202,34,12,02,023,,14,55,074,36*73

[1499552155950]$GPGSV,4,3,14,17,27,313,32,19,12,330,19,22,72,263,38,23,08,213,10*7A

[1499552155950]$GPGSV,4,4,14,31,24,115,21,32,37,058,35*70

[1499552155950]$GPGLL,5357.23141,N,02741.18297,E,191555.00,A,A*61

[1499552156955]$GPRMC,191556.00,A,5357.23287,N,02741.18918,E,14.013,68.49,080717,,,A*6D

[1499552156955]$GPVTG,68.49,T,,M,14.013,N,25.953,K,A*01

[1499552156955]$GPGGA,191556.00,5357.23287,N,02741.18918,E,1,10,1.03,229.7,M,24.7,M,,*5E

[1499552156955]$GPGSA,A,3,11,14,01,32,22,03,19,17,31,23,,,1.64,1.03,1.27*0C

[1499552156955]$GPGSV,4,1,14,01,77,239,36,03,44,266,35,04,09,133,17,08,06,194,08*72

[1499552156955]$GPGSV,4,2,14,10,04,085,20,11,54,202,34,12,02,023,,14,55,074,36*75

[1499552156955]$GPGSV,4,3,14,17,27,313,31,19,12,330,18,22,72,263,37,23,08,213,08*7E

[1499552156955]$GPGSV,4,4,14,31,24,115,22,32,37,058,35*73

[1499552156955]$GPGLL,5357.23287,N,02741.18918,E,191556.00,A,A*67

[1499552157954]$GPRMC,191557.00,A,5357.23413,N,02741.19442,E,11.083,68.51,080717,,,A*61

[1499552157954]$GPVTG,68.51,T,,M,11.083,N,20.526,K,A*0F

[1499552157954]$GPGGA,191557.00,5357.23413,N,02741.19442,E,1,10,1.03,229.7,M,24.7,M,,*57

[1499552157954]$GPGSA,A,3,11,14,01,32,22,03,19,17,31,23,,,1.64,1.03,1.27*0C

[1499552157954]$GPGSV,4,1,14,01,77,239,36,03,44,266,34,04,09,133,16,08,06,194,08*72

[1499552157954]$GPGSV,4,2,14,10,04,085,22,11,54,202,34,12,02,023,,14,55,074,36*77

[1499552157954]$GPGSV,4,3,14,17,27,313,30,19,12,330,16,22,72,263,38,23,08,213,08*7E

[1499552157954]$GPGSV,4,4,14,31,24,115,22,32,37,058,35*73

[1499552157954]$GPGLL,5357.23413,N,02741.19442,E,191557.00,A,A*6E

[1499552158950]$GPRMC,191558.00,A,5357.23512,N,02741.19878,E,9.449,69.10,080717,,,A*54

[1499552158950]$GPVTG,69.10,T,,M,9.449,N,17.500,K,A*30

[1499552158950]$GPGGA,191558.00,5357.23512,N,02741.19878,E,1,09,1.80,229.5,M,24.7,M,,*5C

[1499552158950]$GPGSA,A,3,11,14,01,32,22,03,19,17,31,,,,3.39,1.80,2.88*0A

[1499552158950]$GPGSV,4,1,14,01,77,239,36,03,44,266,35,04,09,133,16,08,06,194,08*73

[1499552158950]$GPGSV,4,2,14,10,04,085,21,11,54,202,34,12,02,023,,14,55,074,36*74

[1499552158950]$GPGSV,4,3,14,17,27,313,29,19,12,330,17,22,72,263,38,23,08,213,08*77

[1499552158950]$GPGSV,4,4,14,31,24,115,20,32,37,058,35*71

[1499552158950]$GPGLL,5357.23512,N,02741.19878,E,191558.00,A,A*64

[1499552159950]$GPRMC,191559.00,A,5357.23602,N,02741.20184,E,6.389,64.98,080717,,,A*5E

[1499552159950]$GPVTG,64.98,T,,M,6.389,N,11.833,K,A*32

[1499552159950]$GPGGA,191559.00,5357.23602,N,02741.20184,E,1,09,1.80,229.0,M,24.7,M,,*5A

[1499552159950]$GPGSA,A,3,11,14,01,32,22,03,19,17,31,,,,3.39,1.80,2.87*05

[1499552159950]$GPGSV,4,1,14,01,77,239,35,03,44,266,34,04,10,133,15,08,06,194,08*7A

[1499552159950]$GPGSV,4,2,14,10,04,085,19,11,54,202,34,12,02,023,,14,55,074,36*7F

[1499552159950]$GPGSV,4,3,14,17,27,313,28,19,12,330,17,22,72,263,38,23,08,213,08*76

[1499552159950]$GPGSV,4,4,14,31,24,115,19,32,37,058,35*7B

[1499552159950]$GPGLL,5357.23602,N,02741.20184,E,191559.00,A,A*67

[1499552160963]$GPRMC,191600.00,A,5357.23657,N,02741.20374,E,3.717,64.82,080717,,,A*51

[1499552160963]$GPVTG,64.82,T,,M,3.717,N,6.883,K,A*02

[1499552160963]$GPGGA,191600.00,5357.23657,N,02741.20374,E,1,09,1.80,228.8,M,24.7,M,,*51

[1499552160963]$GPGSA,A,3,11,14,01,32,22,03,19,17,31,,,,3.39,1.80,2.87*05

[1499552160963]$GPGSV,4,1,14,01,77,239,35,03,44,266,31,04,10,133,15,08,06,194,08*7F

[1499552160963]$GPGSV,4,2,14,10,04,085,20,11,54,202,29,12,02,023,,14,55,074,36*79

[1499552160963]$GPGSV,4,3,14,17,27,313,28,19,12,330,18,22,72,263,38,23,08,213,08*79

[1499552160963]$GPGSV,4,4,14,31,24,115,18,32,37,058,34*7B

[1499552160963]$GPGLL,5357.23657,N,02741.20374,E,191600.00,A,A*65

[1499552161955]$GPRMC,191601.00,A,5357.23677,N,02741.20536,E,3.279,71.65,080717,,,A*52

[1499552161955]$GPVTG,71.65,T,,M,3.279,N,6.074,K,A*02

[1499552161955]$GPGGA,191601.00,5357.23677,N,02741.20536,E,1,09,1.80,228.7,M,24.7,M,,*5D

[1499552161955]$GPGSA,A,3,11,14,01,32,22,03,19,17,31,,,,3.39,1.80,2.87*05

[1499552161955]$GPGSV,4,1,14,01,77,239,35,03,44,266,35,04,10,133,16,08,06,194,08*78

[1499552161955]$GPGSV,4,2,14,10,04,085,23,11,54,202,29,12,02,023,,14,55,074,36*7A

[1499552161955]$GPGSV,4,3,14,17,27,313,32,19,12,330,18,22,72,263,38,23,08,213,08*72

[1499552161955]$GPGSV,4,4,14,31,24,115,20,32,37,058,34*70

[1499552161955]$GPGLL,5357.23677,N,02741.20536,E,191601.00,A,A*66

[1499552162951]$GPRMC,191602.00,A,5357.23675,N,02741.20673,E,2.672,76.97,080717,,,A*55

[1499552162951]$GPVTG,76.97,T,,M,2.672,N,4.948,K,A*02

[1499552162951]$GPGGA,191602.00,5357.23675,N,02741.20673,E,1,09,1.80,228.8,M,24.7,M,,*51

[1499552162951]$GPGSA,A,3,11,14,01,32,22,03,19,17,31,,,,3.39,1.80,2.87*05

[1499552162951]$GPGSV,4,1,14,01,77,239,32,03,44,266,36,04,10,133,16,08,06,194,09*7D

[1499552162951]$GPGSV,4,2,14,10,04,085,22,11,54,202,27,12,02,023,,14,55,074,36*75

[1499552162951]$GPGSV,4,3,14,17,27,313,28,19,12,330,18,22,72,263,36,23,08,213,11*7F

[1499552162951]$GPGSV,4,4,14,31,24,115,21,32,37,058,34*71

[1499552162951]$GPGLL,5357.23675,N,02741.20673,E,191602.00,A,A*65

[1499552163950]$GPRMC,191603.00,A,5357.23634,N,02741.20781,E,2.231,107.29,080717,,,A*6C

[1499552163950]$GPVTG,107.29,T,,M,2.231,N,4.132,K,A*36

[1499552163950]$GPGGA,191603.00,5357.23634,N,02741.20781,E,1,09,1.80,228.6,M,24.7,M,,*57

[1499552163950]$GPGSA,A,3,11,14,01,32,22,03,19,17,31,,,,3.39,1.80,2.87*05

[1499552163950]$GPGSV,4,1,14,01,77,239,25,03,44,266,28,04,10,133,14,08,06,194,09*76

[1499552163950]$GPGSV,4,2,14,10,04,085,20,11,54,202,26,12,02,023,,14,55,074,31*71

[1499552163950]$GPGSV,4,3,14,17,27,313,36,19,12,330,19,22,72,263,34,23,08,213,11*73

[1499552163950]$GPGSV,4,4,14,31,24,115,23,32,37,058,33*74

[1499552163950]$GPGLL,5357.23634,N,02741.20781,E,191603.00,A,A*6D

[1499552164951]$GPRMC,191604.00,A,5357.23601,N,02741.20847,E,1.365,115.32,080717,,,A*62

[1499552164951]$GPVTG,115.32,T,,M,1.365,N,2.528,K,A*35

[1499552164951]$GPGGA,191604.00,5357.23601,N,02741.20847,E,1,11,0.81,228.5,M,24.7,M,,*59

[1499552164951]$GPGSA,A,3,11,14,01,32,22,08,03,19,17,31,23,,1.31,0.81,1.03*09

[1499552164951]$GPGSV,4,1,14,01,77,239,34,03,44,266,32,04,10,133,15,08,06,194,09*7C

[1499552164951]$GPGSV,4,2,14,10,04,085,19,11,54,202,26,12,02,023,,14,55,074,32*78

[1499552164951]$GPGSV,4,3,14,17,27,313,27,19,12,330,21,22,72,263,31,23,08,213,11*7D

[1499552164951]$GPGSV,4,4,14,31,24,115,23,32,37,058,28*7E

[1499552164951]$GPGLL,5357.23601,N,02741.20847,E,191604.00,A,A*69

[1499552165950]$GPRMC,191605.00,A,5357.23579,N,02741.20890,E,0.997,,080717,,,A*79

[1499552165950]$GPVTG,,T,,M,0.997,N,1.846,K,A*2F

[1499552165950]$GPGGA,191605.00,5357.23579,N,02741.20890,E,1,11,0.96,228.1,M,24.7,M,,*5C

[1499552165950]$GPGSA,A,3,11,14,01,32,22,08,03,19,17,31,23,,1.55,0.96,1.22*0E

[1499552165950]$GPGSV,4,1,14,01,77,239,35,03,44,266,36,04,10,133,14,08,06,194,09*78

[1499552165950]$GPGSV,4,2,14,10,03,085,19,11,54,202,31,12,02,023,,14,55,074,26*7C

[1499552165950]$GPGSV,4,3,14,17,27,313,26,19,12,330,23,22,72,263,30,23,08,213,11*7F

[1499552165950]$GPGSV,4,4,14,31,24,115,20,32,37,058,33*77

[1499552165950]$GPGLL,5357.23579,N,02741.20890,E,191605.00,A,A*6E

[1499552166954]$GPRMC,191606.00,A,5357.23554,N,02741.20930,E,0.796,,080717,,,A*71

[1499552166954]$GPVTG,,T,,M,0.796,N,1.474,K,A*2D

[1499552166954]$GPGGA,191606.00,5357.23554,N,02741.20930,E,1,11,0.81,228.1,M,24.7,M,,*5D

[1499552166954]$GPGSA,A,3,11,14,01,32,22,08,03,19,17,31,23,,1.31,0.81,1.03*09

[1499552166954]$GPGSV,4,1,14,01,77,239,34,03,44,266,37,04,10,133,16,08,06,194,09*7A

[1499552166954]$GPGSV,4,2,14,10,03,085,17,11,54,202,25,12,02,023,,14,55,074,32*72

[1499552166954]$GPGSV,4,3,14,17,27,313,35,19,12,330,21,22,72,263,30,23,08,213,11*7F

[1499552166954]$GPGSV,4,4,14,31,24,115,18,32,37,058,32*7D

[1499552166954]$GPGLL,5357.23554,N,02741.20930,E,191606.00,A,A*69

[1499552167950]$GPRMC,191607.00,A,5357.23555,N,02741.21018,E,0.100,,080717,,,A*7A

[1499552167950]$GPVTG,,T,,M,0.100,N,0.185,K,A*2E

[1499552167950]$GPGGA,191607.00,5357.23555,N,02741.21018,E,1,11,0.81,229.9,M,24.7,M,,*56

[1499552167950]$GPGSA,A,3,11,14,01,32,22,08,03,19,17,31,23,,1.31,0.81,1.03*09

[1499552167950]$GPGSV,4,1,14,01,77,239,34,03,44,266,40,04,10,133,16,08,06,194,09*7A

[1499552167950]$GPGSV,4,2,14,10,03,085,14,11,54,202,29,12,02,023,,14,55,074,33*7C

[1499552167950]$GPGSV,4,3,14,17,27,313,24,19,12,330,29,22,72,263,29,23,08,213,11*7F

[1499552167950]$GPGSV,4,4,14,31,24,115,18,32,37,058,26*78

[1499552167950]$GPGLL,5357.23555,N,02741.21018,E,191607.00,A,A*6B

[1499552168950]$GPRMC,191608.00,A,5357.23550,N,02741.21078,E,0.053,,080717,,,A*71

[1499552168950]$GPVTG,,T,,M,0.053,N,0.099,K,A*25

[1499552168950]$GPGGA,191608.00,5357.23550,N,02741.21078,E,1,11,0.96,231.0,M,24.7,M,,*5C

[1499552168950]$GPGSA,A,3,11,14,01,32,22,08,03,19,17,31,23,,1.55,0.96,1.22*0E

[1499552168950]$GPGSV,4,1,14,01,77,239,34,03,44,266,40,04,10,133,16,08,06,194,07*74

[1499552168950]$GPGSV,4,2,14,10,03,085,15,11,54,202,28,12,02,023,,14,55,074,32*7D

[1499552168950]$GPGSV,4,3,14,17,27,313,25,19,12,330,28,22,72,263,28,23,08,213,07*79

[1499552168950]$GPGSV,4,4,14,31,24,115,19,32,37,058,23*7C

[1499552168950]$GPGLL,5357.23550,N,02741.21078,E,191608.00,A,A*67

[1499552169951]$GPRMC,191609.00,A,5357.23528,N,02741.21106,E,0.460,,080717,,,A*73

[1499552169951]$GPVTG,,T,,M,0.460,N,0.852,K,A*2E

[1499552169951]$GPGGA,191609.00,5357.23528,N,02741.21106,E,1,11,0.81,231.4,M,24.7,M,,*58

[1499552169951]$GPGSA,A,3,11,14,01,32,22,08,03,19,17,31,23,,1.31,0.81,1.03*09

[1499552169951]$GPGSV,4,1,14,01,77,239,33,03,44,266,38,04,10,133,15,08,06,194,07*7F

[1499552169951]$GPGSV,4,2,14,10,03,085,15,11,54,202,31,12,02,023,,14,55,074,32*75

[1499552169951]$GPGSV,4,3,14,17,27,313,31,19,12,330,27,22,72,263,27,23,08,213,07*7C

[1499552169951]$GPGSV,4,4,14,31,24,115,20,32,37,058,20*75

[1499552169951]$GPGLL,5357.23528,N,02741.21106,E,191609.00,A,A*61

[1499552170960]$GPRMC,191610.00,A,5357.23522,N,02741.21123,E,0.308,,080717,,,A*7F

[1499552170960]$GPVTG,,T,,M,0.308,N,0.571,K,A*2B

[1499552170960]$GPGGA,191610.00,5357.23522,N,02741.21123,E,1,10,0.87,231.8,M,24.7,M,,*56

[1499552170960]$GPGSA,A,3,11,14,01,32,22,03,19,17,31,23,,,1.44,0.87,1.15*02

[1499552170960]$GPGSV,4,1,14,01,77,239,36,03,44,266,37,04,10,133,17,08,06,194,07*77

[1499552170960]$GPGSV,4,2,14,10,03,085,14,11,54,202,31,12,02,023,,14,55,074,33*75

[1499552170960]$GPGSV,4,3,14,17,27,313,31,19,12,330,24,22,72,263,29,23,08,213,07*71

[1499552170960]$GPGSV,4,4,14,31,24,115,22,32,37,058,23*74

[1499552170960]$GPGLL,5357.23522,N,02741.21123,E,191610.00,A,A*64

[1499552171960]$GPRMC,191611.00,A,5357.23509,N,02741.21143,E,0.605,,080717,,,A*79

[1499552171960]$GPVTG,,T,,M,0.605,N,1.120,K,A*22

[1499552171960]$GPGGA,191611.00,5357.23509,N,02741.21143,E,1,10,0.87,232.2,M,24.7,M,,*51

[1499552171960]$GPGSA,A,3,11,14,01,32,22,03,19,17,31,23,,,1.44,0.87,1.15*02

[1499552171960]$GPGSV,4,1,14,01,77,239,33,03,44,266,36,04,10,133,19,08,06,194,07*7D

[1499552171960]$GPGSV,4,2,14,10,03,085,13,11,54,202,28,12,02,023,,14,55,074,27*7F

[1499552171960]$GPGSV,4,3,14,17,27,313,27,19,12,330,21,22,72,263,21,23,08,213,07*7B

[1499552171960]$GPGSV,4,4,14,31,24,115,22,32,37,058,23*74

[1499552171960]$GPGLL,5357.23509,N,02741.21143,E,191611.00,A,A*6A

[1499552172964]$GPRMC,191612.00,A,5357.23510,N,02741.21179,E,0.536,,080717,,,A*78

[1499552172964]$GPVTG,,T,,M,0.536,N,0.993,K,A*20

[1499552172964]$GPGGA,191612.00,5357.23510,N,02741.21179,E,1,10,0.87,233.0,M,24.7,M,,*50

[1499552172964]$GPGSA,A,3,11,14,01,32,22,03,19,17,31,23,,,1.44,0.87,1.15*02

[1499552172964]$GPGSV,4,1,14,01,77,239,33,03,44,266,40,04,10,133,20,08,06,194,08*79

[1499552172964]$GPGSV,4,2,14,10,03,085,15,11,54,202,28,12,02,023,,14,55,074,31*7E

[1499552172964]$GPGSV,4,3,14,17,27,313,33,19,12,330,19,22,72,263,30,23,08,213,07*75

[1499552172964]$GPGSV,4,4,14,31,24,115,20,32,37,058,25*70

[1499552172964]$GPGLL,5357.23510,N,02741.21179,E,191612.00,A,A*68

[1499552173963]$GPRMC,191613.00,A,5357.23496,N,02741.21193,E,0.065,,080717,,,A*71

[1499552173963]$GPVTG,,T,,M,0.065,N,0.120,K,A*23

[1499552173963]$GPGGA,191613.00,5357.23496,N,02741.21193,E,1,10,0.87,233.1,M,24.7,M,,*5B

[1499552173963]$GPGSA,A,3,11,14,01,32,22,03,19,17,31,23,,,1.44,0.87,1.15*02

[1499552173963]$GPGSV,4,1,14,01,77,239,35,03,44,266,38,04,10,133,21,08,06,194,08*71

[1499552173963]$GPGSV,4,2,14,10,03,085,14,11,54,202,30,12,02,023,,14,55,074,30*77

[1499552173963]$GPGSV,4,3,14,17,27,313,27,19,12,330,20,22,72,263,25,23,08,213,07*7E

[1499552173963]$GPGSV,4,4,14,31,24,115,19,32,37,058,31*7F

[1499552173963]$GPGLL,5357.23496,N,02741.21193,E,191613.00,A,A*62

[1499552174960]$GPRMC,191614.00,A,5357.23476,N,02741.21213,E,0.409,,080717,,,A*7D

[1499552174960]$GPVTG,,T,,M,0.409,N,0.757,K,A*2B

[1499552174960]$GPGGA,191614.00,5357.23476,N,02741.21213,E,1,10,0.87,233.1,M,24.7,M,,*59

[1499552174960]$GPGSA,A,3,11,14,01,32,22,03,19,17,31,23,,,1.44,0.87,1.15*02

[1499552174960]$GPGSV,4,1,14,01,77,239,35,03,44,266,39,04,10,133,22,08,06,194,10*7A

[1499552174960]$GPGSV,4,2,14,10,03,085,15,11,54,202,31,12,02,023,,14,55,074,29*7F

[1499552174960]$GPGSV,4,3,14,17,27,313,28,19,13,330,21,22,72,263,26,23,08,213,13*77

[1499552174960]$GPGSV,4,4,14,31,24,115,19,32,37,058,22*7D

[1499552174960]$GPGLL,5357.23476,N,02741.21213,E,191614.00,A,A*60

[1499552175951]$GPRMC,191615.00,A,5357.23460,N,02741.21234,E,0.305,,080717,,,A*75

[1499552175951]$GPVTG,,T,,M,0.305,N,0.564,K,A*22

[1499552175951]$GPGGA,191615.00,5357.23460,N,02741.21234,E,1,10,0.87,233.2,M,24.7,M,,*59

[1499552175951]$GPGSA,A,3,11,14,01,32,22,03,19,17,31,23,,,1.44,0.87,1.15*02

[1499552175951]$GPGSV,4,1,14,01,77,239,32,03,44,266,38,04,10,133,22,08,06,194,10*7C

[1499552175951]$GPGSV,4,2,14,10,03,085,16,11,54,202,34,12,02,023,,14,55,074,25*75

[1499552175951]$GPGSV,4,3,14,17,27,313,35,19,13,330,24,22,72,263,24,23,08,213,13*7C

[1499552175951]$GPGSV,4,4,14,31,24,115,19,32,37,058,31*7F

[1499552175951]$GPGLL,5357.23460,N,02741.21234,E,191615.00,A,A*63

[1499552176960]$GPRMC,191616.00,A,5357.23453,N,02741.21249,E,0.060,,080717,,,A*7C

[1499552176960]$GPVTG,,T,,M,0.060,N,0.111,K,A*24

[1499552176960]$GPGGA,191616.00,5357.23453,N,02741.21249,E,1,11,0.96,233.0,M,24.7,M,,*53

[1499552176960]$GPGSA,A,3,11,14,01,32,22,08,03,19,17,31,23,,1.55,0.96,1.22*0E

[1499552176960]$GPGSV,4,1,14,01,77,239,31,03,44,266,39,04,10,133,21,08,06,194,10*7D

[1499552176960]$GPGSV,4,2,14,10,03,085,16,11,54,202,32,12,02,023,,14,55,074,28*7E

[1499552176960]$GPGSV,4,3,14,17,27,313,31,19,13,330,25,22,72,263,21,23,08,213,13*7C

[1499552176960]$GPGSV,4,4,14,31,24,115,17,32,37,058,29*78

[1499552176960]$GPGLL,5357.23453,N,02741.21249,E,191616.00,A,A*6A

[1499552177950]$GPRMC,191617.00,A,5357.23447,N,02741.21262,E,0.128,,080717,,,A*7C

[1499552177950]$GPVTG,,T,,M,0.128,N,0.237,K,A*2E

[1499552177950]$GPGGA,191617.00,5357.23447,N,02741.21262,E,1,11,0.81,232.6,M,24.7,M,,*5F

[1499552177950]$GPGSA,A,3,11,14,01,32,22,08,03,19,17,31,23,,1.31,0.81,1.03*09

[1499552177950]$GPGSV,4,1,14,01,77,239,32,03,44,266,39,04,10,133,21,08,06,194,10*7E

[1499552177950]$GPGSV,4,2,14,10,03,085,16,11,54,202,32,12,02,023,,14,55,074,29*7F

[1499552177950]$GPGSV,4,3,14,17,27,313,30,19,13,330,26,22,73,263,18,23,08,213,13*75

[1499552177950]$GPGSV,4,4,14,31,24,115,16,32,37,058,29*79

[1499552177950]$GPGLL,5357.23447,N,02741.21262,E,191617.00,A,A*67

[1499552178951]$GPRMC,191618.00,A,5357.23445,N,02741.21262,E,0.090,,080717,,,A*73

[1499552178951]$GPVTG,,T,,M,0.090,N,0.167,K,A*2A

[1499552178951]$GPGGA,191618.00,5357.23445,N,02741.21262,E,1,11,0.81,233.0,M,24.7,M,,*55

[1499552178951]$GPGSA,A,3,11,14,01,32,22,08,03,19,17,31,23,,1.31,0.81,1.03*09

[1499552178951]$GPGSV,4,1,14,01,77,239,31,03,44,266,39,04,10,133,21,08,06,194,10*7D

[1499552178951]$GPGSV,4,2,14,10,03,085,16,11,54,202,31,12,02,023,,14,55,074,28*7D

[1499552178951]$GPGSV,4,3,14,17,27,313,29,19,13,330,27,22,73,263,18,23,08,213,13*7C

[1499552178951]$GPGSV,4,4,14,31,24,115,18,32,37,058,29*77

[1499552178951]$GPGLL,5357.23445,N,02741.21262,E,191618.00,A,A*6A

[1499552179954]$GPRMC,191619.00,A,5357.23452,N,02741.21268,E,0.040,,080717,,,A*73

[1499552179954]$GPVTG,,T,,M,0.040,N,0.074,K,A*24

[1499552179954]$GPGGA,191619.00,5357.23452,N,02741.21268,E,1,11,0.96,233.2,M,24.7,M,,*5C

[1499552179954]$GPGSA,A,3,11,14,01,32,22,08,03,19,17,31,23,,1.55,0.96,1.22*0E

[1499552179954]$GPGSV,4,1,14,01,77,239,29,03,44,266,40,04,10,133,19,08,06,194,10*71

[1499552179954]$GPGSV,4,2,14,10,03,085,15,11,54,202,31,12,02,023,,14,55,074,30*77

[1499552179954]$GPGSV,4,3,14,17,27,313,28,19,13,330,27,22,73,263,22,23,08,213,13*74

[1499552179954]$GPGSV,4,4,14,31,24,115,19,32,37,058,20*7F

[1499552179954]$GPGLL,5357.23452,N,02741.21268,E,191619.00,A,A*67

[1499552180950]$GPRMC,191620.00,A,5357.23448,N,02741.21278,E,0.150,,080717,,,A*73

[1499552180950]$GPVTG,,T,,M,0.150,N,0.278,K,A*2A

[1499552180950]$GPGGA,191620.00,5357.23448,N,02741.21278,E,1,11,0.81,233.4,M,24.7,M,,*5C

[1499552180950]$GPGSA,A,3,11,14,01,32,22,08,03,19,17,31,23,,1.31,0.81,1.03*09

[1499552180950]$GPGSV,4,1,14,01,77,239,31,03,44,266,39,04,10,133,18,08,06,194,08*7E

[1499552180950]$GPGSV,4,2,14,10,03,085,14,11,54,202,30,12,02,023,,14,55,074,28*7E

[1499552180950]$GPGSV,4,3,14,17,27,313,26,19,13,330,27,22,73,263,22,23,08,213,10*79

[1499552180950]$GPGSV,4,4,14,31,24,115,20,32,37,058,29*7C

[1499552180950]$GPGLL,5357.23448,N,02741.21278,E,191620.00,A,A*67

[1499552181951]$GPRMC,191621.00,A,5357.23444,N,02741.21281,E,0.031,,080717,,,A*7E

[1499552181951]$GPVTG,,T,,M,0.031,N,0.058,K,A*2C

[1499552181951]$GPGGA,191621.00,5357.23444,N,02741.21281,E,1,11,0.81,233.9,M,24.7,M,,*5A

[1499552181951]$GPGSA,A,3,11,14,01,32,22,08,03,19,17,31,23,,1.31,0.81,1.03*09

[1499552181951]$GPGSV,4,1,14,01,77,239,30,03,44,266,39,04,10,133,16,08,06,194,08*71

[1499552181951]$GPGSV,4,2,14,10,03,085,14,11,54,202,30,12,02,023,,14,55,074,28*7E

[1499552181951]$GPGSV,4,3,14,17,27,313,25,19,13,330,27,22,73,263,23,23,08,213,10*7B

[1499552181951]$GPGSV,4,4,14,31,24,115,20,32,37,058,29*7C

[1499552181951]$GPGLL,5357.23444,N,02741.21281,E,191621.00,A,A*6C

[1499552182960]$GPRMC,191622.00,A,5357.23454,N,02741.21275,E,0.221,,080717,,,A*74

[1499552182960]$GPVTG,,T,,M,0.221,N,0.409,K,A*2F

[1499552182960]$GPGGA,191622.00,5357.23454,N,02741.21275,E,1,11,0.96,234.3,M,24.7,M,,*58

[1499552182960]$GPGSA,A,3,11,14,01,32,22,08,03,19,17,31,23,,1.55,0.96,1.22*0E

[1499552182960]$GPGSV,4,1,14,01,77,239,31,03,44,266,38,04,10,133,13,08,06,194,08*74

[1499552182960]$GPGSV,4,2,14,10,03,085,13,11,54,202,31,12,02,023,,14,55,074,27*77

[1499552182960]$GPGSV,4,3,14,17,27,313,26,19,13,330,27,22,73,263,23,23,08,213,10*78

[1499552182960]$GPGSV,4,4,14,31,24,115,20,32,37,058,28*7D

[1499552182960]$GPGLL,5357.23454,N,02741.21275,E,191622.00,A,A*65

[1499552183950]$GPRMC,191623.00,A,5357.23452,N,02741.21283,E,0.070,,080717,,,A*7C

[1499552183950]$GPVTG,,T,,M,0.070,N,0.130,K,A*26

[1499552183950]$GPGGA,191623.00,5357.23452,N,02741.21283,E,1,11,0.81,234.4,M,24.7,M,,*57

[1499552183950]$GPGSA,A,3,11,14,01,32,22,08,03,19,17,31,23,,1.31,0.81,1.03*09

[1499552183950]$GPGSV,4,1,14,01,77,239,32,03,44,266,39,04,10,133,11,08,06,194,08*74

[1499552183950]$GPGSV,4,2,14,10,03,085,15,11,54,202,32,12,02,023,,14,55,074,28*7D

[1499552183950]$GPGSV,4,3,14,17,27,313,26,19,13,330,27,22,73,263,24,23,08,213,10*7F

[1499552183950]$GPGSV,4,4,14,31,24,115,20,32,37,058,28*7D

[1499552183950]$GPGLL,5357.23452,N,02741.21283,E,191623.00,A,A*6B

[1499552184965]$GPRMC,191624.00,A,5357.23438,N,02741.21296,E,0.092,,080717,,,A*7F

[1499552184965]$GPVTG,,T,,M,0.092,N,0.170,K,A*2E

[1499552184965]$GPGGA,191624.00,5357.23438,N,02741.21296,E,1,11,0.81,234.4,M,24.7,M,,*58

[1499552184965]$GPGSA,A,3,11,14,01,32,22,08,03,19,17,31,23,,1.31,0.81,1.03*09

[1499552184965]$GPGSV,4,1,14,01,77,239,30,03,44,266,39,04,10,133,15,08,06,194,08*72

[1499552184965]$GPGSV,4,2,14,10,03,085,17,11,54,202,32,12,02,023,,14,55,074,28*7F

[1499552184965]$GPGSV,4,3,14,17,27,313,28,19,13,330,27,22,73,263,23,23,08,213,10*76

[1499552184965]$GPGSV,4,4,14,31,24,115,21,32,37,058,28*7C

[1499552184965]$GPGLL,5357.23438,N,02741.21296,E,191624.00,A,A*64

[1499552185949]$GPRMC,191625.00,A,5357.23445,N,02741.21301,E,0.027,,080717,,,A*75

[1499552185949]$GPVTG,,T,,M,0.027,N,0.050,K,A*23

[1499552185949]$GPGGA,191625.00,5357.23445,N,02741.21301,E,1,11,0.96,234.7,M,24.7,M,,*59

[1499552185949]$GPGSA,A,3,11,14,01,32,22,08,03,19,17,31,23,,1.55,0.96,1.22*0E

[1499552185949]$GPGSV,4,1,14,01,77,239,31,03,44,266,39,04,10,133,17,08,06,194,08*71

[1499552185949]$GPGSV,4,2,14,10,03,085,18,11,54,202,32,12,02,023,,14,55,074,28*70

[1499552185949]$GPGSV,4,3,14,17,27,313,28,19,13,330,27,22,73,263,21,23,08,213,10*74

[1499552185949]$GPGSV,4,4,14,31,24,115,21,32,37,058,27*73

[1499552185949]$GPGLL,5357.23445,N,02741.21301,E,191625.00,A,A*60

[1499552186951]$GPRMC,191626.00,A,5357.23439,N,02741.21295,E,0.185,,080717,,,A*78

[1499552186951]$GPVTG,,T,,M,0.185,N,0.343,K,A*2B

[1499552186951]$GPGGA,191626.00,5357.23439,N,02741.21295,E,1,11,0.81,235.5,M,24.7,M,,*58

[1499552186951]$GPGSA,A,3,11,14,01,32,22,08,03,19,17,31,23,,1.31,0.81,1.03*09

[1499552186951]$GPGSV,4,1,14,01,77,239,30,03,44,266,39,04,10,133,19,08,06,194,08*7E

[1499552186951]$GPGSV,4,2,14,10,03,085,18,11,54,202,33,12,02,023,,14,55,074,27*7E

[1499552186951]$GPGSV,4,3,14,17,27,313,28,19,13,330,27,22,73,263,20,23,08,213,12*77

[1499552186951]$GPGSV,4,4,14,31,24,115,20,32,37,058,24*71

[1499552186951]$GPGLL,5357.23439,N,02741.21295,E,191626.00,A,A*64

[1499552187951]$GPRMC,191627.00,A,5357.23432,N,02741.21294,E,0.103,,080717,,,A*7D

[1499552187951]$GPVTG,,T,,M,0.103,N,0.190,K,A*29

[1499552187951]$GPGGA,191627.00,5357.23432,N,02741.21294,E,1,11,0.81,236.1,M,24.7,M,,*54

[1499552187951]$GPGSA,A,3,11,14,01,32,22,08,03,19,17,31,23,,1.31,0.81,1.03*09

[1499552187951]$GPGSV,4,1,14,01,77,239,30,03,44,266,39,04,10,133,21,08,06,194,08*75

[1499552187951]$GPGSV,4,2,14,10,03,085,19,11,54,202,32,12,02,023,,14,55,074,27*7E

[1499552187951]$GPGSV,4,3,14,17,27,313,28,19,13,330,27,22,73,263,21,23,08,213,12*76

[1499552187951]$GPGSV,4,4,14,31,24,115,20,32,37,057,22*78

[1499552187951]$GPGLL,5357.23432,N,02741.21294,E,191627.00,A,A*6F

[1499552188960]$GPRMC,191628.00,A,5357.23436,N,02741.21296,E,0.140,,080717,,,A*73

[1499552188960]$GPVTG,,T,,M,0.140,N,0.259,K,A*28

[1499552188960]$GPGGA,191628.00,5357.23436,N,02741.21296,E,1,11,0.96,236.4,M,24.7,M,,*5E

[1499552188960]$GPGSA,A,3,11,14,01,32,22,08,03,19,17,31,23,,1.55,0.96,1.22*0E

[1499552188960]$GPGSV,4,1,14,01,77,239,29,03,44,266,39,04,10,133,23,08,06,194,08*7F

[1499552188960]$GPGSV,4,2,14,10,03,085,19,11,54,202,31,12,02,023,,14,55,074,27*7D

[1499552188960]$GPGSV,4,3,14,17,27,313,30,19,13,330,26,22,73,263,23,23,08,213,12*7C

[1499552188960]$GPGSV,4,4,14,31,24,115,17,32,37,057,19*74

[1499552188960]$GPGLL,5357.23436,N,02741.21296,E,191628.00,A,A*66

[1499552189964]$GPRMC,191629.00,A,5357.23438,N,02741.21290,E,0.087,,080717,,,A*70

[1499552189964]$GPVTG,,T,,M,0.087,N,0.160,K,A*2B

[1499552189964]$GPGGA,191629.00,5357.23438,N,02741.21290,E,1,11,0.81,237.2,M,24.7,M,,*56

[1499552189964]$GPGSA,A,3,11,14,01,32,22,08,03,19,17,31,23,,1.31,0.81,1.03*09

[1499552189964]$GPGSV,4,1,14,01,77,239,30,03,44,266,39,04,10,133,23,08,06,194,08*77

[1499552189964]$GPGSV,4,2,14,10,03,085,18,11,54,202,31,12,02,023,,14,55,074,28*73

[1499552189964]$GPGSV,4,3,14,17,27,313,29,19,13,330,26,22,73,263,23,23,08,213,12*74

[1499552189964]$GPGSV,4,4,14,31,24,115,17,32,37,057,21*7F

[1499552189964]$GPGLL,5357.23438,N,02741.21290,E,191629.00,A,A*6F

[1499552190950]$GPRMC,191630.00,A,5357.23421,N,02741.21295,E,0.058,,080717,,,A*77

[1499552190950]$GPVTG,,T,,M,0.058,N,0.108,K,A*27

[1499552190950]$GPGGA,191630.00,5357.23421,N,02741.21295,E,1,11,0.81,237.6,M,24.7,M,,*57

[1499552190950]$GPGSA,A,3,11,14,01,32,22,08,03,19,17,31,23,,1.31,0.81,1.03*09

[1499552190950]$GPGSV,4,1,14,01,77,239,30,03,44,266,39,04,10,133,23,08,06,194,08*77

[1499552190950]$GPGSV,4,2,14,10,03,085,17,11,54,202,30,12,02,023,,14,55,074,29*7C

[1499552190950]$GPGSV,4,3,14,17,27,313,29,19,13,330,27,22,73,263,26,23,08,213,12*70

[1499552190950]$GPGSV,4,4,14,31,24,115,16,32,37,057,25*7A

[1499552190950]$GPGLL,5357.23421,N,02741.21295,E,191630.00,A,A*6A

[1499552191950]$GPRMC,191631.00,A,5357.23424,N,02741.21293,E,0.230,,080717,,,A*79

[1499552191950]$GPVTG,,T,,M,0.230,N,0.426,K,A*22

[1499552191950]$GPGGA,191631.00,5357.23424,N,02741.21293,E,1,11,0.96,237.8,M,24.7,M,,*5D

[1499552191950]$GPGSA,A,3,11,14,01,32,22,08,03,19,17,31,23,,1.55,0.96,1.22*0E

[1499552191950]$GPGSV,4,1,14,01,77,239,32,03,44,266,40,04,10,133,23,08,06,194,08*7B

[1499552191950]$GPGSV,4,2,14,10,03,085,19,11,54,202,30,12,02,023,,14,55,074,29*72

[1499552191950]$GPGSV,4,3,14,17,27,313,30,19,13,330,26,22,73,263,26,23,08,213,12*79

[1499552191950]$GPGSV,4,4,14,31,24,115,16,32,37,057,27*78

[1499552191950]$GPGLL,5357.23424,N,02741.21293,E,191631.00,A,A*68

[1499552192953]$GPRMC,191632.00,A,5357.23417,N,02741.21293,E,0.107,,080717,,,A*7D

[1499552192953]$GPVTG,,T,,M,0.107,N,0.199,K,A*24

[1499552192953]$GPGGA,191632.00,5357.23417,N,02741.21293,E,1,11,0.81,238.2,M,24.7,M,,*5D

[1499552192953]$GPGSA,A,3,11,14,01,32,22,08,03,19,17,31,23,,1.31,0.81,1.03*09

[1499552192953]$GPGSV,4,1,14,01,77,239,32,03,44,266,40,04,10,133,23,08,06,194,07*74

[1499552192953]$GPGSV,4,2,14,10,03,085,20,11,54,202,31,12,02,023,,14,55,074,29*79

[1499552192953]$GPGSV,4,3,14,17,27,313,29,19,13,330,26,22,73,263,27,23,08,213,08*7B

[1499552192953]$GPGSV,4,4,14,31,24,115,16,32,37,057,26*79

[1499552192953]$GPGLL,5357.23417,N,02741.21293,E,191632.00,A,A*6B

[1499552193949]$GPRMC,191633.00,A,5357.23409,N,02741.21294,E,0.064,,080717,,,A*70

[1499552193949]$GPVTG,,T,,M,0.064,N,0.118,K,A*29

[1499552193949]$GPGGA,191633.00,5357.23409,N,02741.21294,E,1,11,0.81,238.6,M,24.7,M,,*50

[1499552193949]$GPGSA,A,3,11,14,01,32,22,08,03,19,17,31,23,,1.31,0.81,1.03*09

[1499552193949]$GPGSV,4,1,14,01,77,239,32,03,44,266,40,04,10,133,22,08,06,194,07*75

[1499552193949]$GPGSV,4,2,14,10,03,085,20,11,54,202,31,12,02,023,,14,55,074,28*78

[1499552193949]$GPGSV,4,3,14,17,27,313,29,19,13,330,25,22,73,263,27,23,08,213,08*78

[1499552193949]$GPGSV,4,4,14,31,24,115,17,32,37,057,25*7B

[1499552193949]$GPGLL,5357.23409,N,02741.21294,E,191633.00,A,A*62

[1499552194949]$GPRMC,191634.00,A,5357.23395,N,02741.21301,E,0.074,,080717,,,A*79

[1499552194949]$GPVTG,,T,,M,0.074,N,0.137,K,A*25

[1499552194949]$GPGGA,191634.00,5357.23395,N,02741.21301,E,1,10,0.86,238.4,M,24.7,M,,*5C

[1499552194949]$GPGSA,A,3,11,14,01,32,22,08,03,19,17,31,,,1.40,0.86,1.11*0A

[1499552194949]$GPGSV,4,1,14,01,77,239,33,03,44,266,40,04,10,133,22,08,06,194,07*74

[1499552194949]$GPGSV,4,2,14,10,03,085,19,11,54,202,31,12,02,023,,14,55,074,28*72

[1499552194949]$GPGSV,4,3,14,17,27,313,29,19,13,330,25,22,73,263,27,23,08,213,08*78

[1499552194949]$GPGSV,4,4,14,31,24,115,16,32,37,057,24*7B

[1499552194949]$GPGLL,5357.23395,N,02741.21301,E,191634.00,A,A*6A

[1499552195950]$GPRMC,191635.00,A,5357.23392,N,02741.21308,E,0.036,,080717,,,A*70

[1499552195950]$GPVTG,,T,,M,0.036,N,0.067,K,A*27

[1499552195950]$GPGGA,191635.00,5357.23392,N,02741.21308,E,1,10,0.99,238.1,M,24.7,M,,*58

[1499552195950]$GPGSA,A,3,11,14,01,32,22,08,03,19,17,31,,,1.65,0.99,1.32*02

[1499552195950]$GPGSV,4,1,14,01,77,239,32,03,44,266,39,04,10,133,21,08,06,194,07*78

[1499552195950]$GPGSV,4,2,14,10,03,085,19,11,54,202,32,12,02,023,,14,55,074,28*71

[1499552195950]$GPGSV,4,3,14,17,27,313,29,19,13,330,25,22,73,263,26,23,08,213,08*79

[1499552195950]$GPGSV,4,4,14,31,24,115,16,32,37,057,24*7B

[1499552195950]$GPGLL,5357.23392,N,02741.21308,E,191635.00,A,A*65

[1499552196961]$GPRMC,191636.00,A,5357.23387,N,02741.21308,E,0.044,,080717,,,A*72

[1499552196961]$GPVTG,,T,,M,0.044,N,0.082,K,A*29

[1499552196961]$GPGGA,191636.00,5357.23387,N,02741.21308,E,1,10,0.86,238.3,M,24.7,M,,*53

[1499552196961]$GPGSA,A,3,11,14,01,32,22,08,03,19,17,31,,,1.40,0.86,1.11*0A

[1499552196961]$GPGSV,4,1,14,01,77,239,31,03,44,266,38,04,10,133,20,08,06,194,07*7B

[1499552196961]$GPGSV,4,2,14,10,03,085,19,11,54,202,32,12,02,023,,14,55,074,27*7E

[1499552196961]$GPGSV,4,3,14,17,27,313,29,19,13,330,26,22,73,263,26,23,08,213,08*7A

[1499552196961]$GPGSV,4,4,14,31,24,115,19,32,37,057,26*76

[1499552196961]$GPGLL,5357.23387,N,02741.21308,E,191636.00,A,A*62

[1499552197949]$GPRMC,191637.00,A,5357.23379,N,02741.21306,E,0.040,,080717,,,A*78

[1499552197949]$GPVTG,,T,,M,0.040,N,0.074,K,A*24

[1499552197949]$GPGGA,191637.00,5357.23379,N,02741.21306,E,1,10,0.86,238.6,M,24.7,M,,*58

[1499552197949]$GPGSA,A,3,11,14,01,32,22,08,03,19,17,31,,,1.40,0.86,1.11*0A

[1499552197949]$GPGSV,4,1,14,01,77,239,30,03,44,266,38,04,10,133,20,08,06,194,07*7A

[1499552197949]$GPGSV,4,2,14,10,03,085,19,11,54,202,32,12,02,023,,14,55,074,27*7E

[1499552197949]$GPGSV,4,3,14,17,27,313,29,19,13,330,25,22,73,263,26,23,08,213,08*79

[1499552197949]$GPGSV,4,4,14,31,24,115,19,32,37,057,25*75

[1499552197949]$GPGLL,5357.23379,N,02741.21306,E,191637.00,A,A*6C

[1499552198950]$GPRMC,191638.00,A,5357.23373,N,02741.21305,E,0.077,,080717,,,A*7A

[1499552198950]$GPVTG,,T,,M,0.077,N,0.144,K,A*22

[1499552198950]$GPGGA,191638.00,5357.23373,N,02741.21305,E,1,09,1.17,238.9,M,24.7,M,,*50

[1499552198950]$GPGSA,A,3,11,14,01,32,22,03,19,17,31,,,,2.04,1.17,1.68*06

[1499552198950]$GPGSV,4,1,14,01,77,239,30,03,44,266,38,04,10,133,19,08,06,194,05*72

[1499552198950]$GPGSV,4,2,14,10,03,085,18,11,54,202,32,12,02,023,,14,55,074,28*70

[1499552198950]$GPGSV,4,3,14,17,27,313,29,19,13,330,25,22,73,263,26,23,08,213,11*71

[1499552198950]$GPGSV,4,4,14,31,24,115,18,32,37,057,27*76

[1499552198950]$GPGLL,5357.23373,N,02741.21305,E,191638.00,A,A*6A

[1499552199949]$GPRMC,191639.00,A,5357.23367,N,02741.21305,E,0.027,,080717,,,A*7B

[1499552199949]$GPVTG,,T,,M,0.027,N,0.050,K,A*23

[1499552199949]$GPGGA,191639.00,5357.23367,N,02741.21305,E,1,09,1.23,238.3,M,24.7,M,,*59

[1499552199949]$GPGSA,A,3,11,14,01,32,22,03,19,17,31,,,,2.29,1.23,1.94*0D

[1499552199949]$GPGSV,4,1,14,01,77,239,31,03,44,266,38,04,10,133,21,08,06,194,05*78

[1499552199949]$GPGSV,4,2,14,10,03,085,19,11,54,202,32,12,02,023,,14,55,074,28*71

[1499552199949]$GPGSV,4,3,14,17,27,313,28,19,13,330,24,22,73,263,26,23,08,213,11*71

[1499552199949]$GPGSV,4,4,14,31,24,115,15,32,37,057,28*74

[1499552199949]$GPGLL,5357.23367,N,02741.21305,E,191639.00,A,A*6E

[1499552200950]$GPRMC,191640.00,A,5357.23364,N,02741.21302,E,0.039,,080717,,,A*7E

[1499552200950]$GPVTG,,T,,M,0.039,N,0.071,K,A*2F

[1499552200950]$GPGGA,191640.00,5357.23364,N,02741.21302,E,1,10,1.17,238.3,M,24.7,M,,*5C

[1499552200950]$GPGSA,A,3,11,14,01,32,22,03,19,17,31,23,,,2.04,1.17,1.68*07

[1499552200950]$GPGSV,4,1,14,01,77,237,29,03,44,266,38,04,10,133,20,08,06,194,05*7E

[1499552200950]$GPGSV,4,2,14,10,03,085,20,11,54,202,32,12,02,023,,14,55,074,28*7B

[1499552200950]$GPGSV,4,3,14,17,27,313,29,19,13,330,23,22,73,263,27,23,08,213,11*76

[1499552200950]$GPGSV,4,4,14,31,24,115,15,32,37,057,24*78

[1499552200950]$GPGLL,5357.23364,N,02741.21302,E,191640.00,A,A*64

[1499552201950]$GPRMC,191641.00,A,5357.23354,N,02741.21306,E,0.054,,080717,,,A*73

[1499552201950]$GPVTG,,T,,M,0.054,N,0.099,K,A*22

[1499552201950]$GPGGA,191641.00,5357.23354,N,02741.21306,E,1,10,1.17,238.2,M,24.7,M,,*5B

[1499552201950]$GPGSA,A,3,11,14,01,32,22,03,19,17,31,23,,,2.04,1.17,1.68*07

[1499552201950]$GPGSV,4,1,14,01,77,237,28,03,44,266,37,04,10,133,20,08,06,194,05*70

[1499552201950]$GPGSV,4,2,14,10,03,085,21,11,54,202,33,12,02,023,,14,55,074,28*7B

[1499552201950]$GPGSV,4,3,14,17,27,313,30,19,13,330,22,22,73,263,26,23,08,213,11*7E

[1499552201950]$GPGSV,4,4,14,31,24,115,15,32,37,057,21*7D

[1499552201950]$GPGLL,5357.23354,N,02741.21306,E,191641.00,A,A*62

[1499552202957]$GPRMC,191642.00,A,5357.23351,N,02741.21299,E,0.038,,080717,,,A*78

[1499552202957]$GPVTG,,T,,M,0.038,N,0.070,K,A*2F

[1499552202957]$GPGGA,191642.00,5357.23351,N,02741.21299,E,1,10,1.17,238.8,M,24.7,M,,*50

[1499552202957]$GPGSA,A,3,11,14,01,32,22,03,19,17,31,23,,,2.04,1.17,1.68*07

[1499552202957]$GPGSV,4,1,14,01,77,237,28,03,45,267,36,04,10,133,21,08,06,194,05*70

[1499552202957]$GPGSV,4,2,14,10,03,085,21,11,54,202,32,12,02,023,,14,55,074,28*7A

[1499552202957]$GPGSV,4,3,14,17,27,313,30,19,13,330,21,22,73,263,26,23,08,213,11*7D

[1499552202957]$GPGSV,4,4,14,31,24,115,15,32,37,057,16*79

[1499552202957]$GPGLL,5357.23351,N,02741.21299,E,191642.00,A,A*63

[1499552203949]$GPRMC,191643.00,A,5357.23339,N,02741.21298,E,0.102,,080717,,,A*7E

[1499552203949]$GPVTG,,T,,M,0.102,N,0.189,K,A*20

[1499552203949]$GPGGA,191643.00,5357.23339,N,02741.21298,E,1,10,1.17,239.1,M,24.7,M,,*56

[1499552203949]$GPGSA,A,3,11,14,01,32,22,03,19,17,31,23,,,2.05,1.17,1.68*06

[1499552203949]$GPGSV,4,1,14,01,77,237,28,03,45,267,37,04,10,133,21,08,06,194,05*71

[1499552203949]$GPGSV,4,2,14,10,03,085,21,11,54,202,32,12,02,023,,14,55,074,28*7A

[1499552203949]$GPGSV,4,3,14,17,27,313,30,19,13,330,21,22,73,263,26,23,08,213,11*7D

[1499552203949]$GPGSV,4,4,14,31,24,115,15,32,37,057,19*76

[1499552203949]$GPGLL,5357.23339,N,02741.21298,E,191643.00,A,A*6D

[1499552204949]$GPRMC,191644.00,A,5357.23337,N,02741.21302,E,0.031,,080717,,,A*74

[1499552204949]$GPVTG,,T,,M,0.031,N,0.058,K,A*2C

[1499552204949]$GPGGA,191644.00,5357.23337,N,02741.21302,E,1,10,1.23,238.9,M,24.7,M,,*53

[1499552204949]$GPGSA,A,3,11,14,01,32,22,03,19,17,31,23,,,2.30,1.23,1.94*04

[1499552204949]$GPGSV,4,1,14,01,77,237,27,03,45,267,37,04,10,133,21,08,06,194,07*7C

[1499552204949]$GPGSV,4,2,14,10,03,085,21,11,54,202,32,12,02,023,,14,55,074,28*7A

[1499552204949]$GPGSV,4,3,14,17,27,313,29,19,13,330,22,22,73,263,26,23,08,213,10*77

[1499552204949]$GPGSV,4,4,14,31,24,115,15,32,37,057,20*7C

[1499552204949]$GPGLL,5357.23337,N,02741.21302,E,191644.00,A,A*66

[1499552205949]$GPRMC,191645.00,A,5357.23331,N,02741.21307,E,0.054,,080717,,,A*75

[1499552205949]$GPVTG,,T,,M,0.054,N,0.099,K,A*22

[1499552205949]$GPGGA,191645.00,5357.23331,N,02741.21307,E,1,10,1.17,239.0,M,24.7,M,,*5E

[1499552205949]$GPGSA,A,3,11,14,01,32,22,03,19,17,31,23,,,2.05,1.17,1.68*06

[1499552205949]$GPGSV,4,1,14,01,77,237,27,03,45,267,36,04,10,133,19,08,06,194,07*76

[1499552205949]$GPGSV,4,2,14,10,03,085,21,11,54,202,32,12,02,023,,14,55,074,29*7B

[1499552205949]$GPGSV,4,3,14,17,27,313,29,19,13,330,21,22,73,263,25,23,08,213,10*77

[1499552205949]$GPGSV,4,4,14,31,24,115,16,32,37,057,21*7E

[1499552205949]$GPGLL,5357.23331,N,02741.21307,E,191645.00,A,A*64

[1499552206949]$GPRMC,191646.00,A,5357.23323,N,02741.21293,E,0.068,,080717,,,A*76

[1499552206949]$GPVTG,,T,,M,0.068,N,0.126,K,A*28

[1499552206949]$GPGGA,191646.00,5357.23323,N,02741.21293,E,1,11,0.86,239.3,M,24.7,M,,*59

[1499552206949]$GPGSA,A,3,11,14,01,32,22,08,03,19,17,31,23,,1.40,0.86,1.11*0B

[1499552206949]$GPGSV,4,1,14,01,77,237,27,03,45,267,39,04,10,133,19,08,06,194,07*79

[1499552206949]$GPGSV,4,2,14,10,03,085,22,11,54,202,32,12,02,023,,14,55,074,30*70

[1499552206949]$GPGSV,4,3,14,17,27,313,31,19,13,330,20,22,73,263,25,23,08,213,10*7F

[1499552206949]$GPGSV,4,4,14,31,24,115,17,32,37,057,20*7E

[1499552206949]$GPGLL,5357.23323,N,02741.21293,E,191646.00,A,A*68

[1499552207949]$GPRMC,191647.00,A,5357.23311,N,02741.21291,E,0.130,,080717,,,A*78

[1499552207949]$GPVTG,,T,,M,0.130,N,0.242,K,A*25

[1499552207949]$GPGGA,191647.00,5357.23311,N,02741.21291,E,1,11,0.86,239.6,M,24.7,M,,*5E

[1499552207949]$GPGSA,A,3,11,14,01,32,22,08,03,19,17,31,23,,1.40,0.86,1.11*0B

[1499552207949]$GPGSV,4,1,14,01,77,237,26,03,45,267,38,04,10,133,21,08,06,194,07*72

[1499552207949]$GPGSV,4,2,14,10,03,085,23,11,54,202,33,12,02,023,,14,55,074,30*70

[1499552207949]$GPGSV,4,3,14,17,27,313,32,19,13,330,20,22,73,263,23,23,08,213,10*7A

[1499552207949]$GPGSV,4,4,14,31,24,115,19,32,37,057,17*74

[1499552207949]$GPGLL,5357.23311,N,02741.21291,E,191647.00,A,A*6A

[1499552208951]$GPRMC,191648.00,A,5357.23312,N,02741.21281,E,0.065,,080717,,,A*74

[1499552208951]$GPVTG,,T,,M,0.065,N,0.121,K,A*22

[1499552208951]$GPGGA,191648.00,5357.23312,N,02741.21281,E,1,10,0.98,240.0,M,24.7,M,,*55

[1499552208951]$GPGSA,A,3,11,14,01,22,08,03,19,17,31,23,,,1.48,0.98,1.11*0D

[1499552208951]$GPGSV,4,1,14,01,77,237,26,03,45,267,38,04,10,133,21,08,06,194,07*72

[1499552208951]$GPGSV,4,2,14,10,03,085,23,11,54,202,33,12,02,023,,14,55,074,29*78

[1499552208951]$GPGSV,4,3,14,17,27,313,32,19,13,330,20,22,73,263,23,23,08,213,10*7A

[1499552208951]$GPGSV,4,4,14,31,24,115,20,32,37,057,15*7C

[1499552208951]$GPGLL,5357.23312,N,02741.21281,E,191648.00,A,A*67

[1499552209950]$GPRMC,191649.00,A,5357.23315,N,02741.21272,E,0.061,,080717,,,A*7A

[1499552209950]$GPVTG,,T,,M,0.061,N,0.114,K,A*20

[1499552209950]$GPGGA,191649.00,5357.23315,N,02741.21272,E,1,09,0.98,240.7,M,24.7,M,,*50

[1499552209950]$GPGSA,A,3,11,14,01,22,08,03,19,17,31,,,,1.48,0.98,1.11*0C

[1499552209950]$GPGSV,4,1,14,01,77,237,25,03,45,267,38,04,10,133,21,08,06,194,07*71

[1499552209950]$GPGSV,4,2,14,10,03,085,23,11,54,202,31,12,02,023,,14,55,074,29*7A

[1499552209950]$GPGSV,4,3,14,17,27,313,33,19,13,330,20,22,73,263,24,23,08,213,*7D

[1499552209950]$GPGSV,4,4,14,31,24,115,21,32,37,057,21*7A

[1499552209950]$GPGLL,5357.23315,N,02741.21272,E,191649.00,A,A*6D

[1499552210949]$GPRMC,191650.00,A,5357.23316,N,02741.21261,E,0.076,,080717,,,A*75

[1499552210949]$GPVTG,,T,,M,0.076,N,0.140,K,A*27

[1499552210949]$GPGGA,191650.00,5357.23316,N,02741.21261,E,1,09,0.98,241.7,M,24.7,M,,*58

[1499552210949]$GPGSA,A,3,11,14,01,22,08,03,19,17,31,,,,1.48,0.98,1.11*0C

[1499552210949]$GPGSV,4,1,14,01,77,237,25,03,45,267,37,04,10,133,22,08,06,194,09*73

[1499552210949]$GPGSV,4,2,14,10,03,085,23,11,54,201,32,12,02,023,,14,55,074,29*7A

[1499552210949]$GPGSV,4,3,14,17,27,313,33,19,13,330,20,22,73,263,24,23,08,213,*7D

[1499552210949]$GPGSV,4,4,14,31,24,115,22,32,37,057,20*78

[1499552210949]$GPGLL,5357.23316,N,02741.21261,E,191650.00,A,A*64

[1499552211949]$GPRMC,191651.00,A,5357.23328,N,02741.21239,E,0.241,,080717,,,A*72

[1499552211949]$GPVTG,,T,,M,0.241,N,0.446,K,A*22

[1499552211949]$GPGGA,191651.00,5357.23328,N,02741.21239,E,1,09,0.98,243.1,M,24.7,M,,*5D

[1499552211949]$GPGSA,A,3,11,14,01,22,08,03,19,17,31,,,,1.48,0.98,1.11*0C

[1499552211949]$GPGSV,4,1,14,01,77,237,25,03,45,267,37,04,10,133,22,08,06,194,09*73

[1499552211949]$GPGSV,4,2,14,10,03,085,22,11,54,201,31,12,02,022,,14,55,074,29*79

[1499552211949]$GPGSV,4,3,14,17,27,313,33,19,13,330,19,22,73,263,24,23,08,213,*77

[1499552211949]$GPGSV,4,4,14,31,24,115,23,32,37,057,18*72

[1499552211949]$GPGLL,5357.23328,N,02741.21239,E,191651.00,A,A*65

[1499552212949]$GPRMC,191652.00,A,5357.23333,N,02741.21230,E,0.078,,080717,,,A*7A

[1499552212949]$GPVTG,,T,,M,0.078,N,0.144,K,A*2D

[1499552212949]$GPGGA,191652.00,5357.23333,N,02741.21230,E,1,09,1.24,243.6,M,24.7,M,,*5C

[1499552212949]$GPGSA,A,3,11,14,01,22,08,03,19,17,31,,,,1.72,1.24,1.20*01

[1499552212949]$GPGSV,4,1,14,01,77,237,23,03,45,267,37,04,10,133,23,08,06,194,09*74

[1499552212949]$GPGSV,4,2,14,10,03,085,22,11,54,201,30,12,02,022,,14,55,074,29*78

[1499552212949]$GPGSV,4,3,14,17,27,313,34,19,13,330,18,22,73,263,24,23,08,213,*71

[1499552212949]$GPGSV,4,4,14,31,24,115,24,32,37,057,17*7A

[1499552212949]$GPGLL,5357.23333,N,02741.21230,E,191652.00,A,A*65

[1499552213949]$GPRMC,191653.00,A,5357.23340,N,02741.21234,E,0.097,,080717,,,A*7A

[1499552213949]$GPVTG,,T,,M,0.097,N,0.180,K,A*24

[1499552213949]$GPGGA,191653.00,5357.23340,N,02741.21234,E,1,10,1.10,243.9,M,24.7,M,,*5D

[1499552213949]$GPGSA,A,3,11,14,01,32,22,08,03,19,17,31,,,1.75,1.10,1.36*07

[1499552213949]$GPGSV,4,1,14,01,77,237,25,03,45,267,38,04,10,133,23,08,06,194,09*7D

[1499552213949]$GPGSV,4,2,14,10,03,085,22,11,54,201,31,12,02,022,,14,55,073,29*7E

[1499552213949]$GPGSV,4,3,14,17,27,313,33,19,13,330,17,22,73,263,23,23,08,213,*7E

[1499552213949]$GPGSV,4,4,14,31,24,115,24,32,37,057,18*75

[1499552213949]$GPGLL,5357.23340,N,02741.21234,E,191653.00,A,A*64

[1499552214949]$GPRMC,191654.00,A,5357.23349,N,02741.21227,E,0.120,,080717,,,A*7B

[1499552214949]$GPVTG,,T,,M,0.120,N,0.223,K,A*23

[1499552214949]$GPGGA,191654.00,5357.23349,N,02741.21227,E,1,10,0.98,244.6,M,24.7,M,,*58

[1499552214949]$GPGSA,A,3,11,14,01,32,22,08,03,19,17,31,,,1.52,0.98,1.17*00

[1499552214949]$GPGSV,4,1,14,01,77,237,23,03,45,267,37,04,10,133,23,08,06,194,09*74

[1499552214949]$GPGSV,4,2,14,10,03,085,22,11,54,201,31,12,02,022,,14,55,073,29*7E

[1499552214949]$GPGSV,4,3,14,17,27,313,33,19,13,330,14,22,73,263,24,23,08,213,*7A

[1499552214949]$GPGSV,4,4,14,31,24,115,23,32,37,057,19*73

[1499552214949]$GPGLL,5357.23349,N,02741.21227,E,191654.00,A,A*68

[1499552215950]$GPRMC,191655.00,A,5357.23355,N,02741.21217,E,0.184,,080717,,,A*7A

[1499552215950]$GPVTG,,T,,M,0.184,N,0.340,K,A*29

[1499552215950]$GPGGA,191655.00,5357.23355,N,02741.21217,E,1,10,0.98,245.4,M,24.7,M,,*54

[1499552215950]$GPGSA,A,3,11,14,01,32,22,08,03,19,17,31,,,1.52,0.98,1.17*00

[1499552215950]$GPGSV,4,1,14,01,77,237,25,03,45,267,37,04,10,133,23,08,06,194,09*72

[1499552215950]$GPGSV,4,2,14,10,03,085,21,11,54,201,32,12,02,022,,14,55,073,29*7E

[1499552215950]$GPGSV,4,3,14,17,27,313,34,19,13,330,17,22,73,263,24,23,08,213,*7E

[1499552215950]$GPGSV,4,4,14,31,24,115,22,32,37,057,20*78

[1499552215950]$GPGLL,5357.23355,N,02741.21217,E,191655.00,A,A*67

[1499552216949]$GPRMC,191656.00,A,5357.23350,N,02741.21213,E,0.118,,080717,,,A*7D

[1499552216949]$GPVTG,,T,,M,0.118,N,0.219,K,A*21

[1499552216949]$GPGGA,191656.00,5357.23350,N,02741.21213,E,1,10,0.98,245.9,M,24.7,M,,*5B

[1499552216949]$GPGSA,A,3,11,14,01,32,22,08,03,19,17,31,,,1.52,0.98,1.17*00

[1499552216949]$GPGSV,4,1,14,01,77,237,29,03,45,267,37,04,10,133,23,08,06,194,12*74

[1499552216949]$GPGSV,4,2,14,10,03,085,20,11,54,201,31,12,02,022,,14,55,073,31*75

[1499552216949]$GPGSV,4,3,14,17,27,312,34,19,13,330,20,22,73,263,24,23,08,213,*7B

[1499552216949]$GPGSV,4,4,14,31,24,115,21,32,37,057,18*70

[1499552216949]$GPGLL,5357.23350,N,02741.21213,E,191656.00,A,A*65

[1499552217950]$GPRMC,191657.00,A,5357.23355,N,02741.21214,E,0.216,,080717,,,A*73

[1499552217950]$GPVTG,,T,,M,0.216,N,0.399,K,A*25

[1499552217950]$GPGGA,191657.00,5357.23355,N,02741.21214,E,1,10,1.10,245.9,M,24.7,M,,*59

[1499552217950]$GPGSA,A,3,11,14,01,32,22,08,03,19,17,31,,,1.75,1.10,1.36*07

[1499552217950]$GPGSV,4,1,14,01,77,237,29,03,45,267,37,04,10,133,25,08,06,194,12*72

[1499552217950]$GPGSV,4,2,14,10,03,085,18,11,54,201,32,12,02,022,,14,55,073,31*7D

